     3.01           Observation data    Mixed               RINEX VERSION / TYPE
BNC 2.8             Weber               20130126 130916 UTC PGM / RUN BY / DATE
BRUX                                                        MARKER NAME
13101M010                                                   MARKER NUMBER
Carine Bruyninx     ROB                                     OBSERVER / AGENCY
3001376             SEPT POLARX4TR      2.3.4               REC # / TYPE / VERS
00464               JAVRINGANT_DM   NONE                    ANT # / TYPE
  4027881.6287   306998.5366  4919498.9839                  APPROX POSITION XYZ
        0.4689        0.0000        0.0010                  ANTENNA: DELTA H/E/N
E   16 C1C L1C D1C S1C C5Q L5Q D5Q S5Q C7Q L7Q D7Q S7Q C8Q  SYS / # / OBS TYPES
       L8Q D8Q S8Q                                          SYS / # / OBS TYPES
G   18 C1C L1C D1C S1C C1W S1W C2L L2L D2L S2L C2W L2W D2W  SYS / # / OBS TYPES
       S2W C5Q L5Q D5Q S5Q                                  SYS / # / OBS TYPES
R   12 C1C L1C D1C S1C C2C L2C D2C S2C C2P L2P D2P S2P      SYS / # / OBS TYPES
    30.000                                                  INTERVAL
  2012    12    15     0    15    0.0000000     GPS         TIME OF FIRST OBS
                                                            END OF HEADER
> 2012 12 15 00 15  0.0000000  0 25
G01  25346620.152   133196713.181        -517.558          36.750    25346619.558          15.000    25346621.770   103789846.895        -403.489          33.750    25346621.093   103789645.888        -403.275          15.000    25346621.379    99465830.187        -386.496          39.250  
G09  19846815.629   104295881.0231       -876.058          52.000    19846815.097          45.250                                                                    19846813.768    81269447.188        -682.641          45.250                                                                  
G12  21550430.286   113248514.625        2620.889          49.500    21550430.219          39.250    21550428.211    88245968.299        2042.239          43.750    21550428.138    88245572.298        2042.244          39.250                                                                  
G14  24306249.793   127730919.330        3400.245          36.750    24306249.360          17.000                                                                    24306247.271    99530585.852        2649.551          17.000                                                                  
G15  22062871.701   115941295.2741      -2939.865          48.250    22062871.684          38.250    22062870.203    90343521.052       -2290.749          43.000    22062869.816    90344155.056       -2290.808          38.250                                                                  
G17  22467362.250   118066448.9771       -735.655          47.250    22467362.143          36.250    22467360.067    92000244.241        -573.244          42.250    22467359.742    91999736.240        -573.239          36.250                                                                  
G18  23571768.323   123869831.2311      -1969.278          40.250    23571767.769          21.000                                                                    23571765.993    96521941.681       -1534.498          21.000                                                                  
G22  23769694.057   124910564.326        -294.384          41.250    23769693.060          24.500                                                                    23769689.342    97333378.039        -229.386          24.500                                                                  
G24  20224678.701   106280979.400         280.738          52.250    20224678.781          47.500    20224679.266    82816339.727         218.787          51.500    20224679.284    82816670.718         218.752          47.500    20224680.813    79366211.541         209.662          57.750  
G25  24644743.766   129509238.876        3605.541          38.500    24644743.315          17.250    24644745.046   100916035.435        2809.527          34.500    24644745.110   100915998.475        2809.444          17.250    24644747.091    96711445.008        2692.534          43.250  
G26  25109864.718   131953298.294       -4107.238          37.250    25109864.665          18.250                                                                    25109863.984   102820169.758       -3200.446          18.250                                                                  
G28  25345243.866   133190461.153       -3197.655          36.000    25345243.218          12.500                                                                    25345241.189   103785138.697       -2491.685          12.500                                                                  
R06  23580481.290   125829567.629       -4465.697          39.500    23580483.231    97867160.891       -3473.405          39.000    23580483.907    97867160.918       -3473.300          38.750  
R07  21167634.820   113312017.211       -2334.481          48.500    21167635.642    88131545.495       -1815.657          46.250    21167635.699    88131554.506       -1815.698          46.750  
R08  22129482.538   118501817.332        1448.445          44.500    22129480.286    92167908.508        1126.635          39.250    22129477.907    92167920.528        1126.450          39.750  
R09  19780997.728   105629867.8521       1383.198          52.000    19780999.451    82156568.238        1075.839          50.000    19781000.157    82156568.248        1075.828          50.250  
R10  23296640.612   124184173.003        3390.032          42.750    23296646.414    96587691.813        2636.752          35.500    23296645.461    96587691.811        2636.675          35.750  
R15  24081444.430   128684580.4881      -3453.142          36.750    24081448.291   100088009.739       -2685.722          36.500    24081448.407   100088009.756       -2686.033          36.500  
R16  20177604.370   107785283.887       -1933.130          51.250    20177607.193    83832581.812       -1503.561          49.250    20177607.414    83832753.819       -1503.548          49.000  
R17  22363315.369   119669855.9401      -2534.111          43.500    22363316.343    93076558.563       -1970.845          42.750    22363315.769    93076558.576       -1970.956          42.500  
R18  20773977.592   110892885.7501       1301.687          49.000    20773980.891    86250208.746        1012.394          48.000    20773981.188    86250208.750        1012.400          48.500  
R19  22960894.015   122824736.8371       4391.162          41.250    22960896.950    95530451.833        3415.368          40.500    22960896.662    95530453.808        3415.446          42.000  
E11  28040183.787   147352980.703       -2177.101          37.500    28040182.704   110035230.619       -1625.696          38.500    28040179.789   112905714.607       -1668.308          39.750    28040180.817   112046159.009       -1655.526          42.000  
E19  26600985.463   139789722.4501       2150.077          37.000    26600987.495   104388325.7771       1605.483          36.250    26600984.383   107111606.131        1647.488          37.000    26600985.308   106296129.016        1634.937          39.750  
E20  39754832.358   208912915.982         171.838          45.000    39754834.778   156006191.740         128.310          45.000    39754830.570   160075721.455         131.693          44.750    39754832.091   158857059.276         130.668          47.750  
> 2012 12 15 00 15 30.0000000  0 25
G01  25349626.306   133212509.442        -535.550          36.750    25349625.689          15.250    25349627.359   103802155.631        -417.411          33.500    25349627.011   103801954.645        -417.308          15.250    25349626.918    99477626.0811       -399.920          38.750  
G09  19851861.933   104322399.7661       -891.803          51.750    19851861.401          45.500                                                                    19851860.146    81290111.132        -694.910          45.500                                                                  
G12  21535503.388   113170072.7111       2608.595          49.250    21535503.317          39.250    21535501.335    88184844.7271       2032.701          44.250    21535501.200    88184448.7221       2032.669          39.250                                                                  
G14  24286853.727   127628995.1261       3394.841          37.250    24286853.338          17.500                                                                    24286851.693    99451164.4231       2645.336          17.500                                                                  
G15  22079687.179   116029660.9551      -2951.123          48.250    22079687.171          38.500    22079685.731    90412377.426       -2299.679          43.000    22079685.388    90413011.418       -2299.577          38.500                                                                  
G17  22471615.671   118088800.9051       -754.475          47.500    22471615.551          36.500    22471613.473    92017661.328        -587.842          42.250    22471613.221    92017153.326        -587.903          36.500                                                                  
G18  23583045.303   123929094.8071      -1981.580          40.250    23583044.776          20.500                                                                    23583043.246    96568121.110       -1544.102          20.500                                                                  
G22  23771425.048   124919658.463        -311.928          41.750    23771423.966          25.250                                                                    23771420.598    97340464.361        -243.068          25.250                                                                  
G24  20223113.430   106272753.863         267.617          51.750    20223113.514          47.500    20223113.929    82809930.220         208.506          51.250    20223114.015    82810261.206         208.530          47.500    20223115.535    79360069.096         199.817          57.500  
G25  24624170.539   129401126.0521       3601.894          38.000    24624170.074          17.250    24624172.041   100831791.7101       2806.596          35.750    24624171.850   100831754.6821       2806.652          17.250    24624174.305    96630711.4141       2689.828          43.250  
G26  25133313.422   132076521.614       -4107.765          38.000    25133313.346          14.750                                                                    25133312.547   102916187.934       -3200.840          14.750                                                                  
G28  25363498.225   133286390.797       -3197.779          36.000    25363497.684          14.000                                                                    25363496.092   103859889.029       -2491.830          14.000                                                                  
R06  23605593.051   125963567.461       -4467.573          41.250    23605593.999    97971382.990       -3474.884          37.750    23605594.661    97971382.984       -3475.022          38.000  
R07  21180781.686   113382392.140       -2357.183          48.000    21180782.166    88186281.540       -1833.382          46.250    21180782.095    88186290.537       -1833.385          46.750  
R08  22121438.959   118458744.535        1423.058          44.750    22121436.631    92134407.451        1106.959          39.750    22121434.468    92134419.467        1106.761          40.000  
R09  19773262.001   105588559.1111       1370.774          51.500    19773263.529    82124439.212        1066.103          50.000    19773264.232    82124439.229        1066.060          50.250  
R10  23277568.312   124082507.4161       3387.670          42.000    23277573.918    96508618.6521       2634.742          36.000    23277573.530    96508618.6421       2634.849          36.000  
R15  24100832.862   128788194.5951      -3454.283          36.250    24100838.796   100168598.470       -2686.826          36.750    24100838.136   100168598.480       -2686.752          36.750  
R16  20188492.756   107843447.201       -1944.306          51.250    20188495.125    83877819.946       -1512.275          49.000    20188495.685    83877991.954       -1512.309          49.250  
R17  22377583.314   119746203.7631      -2555.734          45.000    22377583.336    93135940.180       -1987.781          42.750    22377583.398    93135940.187       -1987.882          42.750  
R18  20766737.748   110854238.0781       1274.837          49.500    20766741.093    86220149.457         991.528          48.000    20766741.219    86220149.456         991.537          48.250  
R19  22936286.783   122693085.9171       4385.529          44.500    22936286.189    95428056.6531       3410.725          40.500    22936285.254    95428058.6781       3410.764          40.750  
E11  28052640.023   147418438.398       -2186.674          36.750    28052638.239   110084111.402       -1633.064          37.750    28052635.672   112955870.508       -1675.536          39.250    28052636.866   112095933.085       -1662.827          41.500  
E19  26588738.513   139725365.1421       2140.275          37.500    26588741.058   104340266.7081       1598.108          35.500    26588737.516   107062293.375        1639.965          37.000    26588738.679   106247191.665        1627.467          39.250  
E20  39753894.359   208907985.363         156.894          44.500    39753896.462   156002509.738         117.125          44.500    39753892.326   160071943.428         120.072          44.500    39753893.953   158853309.997         119.239          47.500  
> 2012 12 15 00 16  0.0000000  0 25
G01  25352734.658   133228848.0651       -553.742          34.500    25352734.024          12.000    25352737.826   103814886.9541       -431.454          31.250    25352735.947   103814685.9691       -431.467          12.000    25352736.287    99489826.903        -413.366          38.500  
G09  19856998.132   104349391.0171       -907.618          51.750    19856997.600          45.500                                                                    19856996.422    81311143.270        -707.233          45.500                                                                  
G12  21520646.711   113092000.369        2596.258          49.250    21520646.622          39.500    21520644.527    88124009.122        2023.111          44.000    21520644.547    88123613.125        2023.063          39.500                                                                  
G14  24267490.424   127527237.3001       3389.149          37.500    24267490.174          17.500                                                                    24267487.408    99371872.6121       2640.912          17.500                                                                  
G15  22096567.201   116118365.6821      -2962.467          48.000    22096567.205          38.500    22096565.214    90481497.966       -2308.430          43.250    22096565.334    90482131.978       -2308.414          38.500                                                                  
G17  22475976.810   118111719.2921       -773.328          46.750    22475976.694          36.500    22475974.527    92035519.805        -602.604          42.250    22475974.470    92035011.810        -602.595          36.500                                                                  
G18  23594393.890   123988728.1071      -1993.850          39.750    23594393.367          21.250                                                                    23594391.379    96614588.605       -1553.634          21.250                                                                  
G22  23773256.962   124929283.760        -329.748          39.750    23773255.894          24.500                                                                    23773252.421    97347964.592        -256.955          24.500                                                                  
G24  20221623.554   106264924.551         254.326          52.000    20221623.643          47.750    20221623.955    82803829.447         198.229          51.500    20221624.150    82804160.444         198.177          47.750    20221625.648    79354222.528         189.958          57.500  
G25  24603618.110   129293121.8651       3598.284          38.250    24603617.628          19.250    24603619.982   100747632.5891       2803.716          35.000    24603619.655   100747595.6051       2803.840          19.250    24603621.507    96550058.9331       2687.066          43.500  
G26  25156765.592   132199765.714       -4108.481          36.750    25156765.391          16.000                                                                    25156765.442   103012222.242       -3201.383          16.000                                                                  
G28  25381755.215   133382329.843       -3198.011          35.000    25381754.585          13.000                                                                    25381752.711   103934646.725       -2491.973          13.000                                                                  
R06  23630715.153   126097626.7211      -4469.494          41.000    23630716.960    98075651.2851      -3476.336          40.750    23630718.195    98075651.2841      -3476.326          39.500  
R07  21194055.400   113453448.336       -2379.860          48.750    21194056.235    88241547.420       -1851.017          46.250    21194056.138    88241556.422       -1850.977          46.750  
R08  22113536.964   118416433.172        1397.636          44.250    22113535.609    92101498.609        1087.088          40.000    22113533.760    92101510.623        1086.978          40.250  
R09  19765596.660   105547626.6451       1358.178          51.750    19765598.214    82092602.840        1056.387          49.750    19765599.079    82092602.854        1056.330          50.250  
R10  23258509.078   123980912.3951       3385.273          42.750    23258514.610    96429600.3581       2633.159          35.500    23258514.366    96429600.3741       2632.943          35.500  
R15  24120230.153   128891844.1481      -3455.693          35.500    24120235.978   100249214.746       -2687.652          36.500    24120235.127   100249214.757       -2687.470          36.250  
R16  20199444.244   107901948.972       -1955.720          51.000    20199447.051    83923321.298       -1521.064          49.250    20199447.561    83923493.305       -1521.089          49.250  
R17  22391971.670   119823202.9101      -2577.457          43.750    22391972.085    93195828.4021      -2004.675          42.000    22391972.351    93195828.4141      -2004.666          42.500  
R18  20759648.733   110816397.9491       1247.859          49.500    20759652.031    86190718.2561        970.519          47.750    20759652.275    86190718.2551        970.566          48.250  
R19  22911707.257   122561615.0411       4379.398          43.250    22911708.593    95325801.5431       3406.191          42.250    22911709.230    95325803.5161       3406.209          41.750  
E11  28065150.827   147484184.035       -2196.356          36.250    28065149.611   110133207.158       -1640.097          37.500    28065146.624   113006247.042       -1682.931          38.500    28065147.773   112145926.094       -1670.067          41.000  
E19  26576548.626   139661304.7741       2130.383          37.000    26576551.061   104292429.4451       1590.826          36.250    26576547.109   107013208.158        1632.319          36.750    26576548.276   106198480.146        1619.931          39.500  
E20  39753041.724   208903504.795         141.875          44.500    39753043.835   155999163.811         105.870          44.500    39753039.587   160068510.199         108.713          44.500    39753041.264   158849902.914         107.860          47.500  
> 2012 12 15 00 16 30.0000000  0 25
G01  25355947.174   133245728.663        -571.754          36.500    25355946.620          12.250    25355949.424   103828040.614        -445.690          32.000    25355948.043   103827839.621        -445.543          12.250    25355948.204    99502432.5131       -426.865          36.750  
G09  19862224.326   104376854.3841       -923.324          51.750    19862223.790          45.500                                                                    19862222.537    81332543.277        -719.475          45.500                                                                  
G12  21505860.530   113014298.684        2583.810          49.500    21505860.419          39.750    21505858.792    88063462.342        2013.457          44.250    21505858.367    88063066.346        2013.358          39.750                                                                  
G14  24248158.577   127425648.2121       3383.457          37.500    24248158.345          17.750                                                                    24248155.564    99292712.2971       2636.458          17.750                                                                  
G15  22113511.184   116207407.2511      -2973.660          48.250    22113511.215          38.250    22113509.758    90550881.005       -2317.017          43.250    22113509.322    90551515.011       -2317.137          38.250                                                                  
G17  22480445.489   118135203.006        -792.199          47.250    22480445.382          36.500    22480443.473    92053818.816        -617.309          42.500    22480443.276    92053310.807        -617.298          36.500                                                                  
G18  23605811.014   124048728.7241      -2006.199          40.250    23605810.500          21.000                                                                    23605809.770    96661342.326       -1563.281          21.000                                                                  
G22  23775189.737   124939439.3061       -347.486          40.250    23775188.718          25.000                                                                    23775184.797    97355878.0051       -270.758          25.000                                                                  
G24  20220209.164   106257491.981         241.092          52.000    20220209.253          47.750    20220209.745    82798037.845         187.893          51.750    20220209.839    82798368.832         187.864          47.750    20220211.279    79348672.240         180.081          57.500  
G25  24583086.505   129185227.6731       3594.759          36.500    24583085.991          17.500    24583087.024   100663559.1811       2801.098          35.000    24583087.691   100663522.1991       2801.125          17.500    24583088.987    96469488.6091       2684.336          42.250  
G26  25180221.457   132323028.490       -4109.027          37.000    25180221.203          15.000                                                                    25180221.164   103108271.238       -3201.828          15.000                                                                  
G28  25400013.438   133478277.094       -3198.465          34.250    25400012.696          11.750                                                                    25400010.986   104009410.832       -2492.310          11.750                                                                  
R06  23655849.376   126231741.464       -4471.372          41.500    23655849.419    98179962.734       -3477.736          38.000    23655850.619    98179962.736       -3477.678          38.000  
R07  21207455.823   113525182.393       -2402.390          48.250    21207456.797    88297340.540       -1868.498          46.250    21207456.629    88297349.540       -1868.472          46.500  
R08  22105778.360   118374884.968        1372.233          44.500    22105777.055    92069183.322        1067.328          40.750    22105774.994    92069195.330        1067.329          40.500  
R09  19758002.165   105507071.4201       1345.491          52.000    19758003.341    82061059.889        1046.485          49.750    19758004.158    82061059.905        1046.523          50.000  
R10  23239463.863   123879388.3111       3383.028          43.250    23239469.514    96350637.2361       2631.158          35.000    23239468.339    96350637.2181       2631.244          35.000  
R15  24139633.780   128995528.3541      -3456.779          35.250    24139638.404   100329857.997       -2688.520          34.750    24139637.586   100329857.969       -2688.245          35.250  
R16  20210459.472   107960788.3211      -1966.954          51.500    20210461.782    83969085.2311      -1529.813          49.000    20210462.169    83969257.2391      -1529.793          49.000  
R17  22406481.990   119900849.756       -2598.929          44.000    22406482.557    93256220.369       -2021.465          42.000    22406482.641    93256220.371       -2021.390          42.250  
R18  20752711.872   110779367.2801       1220.786          49.750    20752714.905    86161916.638         949.547          48.000    20752715.161    86161916.642         949.570          48.250  
R19  22887165.032   122430328.6811       4373.021          43.250    22887165.454    95223689.9331       3401.322          40.750    22887165.920    95223691.9561       3401.327          41.000  
E11  28077715.853   147550215.969       -2205.724          36.250    28077715.170   110182516.756       -1647.184          37.500    28077712.447   113056842.956       -1690.140          38.000    28077713.238   112196136.827       -1677.290          40.750  
E19  26564414.645   139597542.8661       2120.302          37.500    26564417.117   104244815.0271       1583.449          36.500    26564413.817   106964351.626        1624.694          37.000    26564414.894   106149995.559        1612.396          39.750  
E20  39752274.860   208899474.3851        126.868          44.500    39752276.688   155996154.0431         94.733          44.750    39752272.856   160065421.923          97.196          44.750    39752274.256   158846838.145          96.485          47.750  
> 2012 12 15 00 17  0.0000000  0 25
G01  25359263.757   133263150.7101       -589.978          33.500    25359263.230          11.500    25359263.794   103841616.1841       -459.284          31.750    25359263.439   103841415.2201       -459.718          11.500    25359265.102    99515442.471        -440.305          36.250  
G09  19867540.267   104404789.5491       -939.080          52.250    19867539.735          45.500                                                                    19867538.478    81354310.919        -731.752          45.500                                                                  
G12  21491145.178   112936969.382        2571.408          49.250    21491145.076          40.000    21491143.401    88003205.736        2003.712          44.250    21491143.084    88002809.734        2003.691          40.000                                                                  
G14  24228859.150   127324230.2451       3377.711          37.250    24228858.914          17.500                                                                    24228856.609    99213685.3031       2631.974          17.500                                                                  
G15  22130518.912   116296783.9111      -2984.747          48.500    22130518.920          38.250    22130517.260    90620525.160       -2325.845          43.250    22130517.152    90621159.158       -2325.779          38.250                                                                  
G17  22485021.725   118159251.3671       -811.012          47.500    22485021.623          36.250    22485019.469    92072557.7821       -631.960          42.000    22485019.445    92072049.7871       -631.956          36.250                                                                  
G18  23617298.331   124109094.0631      -2018.175          40.500    23617297.750          20.250                                                                    23617296.009    96708380.260       -1572.613          20.250                                                                  
G22  23777222.469   124950124.283        -364.984          41.250    23777221.450          25.750                                                                    23777218.611    97364203.958        -284.413          25.750                                                                  
G24  20218870.414   106250456.621         227.841          52.000    20218870.498          47.750    20218870.998    82792555.749         177.534          51.500    20218871.062    82792886.739         177.538          47.750    20218872.475    79343418.564         170.167          57.500  
G25  24562575.839   129077444.8691       3590.867          38.500    24562575.352          18.500    24562577.452   100579572.6111       2798.193          36.000    24562577.038   100579535.6011       2798.065          18.500    24562579.291    96389001.4461       2681.492          43.000  
G26  25203681.674   132446308.188       -4109.581          38.750    25203681.370          18.000                                                                    25203680.678   103204333.275       -3202.267          18.000                                                                  
G28  25418273.546   133574231.087       -3198.694          35.000    25418272.728          11.750                                                                    25418270.409   104084180.142       -2492.515          11.750                                                                  
R06  23680991.203   126365907.224       -4473.039          39.750    23680993.049    98284313.869       -3478.958          38.250    23680993.215    98284313.863       -3478.949          38.500  
R07  21220981.937   113597590.701       -2424.906          48.250    21220983.255    88353658.089       -1886.010          46.000    21220983.310    88353667.094       -1886.003          46.500  
R08  22098163.608   118334101.4281       1346.706          45.000    22098161.120    92037462.7951       1047.279          40.750    22098158.609    92037474.8021       1047.174          40.000  
R09  19750478.018   105466894.0051       1332.943          51.750    19750479.425    82029810.789        1036.760          50.000    19750480.461    82029810.807        1036.686          50.000  
R10  23220430.974   123777935.8111       3380.524          42.250    23220438.086    96271729.7761       2629.512          36.000    23220436.675    96271729.7801       2629.242          35.750  
R15  24159043.347   129099246.7221      -3457.792          36.250    24159048.059   100410527.783       -2689.463          34.750    24159047.053   100410527.797       -2689.321          34.500  
R16  20221537.108   108019964.620       -1978.120          51.500    20221539.919    84015111.231       -1538.475          49.000    20221540.274    84015283.231       -1538.528          49.000  
R17  22421112.976   119979140.9121      -2620.361          44.000    22421113.055    93317113.495       -2038.176          41.750    22421112.533    93317113.490       -2038.131          42.250  
R18  20745926.364   110743148.0761       1193.770          49.750    20745929.926    86133746.157         928.500          47.750    20745930.131    86133746.166         928.446          48.500  
R19  22862658.327   122299231.0131       4366.671          43.750    22862659.179    95121725.0891       3396.279          42.250    22862659.162    95121727.0671       3396.461          42.000  
E11  28090335.896   147616532.6271      -2215.226          36.500    28090335.072   110232038.9781      -1654.224          38.000    28090331.607   113107657.043       -1697.355          37.500    28090332.685   112246564.076       -1684.450          40.750  
E19  26552338.654   139534081.0691       2110.383          37.000    26552341.111   104197424.7451       1575.953          37.000    26552336.953   106915725.113        1616.894          37.000    26552338.603   106101739.226        1604.726          40.000  
E20  39751593.377   208895894.209         111.823          44.750    39751595.656   155993480.487          83.559          44.750    39751591.828   160062678.635          85.644          44.750    39751593.062   158844115.734          85.051          47.750  
> 2012 12 15 00 17 30.0000000  0 25
G01  25362680.073   133281113.537        -607.797          34.750    25362679.564          12.000    25362682.593   103855613.224        -473.865          32.000    25362681.927   103855412.201        -473.612          12.000    25362682.258    99528856.2241       -453.895          36.750  
G09  19872946.042   104433196.2801       -954.701          52.250    19872945.506          45.500                                                                    19872944.115    81376446.0091       -743.920          45.500                                                                  
G12  21476501.133   112860013.4961       2559.005          49.250    21476501.031          40.000    21476498.902    87943240.1121       1993.978          44.500    21476498.990    87942844.1091       1994.035          40.000                                                                  
G14  24209593.133   127222986.0311       3371.999          37.500    24209592.941          18.000                                                                    24209590.596    99134793.7171       2627.513          18.000                                                                  
G15  22147590.000   116386493.3071      -2995.884          48.500    22147589.983          38.000    22147588.509    90690428.568       -2334.416          43.250    22147588.247    90691062.575       -2334.454          38.000                                                                  
G17  22489705.339   118183863.6971       -829.776          47.000    22489705.232          36.250    22489703.271    92091736.229        -646.570          42.250    22489703.000    92091228.230        -646.578          36.250                                                                  
G18  23628854.295   124169821.4831      -2030.402          40.000    23628853.625          20.750                                                                    23628851.831    96755700.357       -1582.123          20.750                                                                  
G22  23779356.369   124961337.882        -382.623          42.000    23779355.305          26.000                                                                    23779352.751    97372941.809        -298.151          26.000                                                                  
G24  20217607.317   106243819.049         214.648          52.000    20217607.406          48.000    20217607.815    82787383.608         167.219          51.500    20217607.981    82787714.598         167.259          48.000    20217609.380    79338461.932         160.257          57.500  
G25  24542087.124   128969774.8271       3587.233          37.500    24542086.588          18.750    24542088.571   100495673.8841       2795.131          35.000    24542088.412   100495636.8741       2795.234          18.750    24542090.540    96308598.5241       2678.605          43.500  
G26  25227142.687   132569602.610       -4109.986          32.750    25227142.397          12.250                                                                    25227142.834   103300406.930       -3202.607          12.250                                                                  
G28  25436533.751   133670190.2771      -3198.760          35.250    25436532.933          12.000                                                                    25436531.045   104158953.5471      -2492.562          12.000                                                                  
R06  23706143.031   126500119.506       -4474.398          40.500    23706144.203    98388701.163       -3480.160          39.250    23706145.158    98388701.167       -3480.131          39.000  
R07  21234634.121   113670669.7191      -2447.104          48.500    21234635.543    88410497.3211      -1903.257          46.750    21234635.558    88410506.3211      -1903.360          46.750  
R08  22090689.948   118294084.014        1321.041          44.500    22090688.431    92006338.123        1027.503          40.750    22090685.848    92006350.123        1027.484          40.500  
R09  19743024.967   105427094.9121       1320.322          52.000    19743026.443    81998855.952        1026.897          50.000    19743027.254    81998855.964        1026.937          50.250  
R10  23201413.223   123676556.3201       3378.136          41.750    23201417.492    96192879.0721       2627.295          35.750    23201418.359    96192879.0951       2627.491          35.750  
R15  24178459.397   129202998.6041      -3458.803          35.250    24178463.978   100491223.664       -2690.180          35.500    24178463.344   100491223.679       -2690.576          34.750  
R16  20232678.284   108079476.796       -1989.367          51.500    20232680.744    84061398.463       -1547.303          49.000    20232681.130    84061570.460       -1547.218          49.250  
R17  22435862.114   120058073.1451      -2641.758          43.750    22435863.626    93378505.203       -2054.474          41.500    22435862.958    93378505.217       -2054.753          41.500  
R18  20739293.925   110707742.1971       1166.677          50.000    20739297.450    86106208.263         907.374          47.750    20739297.414    86106208.266         907.376          48.250  
R19  22838185.941   122168326.3351       4360.161          43.000    22838187.755    95019910.3661       3391.234          41.750    22838187.603    95019912.3741       3391.343          41.500  
E11  28103009.481   147683132.355       -2224.500          36.750    28103008.974   110281772.540       -1661.243          38.750    28103004.418   113158688.033       -1704.700          37.250    28103006.336   112297206.545       -1691.628          41.000  
E19  26540319.530   139470920.9081       2100.439          38.000    26540322.145   104150259.6941       1568.255          36.750    26540318.501   106867329.654        1609.220          38.250    26540319.588   106053712.212        1596.974          40.500  
E20  39750998.028   208892764.354          96.816          44.750    39750999.977   155991143.241          72.145          44.500    39750996.087   160060280.407          74.222          44.500    39750997.509   158841735.773          73.550          47.500  
> 2012 12 15 00 18  0.0000000  0 25
G01  25366201.895   133299616.6181       -625.535          36.000    25366201.466          14.500    25366203.421   103870031.1991       -487.669          33.500    25366202.932   103869830.1841       -487.430          14.500    25366203.473    99542673.474        -467.331          38.750  
G09  19878441.220   104462074.0671       -970.421          52.250    19878440.684          45.500                                                                    19878439.444    81398948.166        -756.174          45.500                                                                  
G12  21461928.131   112783432.169        2546.485          49.500    21461928.015          40.000    21461926.168    87883566.365        1984.214          44.250    21461925.932    87883170.361        1984.273          40.000                                                                  
G14  24190361.055   127121917.749        3366.101          36.250    24190360.872          17.500                                                                    24190357.852    99056039.195        2622.953          17.500                                                                  
G15  22164724.085   116476533.3341      -3006.852          48.750    22164724.063          38.000    22164722.379    90760589.615       -2342.999          43.000    22164722.315    90761223.631       -2343.002          38.000                                                                  
G17  22494496.153   118209038.9951       -848.534          47.250    22494496.055          36.500    22494493.476    92111353.350        -661.264          42.250    22494493.995    92110845.343        -661.199          36.500                                                                  
G18  23640478.918   124230908.2061      -2042.239          40.250    23640478.216          21.250                                                                    23640476.825    96803300.3871      -1591.360          21.250                                                                  
G22  23781591.424   124973079.297        -400.205          40.750    23781590.360          26.250                                                                    23781587.118    97382090.914        -311.853          26.250                                                                  
G24  20216420.056   106237579.502         201.343          52.000    20216420.140          47.750    20216420.643    82782521.619         156.922          51.500    20216420.599    82782852.614         156.893          47.750    20216422.066    79333802.5261        150.369          57.500  
G25  24521619.944   128862218.9711       3583.377          38.750    24521619.372          19.250    24521621.087   100411864.1191       2792.275          35.750    24521621.281   100411827.1151       2792.242          19.250    24521623.088    96228280.8201       2675.820          43.250  
G26  25250608.876   132692909.6581      -4110.477          39.500    25250608.684          19.750                                                                    25250607.888   103396490.2781      -3202.976          19.750                                                                  
G28  25454794.482   133766153.737       -3198.709          35.750    25454793.713          11.250                                                                    25454792.136   104233730.247       -2492.546          11.250                                                                  
R06  23731302.523   126634374.895       -4475.770          41.500    23731303.628    98493122.005       -3481.283          38.750    23731304.554    98493121.996       -3481.276          39.250  
R07  21248410.745   113744416.321       -2469.251          48.500    21248411.662    88467855.773       -1920.622          46.250    21248411.679    88467864.773       -1920.599          46.500  
R08  22083360.417   118254834.995        1295.324          44.500    22083359.134    91975811.115        1007.494          40.250    22083356.246    91975823.114        1007.618          40.250  
R09  19735643.274   105387675.0541       1307.675          52.250    19735644.498    81968196.0581       1017.100          50.000    19735645.204    81968196.0751       1017.088          50.250  
R10  23182408.314   123575250.0631       3375.556          42.000    23182412.622    96114085.3511       2625.296          35.750    23182413.409    96114085.3561       2625.534          35.750  
R15  24197881.181   129306783.3871      -3460.344          34.750    24197885.230   100571945.1491      -2691.207          34.000    24197884.495   100571945.0981      -2690.816          34.250  
R16  20243881.643   108139324.076       -2000.426          51.250    20243883.870    84107946.343       -1555.945          48.500    20243884.382    84108118.348       -1555.915          48.750  
R17  22450732.609   120137642.8451      -2662.903          43.500    22450732.543    93440392.756       -2071.238          42.000    22450733.008    93440392.759       -2071.124          42.250  
R18  20732814.174   110673151.5001       1139.432          49.500    20732817.377    86079304.399         886.244          48.000    20732817.308    86079304.402         886.229          48.500  
R19  22813752.165   122037619.1471       4353.593          43.500    22813752.616    94918249.190        3386.057          41.500    22813753.146    94918251.197        3386.063          42.000  
E11  28115736.515   147750013.537       -2233.965          36.750    28115736.142   110331716.295       -1668.225          40.000    28115731.872   113209934.682       -1711.834          37.500    28115733.728   112348063.048       -1698.763          42.000  
E19  26528358.468   139408063.9761       2090.188          37.250    26528360.533   104103321.0831       1560.773          36.750    26528356.884   106819166.543        1601.533          37.500    26528358.346   106005915.775        1589.373          40.000  
E20  39750487.845   208890084.893          81.772          44.750    39750489.376   155989142.307          61.106          44.000    39750486.112   160058227.281          62.740          44.500    39750487.659   158839698.272          62.245          47.250  
> 2012 12 15 00 18 30.0000000  0 25
G01  25369826.178   133318659.174        -643.630          35.500    25369825.687          13.000    25369827.376   103884869.479        -501.931          32.250    25369826.766   103884668.490        -501.550          13.000    25369827.589    99556893.475        -480.617          39.000  
G09  19884026.024   104491422.8831       -986.108          52.250    19884025.483          45.500                                                                    19884024.277    81421817.363        -768.397          45.500                                                                  
G12  21447426.767   112707226.446        2533.939          49.000    21447426.660          40.000    21447424.532    87824185.293        1974.444          44.500    21447424.473    87823789.290        1974.497          40.000                                                                  
G14  24171161.837   127021027.4821       3359.864          37.750    24171161.699          17.500                                                                    24171159.053    98977423.4051       2618.038          17.500                                                                  
G15  22181920.600   116566901.7321      -3017.736          48.750    22181920.556          38.000    22181919.236    90831006.544       -2351.510          43.000    22181918.878    90831640.555       -2351.484          38.000                                                                  
G17  22499393.734   118234776.4141       -867.211          47.500    22499393.641          36.250    22499391.483    92131408.472        -675.830          42.500    22499391.615    92130900.475        -675.749          36.250                                                                  
G18  23652171.023   124292352.5821      -2054.078          40.000    23652170.344          20.000                                                                    23652169.398    96851179.129       -1600.575          20.000                                                                  
G22  23783925.851   124985347.5941       -417.777          42.250    23783924.904          26.500                                                                    23783921.569    97391650.5341       -325.544          26.500                                                                  
G24  20215308.480   106231738.5831        188.049          52.000    20215308.564          48.000    20215308.924    82777970.2431        146.559          51.500    20215309.106    82778301.2391        146.533          48.000    20215310.582    79329440.790         140.453          57.500  
G25  24501174.388   128754778.6181       3579.714          37.000    24501173.870          18.250    24501177.362   100328144.4001       2788.990          36.250    24501176.075   100328107.3701       2789.389          18.250    24501178.087    96148049.423        2672.962          43.500  
G26  25274075.931   132816227.606       -4110.707          36.500    25274075.775          11.000                                                                    25274074.288   103492582.167       -3203.124          11.000                                                                  
G28  25473056.239   133862120.289       -3198.945          35.750    25473055.475          12.250                                                                    25473053.751   104308509.386       -2492.690          12.250                                                                  
R06  23756468.464   126768669.252       -4477.039          41.000    23756471.017    98597573.166       -3482.147          38.500    23756471.007    98597573.152       -3482.208          38.250  
R07  21262311.994   113818826.628       -2491.311          49.000    21262312.203    88525730.418       -1937.750          46.000    21262312.286    88525739.421       -1937.767          46.500  
R08  22076174.748   118216356.036        1269.815          45.000    22076172.717    91945882.991         987.804          39.750    22076170.335    91945895.025         987.503          40.000  
R09  19728332.125   105348635.1411       1294.997          52.250    19728333.361    81937831.697        1007.156          50.000    19728334.285    81937831.711        1007.186          50.250  
R10  23163417.637   123474018.3261       3373.084          42.250    23163421.626    96035349.6241       2623.417          36.750    23163422.226    96035349.6311       2623.508          36.000  
R15  24217308.824   129410600.4901      -3460.891          36.000    24217314.869   100652691.801       -2692.030          35.250    24217313.368   100652691.796       -2691.866          34.500  
R16  20255147.664   108199505.823       -2011.562          51.250    20255150.306    84154754.356       -1564.593          48.750    20255150.774    84154926.359       -1564.594          49.000  
R17  22465720.151   120217846.7241      -2684.044          43.500    22465721.082    93502773.527       -2087.603          42.250    22465721.118    93502773.517       -2087.565          42.000  
R18  20726487.158   110639377.7191       1112.212          49.750    20726490.103    86053035.9251        864.953          48.000    20726490.311    86053035.9251        864.992          48.250  
R19  22789355.852   121907113.6981       4346.890          44.000    22789356.551    94816744.9661       3380.924          42.250    22789356.613    94816746.9771       3380.850          41.750  
E11  28128516.634   147817174.493       -2243.469          37.500    28128516.558   110381868.938       -1675.296          40.250    28128513.155   113261395.678       -1719.018          39.250    28128514.224   112399132.260       -1705.925          42.750  
E19  26516455.007   139345511.9221       2080.108          36.500    26516457.601   104056610.1231       1553.168          36.500    26516453.443   106771236.988        1593.840          36.750    26516454.650   105958351.134        1581.630          39.500  
E20  39750063.940   208887855.8971         66.872          45.000    39750065.739   155987477.8081         49.848          44.250    39750062.113   160056519.368          51.214          44.750    39750063.535   158838003.356          50.826          47.500  
> 2012 12 15 00 19  0.0000000  0 25
G01  25373552.300   133338240.8261       -661.756          33.250    25373551.764          13.500    25373554.338   103900127.9221       -515.512          33.750    25373553.139   103899926.9401       -515.639          13.500    25373553.367    99571516.1361       -494.168          38.250  
G09  19889700.623   104521242.4521      -1001.827          52.500    19889700.082          45.500                                                                    19889698.748    81445053.386        -780.643          45.500                                                                  
G12  21432997.036   112631397.585        2521.342          49.000    21432996.943          40.250    21432994.752    87765097.866        1964.654          44.250    21432994.775    87764701.864        1964.679          40.250                                                                  
G14  24151997.988   126920317.9351       3353.885          37.750    24151997.912          18.250                                                                    24151994.689    98898948.4321       2613.411          18.250                                                                  
G15  22199179.355   116657596.3271      -3028.649          48.250    22199179.315          37.750    22199177.613    90901677.652       -2359.873          43.000    22199177.495    90902311.661       -2359.986          37.750                                                                  
G17  22504398.240   118261075.1811       -886.004          47.750    22504398.151          36.250    22504395.972    92151901.018        -690.395          42.250    22504396.211    92151393.021        -690.391          36.250                                                                  
G18  23663931.300   124354151.3731      -2065.888          40.000    23663930.576          20.000                                                                    23663928.611    96899334.048       -1609.789          20.000                                                                  
G22  23786359.998   124998142.372        -435.240          42.500    23786358.988          26.750                                                                    23786356.618    97401620.429        -339.145          26.750                                                                  
G24  20214272.926   106226296.928         174.741          52.000    20214273.015          48.000    20214273.442    82773729.980         136.172          51.500    20214273.612    82774060.976         136.163          48.000    20214275.137    79325377.207         130.486          57.500  
G25  24480751.374   128647455.1601       3575.430          37.500    24480750.923          18.750    24480752.867   100244515.7311       2785.831          34.500    24480753.101   100244478.7061       2786.039          18.750    24480754.581    96067905.2661       2670.058          42.750  
G26  25297542.059   132939554.106       -4110.930          36.750    25297541.867          17.750                                                                    25297542.723   103588680.775       -3203.335          17.750                                                                  
G28  25491318.803   133958088.560       -3199.019          34.500    25491318.043          11.250                                                                    25491315.960   104383289.842       -2492.753          11.250                                                                  
R06  23781642.531   126902998.483       -4478.199          39.500    23781643.097    98702051.435       -3482.981          38.500    23781644.131    98702051.447       -3483.056          38.000  
R07  21276334.920   113893896.916       -2513.300          48.250    21276336.114    88584118.387       -1954.835          45.750    21276335.943    88584127.390       -1954.827          46.750  
R08  22069133.348   118178648.5761       1244.047          44.750    22069130.986    91916554.9651        967.476          39.750    22069128.652    91916566.9711        967.531          40.250  
R09  19721092.377   105309975.7511       1282.290          52.000    19721093.697    81907763.280         997.344          50.000    19721094.719    81907763.287         997.383          50.250  
R10  23144440.529   123372861.6471       3370.613          42.250    23144445.850    95956672.2641       2621.771          35.750    23144445.313    95956672.2721       2621.407          36.250  
R15  24236742.790   129514449.3241      -3462.052          33.250    24236747.621   100733463.091       -2692.942          34.750    24236746.691   100733463.079       -2692.263          34.250  
R16  20266476.090   108260020.949       -2022.756          51.000    20266478.403    84201821.654       -1573.258          48.500    20266479.334    84201993.658       -1573.203          49.000  
R17  22480826.155   120298681.1171      -2705.075          43.500    22480827.435    93565644.711       -2103.858          42.250    22480827.122    93565644.709       -2103.798          42.500  
R18  20720313.352   110606422.8881       1084.804          49.250    20720316.596    86027404.400         843.799          47.750    20720316.762    86027404.406         843.777          48.500  
R19  22764997.470   121776814.5791       4339.811          44.000    22764998.481    94715401.2061       3375.455          42.500    22764998.786    94715403.2001       3375.401          42.250  
E11  28141349.593   147884613.596       -2252.816          35.750    28141349.641   110432229.301       -1682.044          39.750    28141346.323   113313069.769       -1725.969          40.250    28141347.365   112450412.963       -1712.837          43.000  
E19  26504610.259   139283266.5121       2069.688          36.500    26504612.246   104010128.2131       1545.580          37.000    26504609.299   106723542.522        1586.074          37.750    26504609.769   105911019.760        1573.891          40.250  
E20  39749725.422   208886077.314          51.808          44.500    39749727.609   155986149.651          38.685          44.500    39749723.683   160055156.553          39.752          44.500    39749725.037   158836650.923          39.424          47.500  
> 2012 12 15 00 19 30.0000000  0 25
G01  25377380.760   133358360.762        -679.719          31.750    25377380.099           9.250    25377381.260   103915805.831        -529.666          31.750    25377381.845   103915604.863        -529.651           9.250    25377382.359    99586540.820        -507.506          39.250  
G09  19895464.595   104551532.4181      -1017.494          52.000    19895464.063          45.500                                                                    19895462.741    81468655.952        -792.848          45.500                                                                  
G12  21418639.064   112555946.760        2508.779          49.500    21418638.971          40.500    21418637.078    87706304.995        1954.787          44.250    21418636.923    87705908.989        1954.889          40.500                                                                  
G14  24132867.887   126819791.7821       3348.062          37.750    24132867.794          18.750                                                                    24132865.249    98820616.3751       2608.894          18.750                                                                  
G15  22216499.698   116748615.0551      -3039.298          47.500    22216499.685          37.500    22216497.979    90972601.332       -2368.224          42.750    22216497.828    90973235.338       -2368.284          37.500                                                                  
G17  22509509.333   118287934.0891       -904.572          46.750    22509509.231          36.000    22509507.202    92172830.036        -705.014          42.250    22509507.159    92172322.039        -704.860          36.000                                                                  
G18  23675758.199   124416302.1531      -2077.560          40.000    23675757.493          21.500                                                                    23675755.655    96947763.235       -1618.884          21.500                                                                  
G22  23788895.255   125011462.502        -452.702          42.250    23788894.214          27.000                                                                    23788891.138    97411999.710        -352.753          27.000                                                                  
G24  20213313.627   106221254.802         161.426          52.000    20213313.716          48.000    20213314.065    82769801.052         125.795          51.500    20213314.141    82770132.043         125.784          48.000    20213315.621    79321611.981         120.513          57.750  
G25  24460351.230   128540249.9281       3571.547          37.000    24460350.806          19.000    24460352.279   100160979.1871       2782.723          36.250    24460352.562   100160942.1761       2783.005          19.000    24460354.422    95987849.4411       2667.006          43.500  
G26  25321012.219   133062887.535       -4111.175          38.750    25321011.969          12.750                                                                    25321012.472   103684784.717       -3203.513          12.750                                                                  
G28  25509580.371   134054057.461       -3198.854          34.250    25509579.714          12.250                                                                    25509578.214   104458070.774       -2492.603          12.250                                                                  
R06  23806820.928   127037358.529       -4479.390          38.750    23806823.473    98806553.679       -3483.830          38.250    23806823.351    98806553.670       -3483.814          38.250  
R07  21290481.481   113969623.863       -2535.071          48.750    21290482.406    88643017.079       -1971.798          46.000    21290482.645    88643026.082       -1971.760          46.750  
R08  22062235.782   118141713.704        1218.256          45.250    22062233.322    91887827.798         947.589          40.000    22062231.867    91887839.796         947.411          40.250  
R09  19713924.174   105271697.6691       1269.628          52.250    19713925.521    81877991.437         987.460          50.000    19713926.324    81877991.452         987.428          50.250  
R10  23125478.026   123271781.1351       3368.074          42.750    23125483.509    95878054.1631       2619.516          37.500    23125483.559    95878054.1621       2619.694          37.000  
R15  24256182.008   129618328.8171      -3462.929          32.750    24256188.178   100814258.265       -2693.357          34.000    24256186.498   100814258.302       -2693.601          33.750  
R16  20277866.954   108320868.765       -2033.773          50.750    20277869.631    84249147.743       -1581.817          48.500    20277869.872    84249319.748       -1581.886          48.750  
R17  22496049.459   120380142.7921      -2725.795          42.750    22496049.876    93629003.761       -2120.027          41.750    22496050.090    93629003.769       -2120.015          42.250  
R18  20714293.227   110574288.3761       1057.470          49.500    20714296.838    86002410.900         822.478          48.000    20714296.796    86002410.906         822.407          48.500  
R19  22740679.333   121646726.0171       4332.672          44.000    22740680.284    94614221.2081       3369.945          40.500    22740679.308    94614223.2431       3369.952          41.250  
E11  28154235.330   147952329.274       -2261.629          33.250    28154235.529   110482796.190       -1689.051          38.750    28154231.652   113364955.790       -1733.129          39.500    28154233.092   112501903.974       -1719.911          42.250  
E19  26492823.815   139221329.0801       2059.470          36.750    26492826.104   103963876.2451       1537.875          37.750    26492822.299   106676083.972        1578.036          37.750    26492823.618   105863922.521        1566.017          40.750  
E20  39749472.646   208884749.179          36.786          44.500    39749474.430   155985157.862          27.398          44.750    39749470.875   160054138.891          28.249          44.750    39749472.288   158835641.008          27.985          47.750  
> 2012 12 15 00 20  0.0000000  0 25
G01  25381312.221   133379018.054        -697.519          34.500    25381311.524          13.750    25381312.195   103931902.291        -544.059          33.500    25381312.634   103931701.298        -543.508          13.750    25381313.457    99601966.5671       -520.935          40.500  
G09  19901317.956   104582292.2801      -1033.146          51.750    19901317.424          45.500                                                                    19901316.131    81492624.668        -805.047          45.500                                                                  
G12  21404353.459   112480874.9731       2496.087          49.750    21404353.366          40.750    21404351.385    87647807.4771       1945.031          44.250    21404351.260    87647411.4811       1945.003          40.750                                                                  
G14  24113773.249   126719451.0611       3341.548          37.750    24113773.129          18.250                                                                    24113770.991    98742428.8061       2603.809          18.250                                                                  
G15  22233881.253   116839955.8011      -3050.113          47.500    22233881.275          37.500    22233879.847    91043775.934       -2376.609          42.750    22233879.481    91044409.937       -2376.714          37.500                                                                  
G17  22514726.963   118315352.3271       -923.271          46.750    22514726.870          36.000    22514724.850    92194194.913        -719.438          42.000    22514724.349    92193686.903        -719.432          36.000                                                                  
G18  23687651.133   124478802.4171      -2089.274          40.000    23687650.355          20.750                                                                    23687649.563    96996464.737       -1627.995          20.750                                                                  
G22  23791529.587   125025307.065        -470.292          41.750    23791528.537          26.250                                                                    23791525.675    97422787.636        -366.469          26.250                                                                  
G24  20212430.151   106216612.695         148.116          52.250    20212430.240          48.250    20212430.785    82766183.832         115.390          51.250    20212430.758    82766514.824         115.418          48.250    20212432.274    79318145.479         110.576          57.500  
G25  24439973.585   128433164.340        3567.607          38.750    24439973.134          20.000    24439975.290   100077535.888        2779.844          36.000    24439975.114   100077498.871        2779.957          20.000    24439976.514    95907882.9371       2664.075          43.250  
G26  25344482.564   133186225.675       -4111.302          36.250    25344482.274          15.500                                                                    25344482.704   103780892.416       -3203.615          15.500                                                                  
G28  25527842.891   134150025.775       -3198.962          34.500    25527842.386          11.750                                                                    25527840.352   104532851.274       -2492.676          11.750                                                                  
R06  23832004.873   127171745.334       -4480.104          40.500    23832006.027    98911076.734       -3484.356          37.750    23832007.113    98911076.729       -3484.413          37.250  
R07  21304749.507   114046003.460       -2556.868          48.250    21304751.099    88702423.406       -1988.594          45.500    21304750.618    88702432.402       -1988.556          46.000  
R08  22055483.205   118105554.208        1192.356          44.750    22055481.962    91859703.729         927.521          39.750    22055478.961    91859715.737         927.476          40.500  
R09  19706827.477   105233801.6781       1256.888          52.000    19706828.938    81848516.776         977.524          49.750    19706829.604    81848516.790         977.558          50.250  
R10  23106529.851   123170777.551        3365.593          43.000    23106535.177    95799495.886        2617.383          36.000    23106534.758    95799495.899        2617.517          36.000  
R15  24275626.054   129722239.0871      -3464.268          33.500    24275633.686   100895077.297       -2694.254          34.000    24275632.301   100895077.281       -2694.144          33.500  
R16  20289320.120   108382048.497       -2044.857          51.000    20289322.557    84296731.966       -1590.435          48.750    20289323.199    84296903.971       -1590.437          49.000  
R17  22511389.639   120462227.9641      -2746.554          43.250    22511390.168    93692847.7801      -2136.226          40.750    22511388.923    93692847.7861      -2136.262          41.750  
R18  20708427.803   110542976.0521       1030.064          49.750    20708430.534    85978056.889         801.094          47.750    20708431.047    85978056.892         801.122          48.500  
R19  22716400.653   121516852.5141       4325.545          44.000    22716401.491    94513208.5081       3364.300          42.750    22716402.104    94513210.4971       3364.330          43.000  
E11  28167173.827   148020319.840       -2271.244          34.000    28167173.360   110533568.350       -1695.893          37.500    28167170.019   113417052.427       -1740.139          39.250    28167171.195   112553604.005       -1726.845          41.500  
E19  26481096.426   139159701.2351       2049.148          37.500    26481098.890   103917855.4141       1530.343          37.750    26481094.785   106628862.642        1570.107          38.500    26481096.319   105817060.663        1558.275          41.250  
E20  39749305.521   208883871.461          21.795          44.500    39749307.723   155984502.419          16.299          44.500    39749304.159   160053466.355          16.775          44.750    39749305.242   158834973.590          16.596          47.500  
> 2012 12 15 00 20 30.0000000  0 25
G01  25385345.591   133400212.5631       -715.448          32.500    25385344.827          12.500    25385346.942   103948417.4181       -557.122          33.250    25385345.850   103948216.4631       -557.543          12.500    25385346.722    99617793.560        -534.160          39.750  
G09  19907260.792   104613521.6101      -1048.788          51.750    19907260.256          45.500                                                                    19907258.935    81516959.205        -817.235          45.500                                                                  
G12  21390140.064   112406183.678        2483.367          50.000    21390139.962          40.500    21390138.255    87589606.461        1935.095          44.250    21390138.038    87589210.466        1935.089          40.500                                                                  
G14  24094715.388   126619298.2171       3335.221          37.750    24094715.250          17.500                                                                    24094712.399    98664387.6371       2598.891          17.500                                                                  
G15  22251323.574   116931616.4781      -3060.636          47.500    22251323.600          37.500    22251322.303    91115199.843       -2384.885          43.000    22251321.832    91115833.835       -2384.911          37.500                                                                  
G17  22520050.516   118343328.941        -941.833          47.000    22520050.432          36.000    22520048.629    92215994.860        -734.039          42.250    22520048.110    92215486.860        -733.892          36.000                                                                  
G18  23699611.541   124541649.8321      -2100.788          40.000    23699610.857          20.000                                                                    23699609.002    97045436.760       -1636.985          20.000                                                                  
G22  23794263.471   125039675.3071       -487.706          41.750    23794262.439          26.000                                                                    23794259.406    97433983.6431       -380.026          26.000                                                                  
G24  20211623.102   106212371.002         134.744          52.250    20211623.191          48.000    20211623.546    82762878.611         104.996          51.500    20211623.595    82763209.604         104.995          48.000    20211625.075    79314977.977         100.622          57.500  
G25  24419618.330   128326199.7371       3563.645          37.750    24419617.834          19.250    24419620.079    99994186.8361       2776.664          35.500    24419620.440    99994149.8261       2776.853          19.250    24419621.683    95828006.7771       2660.957          43.250  
G26  25367953.679   133309566.610       -4111.490          35.000    25367953.420          13.500                                                                    25367953.509   103877002.226       -3203.752          13.500                                                                  
G28  25546104.832   134245992.094       -3198.942          35.250    25546104.206          11.500                                                                    25546102.262   104607630.207       -2492.653          11.500                                                                  
R06  23857193.112   127306154.3271      -4480.706          40.000    23857195.222    99015617.0551      -3484.965          38.500    23857195.633    99015617.0651      -3484.985          38.250  
R07  21319139.678   114123032.807       -2578.402          48.250    21319140.726    88762335.108       -2005.452          46.000    21319140.541    88762344.107       -2005.466          46.250  
R08  22048875.981   118070171.251        1166.528          45.500    22048873.475    91832183.640         907.191          40.250    22048871.553    91832195.634         907.300          40.000  
R09  19699802.428   105196288.5381       1244.031          52.250    19699803.750    81819339.891         967.607          50.000    19699804.595    81819339.903         967.604          50.000  
R10  23087596.733   123069851.3531       3362.885          43.750    23087600.421    95720997.7561       2615.613          35.250    23087600.661    95720997.7591       2615.713          35.500  
R15  24295078.504   129826179.2741      -3465.601          33.000    24295083.611   100975919.644       -2694.926          33.000    24295082.759   100975919.630       -2694.907          31.750  
R16  20300834.875   108443559.198       -2055.881          51.250    20300837.574    84344573.615       -1598.971          48.500    20300838.061    84344745.616       -1599.020          48.500  
R17  22526843.899   120544933.336       -2767.134          43.000    22526844.913    93757174.172       -2152.273          42.250    22526845.444    93757174.174       -2152.217          42.500  
R18  20702715.748   110512487.4141       1002.578          50.000    20702719.528    85954343.5141        779.773          48.000    20702719.483    85954343.5201        779.749          48.500  
R19  22692162.834   121387198.4191       4318.183          44.500    22692164.146    94412366.4431       3358.480          41.000    22692163.267    94412368.4671       3358.493          41.500  
E11  28180164.319   148088583.602       -2280.133          35.250    28180162.811   110584544.532       -1702.517          36.750    28180159.993   113469358.407       -1747.066          38.250    28180160.959   112605511.786       -1733.724          40.500  
E19  26469428.229   139098384.6551       2038.857          37.500    26469430.352   103872067.0361       1522.514          38.250    26469427.074   106581879.769        1562.127          39.000    26469428.152   105770435.483        1550.241          41.750  
E20  39749224.466   208883444.132           6.832          44.500    39749226.219   155984183.291           4.981          44.250    39749222.852   160053138.897           5.260          45.000    39749223.992   158834648.627           5.159          47.500  
> 2012 12 15 00 21  0.0000000  0 25
G01  25389480.164   133421943.261        -733.394          33.500    25389479.431          10.000    25389480.889   103965350.434        -571.235          32.000    25389481.001   103965149.401        -571.482          10.000    25389481.886    99634020.9831       -547.518          39.250  
G09  19913292.715   104645219.9871      -1064.426          52.250    19913292.183          45.500                                                                    19913290.917    81541659.228        -829.420          45.500                                                                  
G12  21375999.464   112331873.851        2470.638          49.500    21375999.353          40.500    21375997.863    87531702.704        1925.173          44.250    21375997.279    87531306.702        1925.173          40.500                                                                  
G14  24075693.162   126519335.8781       3328.881          37.750    24075693.006          18.500                                                                    24075690.242    98586494.9131       2593.935          18.500                                                                  
G15  22268826.490   117023594.9081      -3071.258          48.000    22268826.521          37.500    22268825.238    91186871.316       -2393.029          42.750    22268824.756    91187505.332       -2393.188          37.500                                                                  
G17  22525480.542   118371863.082        -960.420          47.500    22525480.440          36.250    22525478.385    92238229.258        -748.373          42.000    22525478.069    92237721.256        -748.380          36.250                                                                  
G18  23711636.115   124604841.6331      -2112.136          41.000    23711635.360          19.750                                                                    23711633.236    97094677.141       -1645.826          19.750                                                                  
G22  23797097.457   125054565.996        -505.135          41.500    23797096.384          25.000                                                                    23797092.720    97445586.717        -393.595          25.000                                                                  
G24  20210892.117   106208530.307         121.343          52.250    20210892.206          48.000    20210892.608    82759885.858          94.549          51.250    20210892.757    82760216.853          94.553          48.000    20210894.211    79312109.924          90.614          57.500  
G25  24399287.447   128219357.4711       3559.225          38.500    24399286.924          20.000    24399289.297    99910933.1311       2773.364          35.750    24399289.041    99910896.1291       2773.432          20.000    24399291.094    95748221.9751       2657.869          44.250  
G26  25391425.355   133432908.337       -4111.445          36.750    25391425.217          15.250                                                                    25391424.680   103973112.687       -3203.703          15.250                                                                  
G28  25564366.101   134341955.161       -3198.886          34.750    25564365.467           9.500                                                                    25564363.362   104682406.634       -2492.639           9.500                                                                  
R06  23882385.220   127440582.373       -4481.162          40.250    23882386.839    99120172.159       -3485.535          38.750    23882387.847    99120172.166       -3485.212          38.000  
R07  21333649.849   114200707.562       -2599.853          48.500    21333650.178    88822748.781       -2022.124          45.750    21333650.862    88822757.786       -2022.109          46.500  
R08  22042413.250   118035566.337        1140.604          44.750    22042412.011    91805268.705         887.040          40.000    22042409.544    91805280.691         887.135          40.500  
R09  19692849.515   105159158.5981       1231.306          52.250    19692850.636    81790461.054         957.657          50.000    19692851.285    81790461.064         957.698          50.000  
R10  23068677.138   122969003.6151       3360.309          42.250    23068682.160    95642560.6911       2613.509          36.000    23068682.380    95642560.7051       2613.539          36.250  
R15  24314536.468   129930148.8111      -3466.150          32.750    24314540.847   101056784.854       -2695.867          32.000    24314539.433   101056784.825       -2695.724          31.500  
R16  20312411.562   108505399.7951      -2066.781          51.250    20312414.537    84392671.8341      -1607.537          48.500    20312414.842    84392843.8371      -1607.455          48.500  
R17  22542415.012   120628255.235       -2787.615          42.750    22542415.668    93821980.067       -2168.145          41.500    22542415.455    93821980.076       -2168.237          41.750  
R18  20697159.245   110482824.2191        975.004          49.750    20697162.777    85931272.157         758.321          48.000    20697162.562    85931272.155         758.373          48.500  
R19  22667966.485   121257767.9131       4310.594          43.500    22667968.605    94311698.293        3352.656          42.750    22667968.333    94311700.281        3352.703          42.500  
E11  28193206.558   148157118.917       -2289.010          37.750    28193205.684   110635723.543       -1709.382          37.000    28193201.020   113521872.474       -1753.886          37.250    28193202.509   112657626.086       -1740.571          40.250  
E19  26457820.160   139037380.9381       2028.339          38.250    26457821.984   103826512.3211       1514.706          38.250    26457818.147   106535136.676        1554.148          39.250    26457819.466   105724048.243        1542.358          41.750  
E20  39749228.998   208883467.2131         -8.220          44.500    39749230.919   155984200.5051         -6.143          44.750    39749227.306   160053156.579          -6.378          45.000    39749228.415   158834666.166          -6.313          48.000  
> 2012 12 15 00 21 30.0000000  0 25
G01  25393718.019   133444209.4421       -751.251          33.750    25393717.282          10.500    25393718.813   103982700.7241       -585.514          31.000    25393718.189   103982499.6821       -585.398          10.500    25393719.236    99650648.332        -560.944          38.750  
G09  19919413.937   104677387.0001      -1080.047          52.000    19919413.405          45.500                                                                    19919412.072    81566724.426        -841.599          45.500                                                                  
G12  21361931.502   112257946.198        2457.845          49.250    21361931.386          40.750    21361929.527    87474096.739        1915.328          44.500    21361929.308    87473700.745        1915.201          40.750                                                                  
G14  24056708.076   126419566.1901       3322.256          38.500    24056707.933          19.250                                                                    24056704.591    98508752.2801       2588.771          19.250                                                                  
G15  22286389.269   117115888.3931      -3081.672          48.000    22286389.269          37.000    22286387.623    91258788.317       -2401.258          42.500    22286387.590    91259422.326       -2401.299          37.000                                                                  
G17  22531016.182   118400953.7151       -978.945          46.750    22531016.089          36.000    22531013.911    92260897.2821       -762.816          41.750    22531013.723    92260389.2821       -762.811          36.000                                                                  
G18  23723726.089   124668375.1351      -2123.412          39.750    23723725.338          20.250                                                                    23723723.238    97144183.756       -1654.598          20.250                                                                  
G22  23800030.142   125069978.188        -522.392          42.250    23800029.002          24.250                                                                    23800025.586    97457596.148        -407.055          24.250                                                                  
G24  20210237.741   106205091.047         107.972          52.000    20210237.834          48.250    20210238.198    82757205.917          84.132          51.250    20210238.304    82757536.904          84.133          48.250    20210239.757    79309541.639          80.621          57.500  
G25  24378978.968   128112638.9101       3555.212          37.750    24378978.392          19.500    24378981.352    99827775.8301       2770.172          36.000    24378980.841    99827738.8191       2770.287          19.500    24378982.889    95668529.5721       2654.900          44.000  
G26  25414895.473   133556248.882       -4111.187          35.750    25414895.174          10.750                                                                    25414895.234   104069222.126       -3203.531          10.750                                                                  
G28  25582625.614   134437913.977       -3198.380          34.750    25582625.056          10.500                                                                    25582623.694   104757179.732       -2492.284          10.500                                                                  
R06  23907580.195   127575025.205       -4481.651          41.250    23907581.098    99224738.803       -3485.713          38.750    23907581.724    99224738.794       -3485.637          37.500  
R07  21348279.616   114279024.2781      -2621.227          48.000    21348281.358    88883661.7711      -2038.758          45.250    21348280.907    88883670.7801      -2038.734          46.500  
R08  22036096.687   118001740.7771       1114.559          45.000    22036095.659    91778959.8981        866.900          40.500    22036092.868    91778971.8971        866.883          40.750  
R09  19685967.839   105122412.7711       1218.431          52.000    19685969.093    81761880.966         947.660          50.000    19685969.990    81761880.980         947.682          50.250  
R10  23049773.385   122868235.4381       3357.660          42.500    23049778.868    95564185.4951       2611.433          36.250    23049778.260    95564185.4861       2611.467          36.250  
R15  24333999.560   130034146.6051      -3467.321          30.250    24334001.942   101137672.022       -2696.195          31.250    24334001.678   101137672.056       -2696.819          30.250  
R16  20324050.078   108567570.135       -2077.837          50.750    20324052.693    84441026.525       -1616.048          48.750    20324053.375    84441198.531       -1616.116          48.750  
R17  22558099.865   120712190.0631      -2807.982          42.500    22558101.587    93887262.706       -2184.050          42.250    22558101.415    93887262.709       -2183.987          42.500  
R18  20691757.101   110453987.7561        947.472          49.750    20691760.481    85908843.818         736.834          48.000    20691760.471    85908843.813         736.933          48.500  
R19  22643814.291   121128565.7791       4302.835          45.000    22643815.281    94211207.7411       3346.790          42.000    22643815.194    94211209.7501       3346.713          42.000  
E11  28206299.729   148225924.1141      -2297.974          38.500    28206298.684   110687104.0701      -1715.963          38.000    28206293.904   113574593.396       -1760.755          36.000    28206295.903   112709945.626       -1747.365          40.000  
E19  26446270.731   138976691.5391       2017.896          38.750    26446273.030   103781192.3351       1506.827          38.750    26446269.551   106488634.406        1546.125          40.000    26446270.589   105677900.009        1534.325          42.500  
E20  39749319.010   208883940.631         -23.316          45.000    39749320.673   155984554.019         -17.305          44.250    39749316.984   160053519.319         -17.873          44.500    39749318.500   158835026.142         -17.688          47.500  
> 2012 12 15 00 22  0.0000000  0 25
G01  25398056.022   133467010.287        -769.228          32.250    25398055.235          12.000    25398058.220   104000467.523        -599.202          32.750    25398057.081   104000266.557        -599.364          12.000    25398057.541    99667674.8691       -574.264          38.250  
G09  19925624.317   104710022.4591      -1095.688          52.000    19925623.790          45.500                                                                    19925622.423    81592154.6481       -853.784          45.500                                                                  
G12  21347936.680   112184402.2921       2445.016          49.250    21347936.569          40.750    21347934.558    87416789.8111       1905.221          44.500    21347934.422    87416393.8091       1905.206          40.750                                                                  
G14  24037759.416   126319991.7311       3315.938          38.250    24037759.242          19.000                                                                    24037756.435    98431161.8051       2583.825          19.000                                                                  
G15  22304011.657   117208495.0581      -3092.023          48.250    22304011.635          37.250    22304010.049    91330949.360       -2409.433          42.750    22304010.076    91331583.356       -2409.368          37.250                                                                  
G17  22536657.665   118430600.0171       -997.510          47.250    22536657.576          36.250    22536655.322    92283998.299        -777.240          42.000    22536655.381    92283490.298        -777.284          36.250                                                                  
G18  23735880.488   124732247.7081      -2134.649          39.750    23735879.737          20.500                                                                    23735877.944    97193954.581       -1663.347          20.500                                                                  
G22  23803062.680   125085911.254        -539.701          41.250    23803061.531          24.750                                                                    23803057.301    97470011.504        -420.544          24.750                                                                  
G24  20209659.537   106202053.284          94.520          52.000    20209659.630          48.250    20209659.940    82754838.830          73.651          51.500    20209660.244    82755169.819          73.652          48.250    20209661.657    79307273.184          70.594          57.500  
G25  24358695.166   128006045.4211       3550.885          38.250    24358694.581          19.750    24358697.042    99744715.9421       2767.213          36.500    24358696.796    99744678.9471       2766.922          19.750    24358697.950    95588930.5291       2651.678          42.750  
G26  25438366.156   133679586.249       -4111.093          38.000    25438365.741          16.500                                                                    25438365.292   104165329.273       -3203.484          16.500                                                                  
G28  25600886.161   134533867.475       -3198.355          35.000    25600885.540          12.000                                                                    25600883.220   104831948.633       -2492.226          12.000                                                                  
R06  23932776.084   127709478.801       -4482.032          40.000    23932778.553    99329313.795       -3485.932          38.500    23932778.812    99329313.803       -3485.848          37.500  
R07  21363030.283   114357979.093       -2642.464          49.000    21363030.675    88945071.061       -2055.196          45.500    21363030.603    88945080.064       -2055.225          46.500  
R08  22029925.955   117968696.180        1088.392          45.500    22029924.955    91753258.518         846.521          40.750    22029921.948    91753270.516         846.454          40.250  
R09  19679158.476   105086051.7011       1205.606          52.250    19679160.009    81733600.133         937.741          50.000    19679160.764    81733600.148         937.661          50.250  
R10  23030884.842   122767547.2481       3354.904          42.500    23030891.204    95485872.4701       2609.205          36.000    23030889.205    95485872.4571       2609.592          36.250  
R15  24353466.245   130137260.6651      -3467.842          31.250    24353468.701   101217870.2041      -2697.589          30.250    24353468.413   101217870.1861      -2697.537          29.250  
R16  20335750.158   108630069.100       -2088.774          50.750    20335752.716    84489636.819       -1624.603          48.250    20335753.058    84489808.824       -1624.595          48.500  
R17  22573900.828   120796734.1721      -2828.257          44.000    22573900.391    93953019.194       -2199.755          41.250    22573900.055    93953019.207       -2199.805          42.250  
R18  20686510.122   110425979.7821        919.783          49.500    20686513.712    85887059.845         715.382          48.000    20686513.626    85887059.852         715.372          48.500  
R19  22619704.597   120999596.0631       4294.974          43.750    22619705.453    94110897.956        3340.645          42.250    22619705.623    94110899.962        3340.555          42.250  
E11  28219443.966   148294997.545       -2306.880          38.000    28219443.028   110738684.914       -1722.674          38.750    28219438.333   113627519.832       -1767.439          36.250    28219440.327   112762469.133       -1754.127          40.500  
E19  26434781.893   138916318.0471       2006.992          39.000    26434784.251   103736108.2371       1498.896          39.250    26434780.884   106442374.225        1537.884          40.000    26434781.975   105631991.995        1526.219          42.500  
E20  39749494.562   208884864.330         -38.292          44.750    39749496.676   155985243.801         -28.511          44.500    39749492.871   160054227.085         -29.325          44.750    39749494.284   158835728.526         -29.069          47.750  
> 2012 12 15 00 22 30.0000000  0 24
G01  25402496.319   133490345.0311       -786.721          35.250    25402495.617          13.000    25402498.315   104018650.3821       -613.145          32.500    25402497.599   104018449.3901       -613.047          13.000    25402498.439    99685100.090        -587.309          40.000  
G09  19931923.708   104743125.8511      -1111.280          52.250    19931923.181          45.500                                                                    19931921.772    81617949.491        -865.931          45.500                                                                  
G12  21334015.000   112111243.454        2432.189          49.500    21334014.889          40.750    21334012.822    87359782.913        1895.240          44.750    21334012.709    87359386.912        1895.211          40.750                                                                  
G14  24018848.055   126220614.9531       3309.231          37.750    24018847.854          18.750                                                                    24018845.304    98353725.3431       2578.619          18.750                                                                  
G15  22321693.511   117301412.9721      -3102.459          48.000    22321693.480          37.000    22321692.095    91403352.9161      -2417.478          42.750    22321691.765    91403986.9201      -2417.499          37.000                                                                  
G17  22542404.583   118460800.7971      -1015.940          47.000    22542404.503          36.000    22542402.561    92307531.387        -791.701          41.500    22542402.382    92307023.378        -791.641          36.000                                                                  
G18  23748099.202   124796456.9821      -2145.799          40.500    23748098.433          19.000                                                                    23748096.608    97243987.7801      -1672.065          19.000                                                                  
G22  23806193.771   125102364.011        -557.082          40.250    23806192.712          24.250                                                                    23806188.112    97482831.777        -434.076          24.250                                                                  
G24  20209158.163   106199417.872          81.106          52.000    20209158.256          48.000    20209158.644    82752785.254          63.242          51.500    20209158.760    82753116.248          63.202          48.000    20209160.173    79305305.1781         60.597          57.500  
G25  24338435.415   127899578.3121       3546.839          38.000    24338434.865          19.250    24338436.885    99661754.5671       2763.723          36.000    24338436.295    99661717.5751       2763.771          19.250    24338438.795    95509425.8681       2648.659          44.000  
G26  25461836.254   133802918.442       -4110.991          35.000    25461835.767          11.250                                                                    25461834.683   104261432.292       -3203.325          11.250                                                                  
G28  25619144.461   134629814.276       -3198.212          34.750    25619143.759          11.250                                                                    25619141.307   104906712.338       -2492.075          11.250                                                                  
R06  23957973.974   127843939.318       -4482.072          39.500    23957975.703    99433894.189       -3485.951          37.250    23957975.877    99433894.189       -3485.986          37.500  
R07  21377897.716   114437568.448       -2663.448          48.250    21377898.113    89006973.888       -2071.691          45.750    21377898.618    89006982.892       -2071.634          46.500  
R08  22023901.974   117936434.188        1062.336          45.750    22023899.371    91728165.833         826.165          40.250    22023897.313    91728177.816         826.351          40.500  
R09  19672421.687   105050076.1311       1192.755          52.250    19672422.991    81705619.1371        927.768          50.000    19672423.657    81705619.1511        927.723          50.250  
R10  23012010.781   122666940.1111       3352.264          42.500    23012015.744    95407622.5051       2607.386          36.250    23012015.993    95407622.5281       2607.183          36.750  
R16  20347511.557   108692895.529       -2099.706          50.750    20347514.098    84538501.802       -1633.088          48.500    20347514.516    84538673.812       -1633.139          48.500  
R17  22589810.782   120881884.2371      -2848.378          42.500    22589812.530    94019247.034       -2215.448          42.000    22589812.637    94019247.035       -2215.465          42.500  
R18  20681418.654   110398801.5911        892.056          49.750    20681422.192    85865921.2671        693.810          48.250    20681422.303    85865921.2721        693.809          48.500  
R19  22595639.755   120870863.1531       4287.037          43.250    22595640.275    94010772.3771       3334.558          41.250    22595639.681    94010774.3821       3334.371          42.000  
E11  28232638.440   148364337.578       -2315.778          34.750    28232638.366   110790464.797       -1729.295          39.000    28232634.042   113680650.514       -1774.370          37.000    28232635.593   112815195.320       -1760.875          41.000  
E19  26423353.893   138856262.0131       1996.482          39.000    26423356.260   103691261.2051       1490.850          38.750    26423352.454   106396357.268        1529.802          39.750    26423353.747   105586325.367        1518.133          42.250  
E20  39749755.927   208886238.253         -53.306          44.750    39749758.145   155986269.795         -39.784          44.750    39749754.362   160055279.845         -40.911          44.750    39749755.708   158836773.269         -40.557          47.750  
> 2012 12 15 00 23  0.0000000  0 24
G01  25407039.020   133514212.891        -804.485          33.750    25407038.377          11.750    25407038.410   104037248.715        -626.669          33.000    25407039.672   104037047.720        -626.894          11.750    25407040.302    99702923.4671       -600.638          40.000  
G09  19938312.066   104776696.8431      -1126.851          52.250    19938311.539          45.250                                                                    19938310.169    81644108.704        -878.067          45.250                                                                  
G12  21320166.747   112038470.466        2419.321          49.500    21320166.636          40.750    21320164.764    87303076.687        1885.135          44.750    21320164.492    87302680.693        1885.183          40.750                                                                  
G14  23999975.405   126121438.2321       3302.515          38.500    23999975.186          19.250                                                                    23999973.107    98276444.7441       2573.384          19.250                                                                  
G15  22339434.315   117394640.6061      -3112.788          47.500    22339434.293          36.500    22339432.686    91475997.812       -2425.514          43.000    22339432.311    91476631.822       -2425.545          36.500                                                                  
G17  22548256.911   118491555.1031      -1034.360          46.750    22548256.822          35.750    22548254.535    92331495.769        -805.961          42.000    22548254.676    92330987.776        -805.992          35.750                                                                  
G18  23760381.472   124861000.2221      -2156.892          39.750    23760380.614          19.750                                                                    23760378.384    97294281.224       -1680.683          19.750                                                                  
G22  23809423.299   125119335.5871       -574.433          41.500    23809422.316          24.750                                                                    23809417.996    97496056.3671       -447.610          24.750                                                                  
G24  20208733.233   106197185.0591         67.732          52.000    20208733.326          48.000    20208733.754    82751045.4021         52.750          51.500    20208733.840    82751376.3881         52.780          48.000    20208735.266    79303637.818          50.544          57.500  
G25  24318199.824   127793238.9761       3542.317          38.500    24318199.301          20.000    24318200.748    99578892.7901       2760.420          36.500    24318200.870    99578855.7911       2760.231          20.000    24318202.690    95430016.6851       2645.337          43.750  
G26  25485302.509   133926243.443       -4110.510          36.250    25485302.009          14.000                                                                    25485302.657   104357529.743       -3203.000          14.000                                                                  
G28  25637400.798   134725753.311       -3197.875          35.250    25637400.056          12.750                                                                    25637398.011   104981470.006       -2491.826          12.750                                                                  
R06  23983171.971   127978402.421       -4482.071          40.500    23983173.939    99538476.573       -3486.016          39.000    23983175.268    99538476.583       -3486.283          38.000  
R07  21392883.080   114517788.506       -2684.511          48.250    21392884.051    89069367.248       -2087.869          45.500    21392884.157    89069376.262       -2087.963          46.250  
R08  22018024.000   117904955.668        1036.176          46.000    22018020.358    91703682.484         805.962          40.250    22018018.905    91703694.486         805.982          40.250  
R09  19665756.971   105014486.7371       1179.819          52.000    19665758.147    81677938.505         917.713          50.250    19665758.922    81677938.521         917.615          50.250  
R10  22993153.278   122566415.1311       3349.540          42.750    22993157.575    95329436.4771       2605.208          36.000    22993157.363    95329436.4921       2605.058          36.000  
R16  20359333.761   108756049.017       -2110.532          50.750    20359336.421    84587621.167       -1641.531          48.250    20359336.843    84587793.173       -1641.541          48.500  
R17  22605838.059   120967636.4411      -2868.380          43.750    22605837.398    94085943.163       -2231.014          41.750    22605837.296    94085943.137       -2230.853          41.750  
R18  20676483.051   110372454.7351        864.381          50.000    20676486.577    85845429.286         672.263          48.250    20676486.567    85845429.288         672.286          48.750  
R19  22571619.359   120742371.6371       4278.925          44.750    22571620.225    93910834.527        3328.080          41.500    22571619.601    93910836.525        3328.218          41.750  
E11  28245883.048   148433942.552       -2324.420          33.750    28245883.473   110842442.513       -1735.741          39.500    28245879.833   113733984.194       -1781.108          38.250    28245881.080   112868122.952       -1767.473          42.000  
E19  26411986.316   138796524.9451       1985.830          39.750    26411988.778   103646652.3461       1482.923          39.750    26411984.611   106350584.692        1521.668          39.500    26411986.220   105540901.265        1510.064          42.500  
E20  39750103.047   208888062.3071        -68.398          45.000    39750104.951   155987631.9061        -51.019          44.500    39750101.870   160056677.495         -52.362          45.000    39750102.805   158838160.277         -51.961          47.750  
> 2012 12 15 00 23 30.0000000  0 24
G01  25411682.287   133538612.9231       -822.202          35.750    25411681.679          14.750    25411683.678   104056261.5971       -640.591          34.000    25411682.862   104056060.5731       -640.648          14.750    25411683.157    99721144.132        -613.976          40.000  
G09  19944789.260   104810734.9051      -1142.358          52.250    19944788.728          45.250                                                                    19944787.399    81670631.858        -890.147          45.250                                                                  
G12  21306391.956   111966084.271        2406.364          50.000    21306391.845          41.250    21306389.929    87246671.860        1875.129          44.750    21306389.864    87246275.860        1875.090          41.250                                                                  
G14  23981141.807   126022464.1061       3295.786          38.750    23981141.548          20.000                                                                    23981139.513    98199322.0381       2568.152          20.000                                                                  
G15  22357233.299   117488174.7971      -3122.907          47.500    22357233.277          36.500    22357231.518    91548881.593       -2433.273          43.000    22357231.305    91549515.598       -2433.436          36.500                                                                  
G17  22554214.461   118522861.3081      -1052.688          47.000    22554214.381          35.750    22554212.234    92355890.225        -820.268          42.000    22554212.121    92355382.220        -820.277          35.750                                                                  
G18  23772726.913   124925874.9141      -2167.867          40.750    23772726.095          20.000                                                                    23772724.825    97344832.916       -1689.268          20.000                                                                  
G22  23812750.887   125136824.615        -591.133          41.750    23812749.877          25.000                                                                    23812746.274    97509684.174        -460.629          25.000                                                                  
G24  20208385.292   106195355.840          54.293          52.500    20208385.390          48.250    20208385.713    82749620.032          42.294          51.500    20208385.769    82749951.023          42.312          48.250    20208387.236    79302271.839          40.552          57.750  
G25  24297987.923   127687028.7371       3538.323          37.500    24297987.378          19.000    24297989.585    99496131.5881       2756.956          36.500    24297989.637    99496094.5691       2757.100          19.000    24297990.997    95350703.8301       2642.221          43.000  
G26  25508769.718   134049559.425       -4110.128          34.500    25508769.164          12.250                                                                    25508769.008   104453620.098       -3202.710          12.250                                                                  
G28  25655655.965   134821683.216       -3197.540          34.000    25655655.241           8.750                                                                    25655652.717   105056220.561       -2491.542           8.750                                                                  
R06  24008371.246   128112864.571       -4481.938          39.750    24008372.552    99643058.191       -3485.961          38.250    24008373.407    99643058.193       -3485.881          37.500  
R07  21407986.323   114598635.332       -2705.273          48.500    21407987.160    89132248.095       -2104.199          45.250    21407986.937    89132257.086       -2104.128          46.250  
R08  22012291.252   117874261.8391       1010.017          45.500    22012288.653    91679809.5021        785.585          40.250    22012287.045    91679821.4951        785.626          40.500  
R09  19659164.601   104979284.3541       1166.962          52.000    19659165.963    81650558.888         907.580          50.250    19659166.771    81650558.897         907.617          50.500  
R10  22974309.693   122465972.8551       3346.700          43.750    22974315.321    95251314.7761       2602.935          36.250    22974315.171    95251314.7811       2603.060          37.250  
R16  20371217.418   108819528.561       -2121.333          50.750    20371219.848    84636994.122       -1649.960          48.250    20371220.278    84637166.129       -1649.976          48.500  
R17  22621973.869   121053987.1691      -2888.402          43.500    22621973.395    94153104.828       -2246.456          40.750    22621973.441    94153104.819       -2246.332          41.000  
R18  20671703.459   110346940.5161        836.623          50.000    20671706.755    85825584.911         650.685          48.250    20671706.854    85825584.911         650.718          48.500  
R19  22547644.908   120614125.8711       4270.778          44.000    22547646.077    93811087.8551       3321.757          42.750    22547646.360    93811089.8491       3321.856          42.750  
E11  28259179.449   148503810.763       -2333.385          34.500    28259179.172   110894616.769       -1742.287          39.750    28259175.152   113787519.507       -1787.790          38.750    28259176.372   112921250.703       -1774.146          42.250  
E19  26400679.916   138737108.5161       1975.140          40.000    26400681.695   103602282.9721       1474.891          38.250    26400678.359   106305057.840        1513.518          39.500    26400679.454   105495721.016        1501.940          41.750  
E20  39750535.863   208890336.359         -83.323          44.750    39750537.701   155989330.049         -62.251          44.250    39750534.209   160058419.931         -63.837          44.750    39750535.577   158839889.452         -63.376          47.500  
> 2012 12 15 00 24  0.0000000  0 24
G01  25416427.270   133563544.577        -839.748          36.500    25416426.734          14.000    25416427.223   104075688.825        -654.401          34.000    25416427.325   104075487.788        -654.302          14.000    25416428.308    99739761.9051       -627.150          41.250  
G09  19951355.249   104845239.8281      -1157.906          52.000    19951354.722          45.500                                                                    19951353.444    81697518.802        -902.263          45.500                                                                  
G12  21292691.066   111894086.2431       2393.506          50.250    21292690.955          41.000    21292689.527    87190569.5001       1865.034          45.000    21292689.037    87190173.5001       1865.072          41.000                                                                  
G14  23962346.556   125923694.842        3288.848          38.750    23962346.302          19.250                                                                    23962343.808    98122358.954        2562.729          19.250                                                                  
G15  22375090.199   117582013.458       -3132.924          47.750    22375090.195          36.750    22375088.588    91622002.633       -2441.435          42.250    22375088.206    91622636.621       -2441.239          36.750                                                                  
G17  22560276.739   118554718.8921      -1071.075          46.750    22560276.659          35.750    22560274.709    92380714.316        -834.721          42.000    22560274.411    92380206.311        -834.602          35.750                                                                  
G18  23785134.423   124991078.3761      -2178.761          40.500    23785133.601          20.250                                                                    23785132.473    97395640.813       -1697.724          20.250                                                                  
G22  23816177.492   125154830.299        -608.960          41.500    23816176.410          25.500                                                                    23816172.955    97523714.560        -474.510          25.500                                                                  
G24  20208113.744   106193929.887          40.861          52.250    20208113.833          48.250    20208114.302    82748508.894          31.799          51.750    20208114.431    82748839.886          31.841          48.250    20208115.853    79301206.996          30.486          57.750  
G25  24277802.246   127580948.9491       3533.847          38.750    24277801.714          20.500    24277804.090    99413472.0091       2753.801          37.250    24277803.678    99413435.0091       2753.651          20.500    24277805.668    95271488.4111       2638.859          44.500  
G26  25532233.419   134172864.357       -4109.913          34.750    25532232.628          13.250                                                                    25532233.101   104549701.900       -3202.556          13.250                                                                  
G28  25673907.859   134917603.013       -3197.092          34.000    25673907.153           7.750                                                                    25673905.380   105130963.209       -2491.234           7.750                                                                  
R06  24033568.367   128247321.548       -4481.739          39.250    24033569.995    99747635.838       -3485.859          38.000    24033570.334    99747635.838       -3485.918          37.500  
R07  21423205.388   114680105.278       -2725.917          48.000    21423206.674    89195613.582       -2120.222          46.000    21423206.721    89195622.584       -2120.172          46.250  
R08  22006706.685   117844354.031         983.916          46.250    22006704.602    91656547.869         765.138          41.000    22006702.373    91656559.866         765.307          40.750  
R09  19652644.981   104944469.3641       1154.048          52.250    19652646.124    81623480.557         897.627          50.250    19652646.882    81623480.569         897.641          50.500  
R10  22955482.657   122365614.2641       3344.013          42.250    22955488.792    95173258.1521       2600.591          37.000    22955488.544    95173258.1491       2600.707          38.000  
R16  20383161.671   108883333.273       -2132.201          50.750    20383164.271    84686619.993       -1658.433          48.250    20383164.832    84686791.997       -1658.409          48.500  
R17  22638222.154   121140932.7181      -2908.014          43.750    22638221.752    94220729.137       -2261.911          41.000    22638221.632    94220729.154       -2261.925          41.500  
R18  20667080.040   110322260.3681        808.845          50.000    20667083.285    85806389.258         629.051          48.000    20667083.402    85806389.258         629.040          48.250  
R19  22523717.471   120486130.4361       4262.379          44.500    22523718.055    93711535.849        3315.020          42.000    22523718.225    93711537.847        3315.090          42.250  
E11  28272524.957   148573940.519       -2341.958          36.000    28272524.599   110946986.399       -1748.899          40.250    28272520.481   113841255.303       -1794.468          39.250    28272521.724   112974577.407       -1780.812          42.750  
E19  26389434.476   138678014.1371       1964.320          40.250    26389436.820   103558154.0111       1466.893          38.000    26389433.190   106259777.719        1505.131          38.750    26389434.249   105450785.600        1493.707          41.250  
E20  39751054.235   208893060.288         -98.175          44.750    39751056.387   155991364.137         -73.438          44.750    39751052.501   160060507.088         -75.347          44.750    39751053.990   158841960.715         -74.784          47.750  
> 2012 12 15 00 24 30.0000000  0 24
G01  25421271.117   133589006.6961       -857.641          35.750    25421270.630          14.000    25421272.892   104095529.3711       -668.243          34.250    25421272.426   104095328.3931       -668.278          14.000    25421273.455    99758775.726        -640.321          41.250  
G09  19958010.123   104880210.8051      -1173.470          52.000    19958009.591          45.500                                                                    19958008.252    81724768.898        -914.393          45.500                                                                  
G12  21279064.540   111822477.162        2380.434          50.000    21279064.424          41.000    21279062.400    87134770.209        1854.941          44.500    21279062.303    87134374.214        1854.888          41.000                                                                  
G14  23943590.692   125825132.829        3281.947          38.250    23943590.523          18.750                                                                    23943587.798    98045557.342        2557.382          18.750                                                                  
G15  22393004.515   117676154.670       -3143.011          47.500    22393004.523          36.750    22393003.327    91695359.402       -2449.210          42.500    22393002.716    91695993.404       -2449.099          36.750                                                                  
G17  22566443.597   118587126.7761      -1089.400          47.250    22566443.508          36.250    22566441.454    92405967.214        -848.902          41.750    22566441.696    92405459.206        -848.884          36.250                                                                  
G18  23797604.098   125056607.8141      -2189.653          38.750    23797603.361          18.250                                                                    23797601.700    97446702.719       -1706.223          18.250                                                                  
G22  23819702.027   125173351.433        -626.036          41.750    23819700.950          26.000                                                                    23819697.617    97538146.595        -487.831          26.000                                                                  
G24  20207919.309   106192908.235          27.365          52.250    20207919.398          48.000    20207919.868    82747712.793          21.297          51.250    20207920.014    82748043.784          21.321          48.000    20207921.480    79300444.066          20.428          58.000  
G25  24257640.610   127475000.9821       3529.483          38.750    24257640.074          20.250    24257642.239    99330915.1621       2750.190          36.750    24257642.974    99330878.1781       2750.247          20.250    24257644.060    95192371.459        2635.613          44.500  
G26  25555695.825   134296156.175       -4109.485          37.250    25555695.128          14.500                                                                    25555694.747   104645773.419       -3202.175          14.500                                                                  
G28  25692159.068   135013511.655       -3196.934          34.000    25692158.322           8.250                                                                    25692156.160   105205697.269       -2491.115           8.250                                                                  
R06  24058763.099   128381769.583       -4481.424          39.500    24058764.521    99852206.522       -3485.550          37.750    24058765.883    99852206.521       -3485.451          36.250  
R07  21438540.840   114762194.435       -2746.648          48.750    21438541.180    89259460.674       -2136.280          45.250    21438541.194    89259469.672       -2136.334          46.000  
R08  22001267.853   117815234.115         957.493          45.000    22001266.451    91633899.059         744.391          40.750    22001263.919    91633911.054         744.711          40.750  
R09  19646197.761   104910042.9221       1141.062          52.000    19646199.457    81596704.442         887.506          50.250    19646199.960    81596704.453         887.520          50.500  
R10  22936671.387   122265339.8631       3341.047          43.250    22936675.505    95095266.9781       2598.796          35.500    22936676.089    95095266.9901       2598.793          36.000  
R16  20395166.745   108947462.675       -2143.061          50.500    20395169.595    84736498.410       -1666.842          48.250    20395169.850    84736670.414       -1666.790          48.250  
R17  22654579.912   121228469.4831      -2927.808          42.250    22654580.460    94288813.2651      -2277.311          41.500    22654580.106    94288813.2631      -2277.075          41.500  
R18  20662612.879   110298415.3011        780.923          49.500    20662616.389    85787843.113         607.356          47.750    20662616.305    85787843.114         607.367          48.500  
R19  22499838.050   120358389.5261       4253.764          44.750    22499838.963    93612181.806        3308.434          42.750    22499839.054    93612183.804        3308.381          43.000  
E11  28285919.654   148644330.136       -2350.747          36.750    28285918.956   110999550.056       -1755.375          38.500    28285915.450   113895190.210       -1801.224          39.250    28285916.528   113028101.694       -1787.450          42.000  
E19  26378250.457   138619243.5031       1953.533          38.500    26378252.980   103514266.9271       1458.912          37.250    26378248.897   106214745.710        1497.099          38.000    26378250.408   105406096.445        1485.646          40.500  
E20  39751658.206   208896233.974        -113.311          45.000    39751660.088   155993734.053         -84.586          44.500    39751656.475   160062938.833         -86.841          44.500    39751657.932   158844373.944         -86.143          47.500  
> 2012 12 15 00 25  0.0000000  0 24
G01  25426217.695   133614998.419        -875.124          34.000    25426217.181          13.250    25426219.619   104115782.619        -682.210          34.000    25426218.613   104115581.598        -681.904          13.250    25426219.270    99778185.052        -653.459          40.500  
G09  19964753.512   104915647.2731      -1188.979          52.000    19964752.980          45.500                                                                    19964751.602    81752381.710        -926.478          45.500                                                                  
G12  21265511.812   111751258.079        2367.474          50.250    21265511.701          41.000    21265510.129    87079274.810        1844.842          44.750    21265509.786    87078878.815        1844.786          41.000                                                                  
G14  23924874.855   125726780.7881       3274.870          38.750    23924874.659          19.500                                                                    23924872.170    97968919.3781       2551.845          19.500                                                                  
G15  22410975.885   117770595.945       -3153.036          48.000    22410975.868          36.500    22410974.550    91768949.996       -2456.975          42.250    22410974.346    91769583.994       -2456.914          36.500                                                                  
G17  22572715.146   118620083.566       -1107.708          47.000    22572715.057          35.750    22572713.047    92431647.817        -863.159          41.750    22572712.936    92431139.820        -863.149          35.750                                                                  
G18  23810136.273   125122460.8781      -2200.521          38.500    23810135.509          18.500                                                                    23810132.760    97498016.804       -1714.698          18.500                                                                  
G22  23823324.206   125192386.8381       -643.042          41.500    23823323.182          26.500                                                                    23823320.267    97552979.3641       -501.068          26.500                                                                  
G24  20207801.834   106192290.523          13.835          52.250    20207801.923          48.000    20207802.407    82747231.449          10.798          51.500    20207802.491    82747562.441          10.779          48.000    20207803.953    79299982.777          10.329          58.000  
G25  24237504.541   127369186.1231       3525.047          38.500    24237503.956          20.000    24237506.842    99248462.0611       2746.750          37.750    24237506.394    99248425.0421       2746.788          20.000    24237507.602    95113353.8881       2632.354          43.750  
G26  25579154.088   134419432.966       -4108.866          36.000    25579153.395          13.000                                                                    25579153.483   104741833.293       -3201.716          13.000                                                                  
G28  25710408.148   135109407.962       -3196.331          30.500    25710407.442           4.250                                                                    25710404.650   105280421.627       -2490.582           4.250                                                                  
R06  24083956.157   128516204.8021      -4480.935          38.750    24083958.405    99956767.2351      -3485.401          36.750    24083958.808    99956767.2481      -3485.416          37.250  
R07  21453990.464   114844898.961       -2766.995          48.500    21453991.562    89323786.390       -2152.061          45.500    21453991.566    89323795.400       -2152.097          46.250  
R08  21995978.191   117786902.961         931.233          46.500    21995976.141    91611863.654         724.227          41.250    21995973.792    91611875.642         724.367          40.750  
R09  19639823.799   104876005.4471       1128.062          52.000    19639825.226    81570230.848         877.370          50.000    19639825.595    81570230.857         877.418          50.250  
R10  22917876.591   122165150.9711       3338.221          43.000    22917881.495    95017342.3401       2596.173          36.750    22917881.228    95017342.3381       2596.312          37.250  
R16  20407232.694   109011915.313       -2153.788          50.500    20407235.141    84786628.216       -1675.217          48.250    20407235.643    84786800.222       -1675.109          48.500  
R17  22671048.307   121316593.836       -2947.206          44.000    22671048.754    94357354.422       -2292.277          42.000    22671048.528    94357354.443       -2292.286          42.000  
R18  20658302.663   110275406.6831        752.952          50.000    20658306.156    85769947.5311        585.658          48.250    20658306.112    85769947.5341        585.653          48.750  
R19  22476007.184   120230907.7961       4245.023          44.750    22476007.151    93513029.3471       3301.715          42.250    22476007.318    93513031.3551       3301.702          42.750  
E11  28299363.439   148714977.983       -2359.509          36.250    28299362.567   111052306.588       -1761.849          37.500    28299359.035   113949322.975       -1807.613          38.500    28299360.099   113081822.355       -1793.928          41.000  
E19  26367129.043   138560798.1231       1942.611          39.500    26367131.106   103470622.6971       1450.825          37.000    26367127.891   106169962.960        1488.524          38.250    26367128.705   105361654.612        1477.248          40.750  
E20  39752347.730   208899857.2761       -128.248          45.250    39752349.737   155996439.7261        -95.721          44.500    39752346.088   160065715.093         -98.245          44.500    39752347.461   158847129.067         -97.492          47.500  
> 2012 12 15 00 25 30.0000000  0 23
G01  25431264.547   133641518.8981       -892.991          33.500    25431263.997          12.250    25431266.082   104136447.8681       -695.872          33.750    25431265.528   104136246.8721       -695.864          12.250    25431266.337    99797989.2631       -666.771          40.500  
G09  19971585.384   104951549.0361      -1204.487          52.250    19971584.857          45.250                                                                    19971583.557    81780357.089        -938.560          45.250                                                                  
G12  21252033.824   111680429.985        2354.385          49.750    21252033.704          41.000    21252031.736    87024084.101        1834.646          44.750    21252031.667    87023688.099        1834.582          41.000                                                                  
G14  23906199.505   125628641.219        3267.752          38.750    23906199.277          20.500                                                                    23906197.400    97892446.978        2546.315          20.500                                                                  
G15  22429004.350   117865334.944       -3163.000          47.500    22429004.315          36.250    22429003.034    91842772.581       -2464.652          42.000    22429002.510    91843406.586       -2464.675          36.250                                                                  
G17  22579090.855   118653588.075       -1125.945          47.500    22579090.775          35.750    22579088.538    92457755.245        -877.403          41.750    22579088.553    92457247.233        -877.369          35.750                                                                  
G18  23822728.478   125188634.9141      -2211.138          39.000    23822727.812          19.500                                                                    23822725.811    97549580.987       -1722.974          19.500                                                                  
G22  23827044.248   125211935.513        -660.152          42.000    23827043.229          25.750                                                                    23827040.348    97568212.065        -514.393          25.750                                                                  
G24  20207761.437   106192077.774           0.292          52.000    20207761.526          48.000    20207761.884    82747065.659           0.269          51.250    20207762.013    82747396.657           0.228          48.000    20207763.444    79299823.895           0.257          58.000  
G25  24217394.303   127263505.7591       3520.325          38.250    24217393.651          20.750    24217396.092    99166113.7481       2743.112          37.500    24217396.256    99166076.7281       2743.093          20.750    24217398.116    95034436.7361       2628.939          45.250  
G26  25602610.209   134542692.702       -4108.522          38.000    25602609.534          15.500                                                                    25602609.111   104837879.834       -3201.416          15.500                                                                  
R06  24109146.782   128650623.352       -4480.315          39.250    24109147.632   100061314.917       -3484.672          37.500    24109148.728   100061314.938       -3484.784          37.500  
R07  21469553.964   114928214.964       -2787.324          48.000    21469555.384    89388587.693       -2167.888          45.750    21469555.751    89388596.699       -2167.992          46.250  
R08  21990833.451   117759361.647         904.856          44.500    21990832.926    91590442.584         703.715          40.750    21990830.626    91590454.589         703.752          41.000  
R09  19633522.600   104842357.5261       1115.056          52.000    19633523.837    81544060.238         867.315          50.250    19633524.730    81544060.248         867.293          50.500  
R10  22899097.095   122065048.3611       3335.303          42.250    22899102.513    94939484.7931       2594.110          37.250    22899102.587    94939484.8131       2593.990          37.750  
R16  20419358.840   109076690.9111      -2164.563          50.750    20419361.263    84837009.2101      -1683.522          48.000    20419361.686    84837181.2201      -1683.556          48.250  
R17  22687625.066   121405301.980       -2966.665          43.000    22687625.517    94426349.635       -2307.421          42.000    22687625.719    94426349.627       -2307.327          41.750  
R18  20654149.607   110253235.9251        725.023          50.000    20654152.667    85752703.632         563.885          48.000    20654152.829    85752703.634         563.904          48.500  
R19  22452224.102   120103689.4001       4236.159          45.250    22452225.355    93414081.727        3294.792          42.500    22452225.302    93414083.738        3294.786          43.000  
E11  28312855.434   148785882.368       -2367.825          35.250    28312854.946   111105254.711       -1768.148          37.250    28312851.655   114003652.311       -1814.131          37.500    28312852.562   113135738.101       -1800.349          40.500  
E19  26356069.358   138502679.2801       1931.674          38.750    26356071.473   103427222.2881       1442.493          37.250    26356067.530   106125430.376        1480.260          37.250    26356069.139   105317461.054        1468.945          40.250  
E20  39753122.918   208903930.091        -143.305          45.000    39753124.897   155999481.073        -106.964          44.500    39753121.490   160068835.788        -109.689          45.000    39753122.523   158850225.999        -108.872          47.750  
> 2012 12 15 00 26  0.0000000  0 23
G01  25436411.262   133668567.247        -910.556          33.250    25436410.735          13.750    25436413.001   104157524.419        -709.155          33.250    25436412.701   104157323.456        -709.535          13.750    25436413.412    99818187.655        -679.932          40.250  
G09  19978505.597   104987915.6391      -1219.970          52.250    19978505.065          45.250                                                                    19978503.880    81808694.685        -950.627          45.250                                                                  
G12  21238630.213   111609994.487        2341.298          50.000    21238630.093          41.250    21238628.267    86969199.303        1824.340          44.500    21238628.198    86968803.301        1824.385          41.250                                                                  
G14  23887565.240   125530716.3441       3260.439          38.750    23887564.977          19.500                                                                    23887562.400    97816141.8471       2540.604          19.500                                                                  
G15  22447088.921   117960369.686       -3172.750          47.750    22447088.890          36.250    22447087.541    91916825.618       -2472.284          42.250    22447087.259    91917459.621       -2472.272          36.250                                                                  
G17  22585570.591   118687638.9661      -1144.067          47.250    22585570.515          35.500    22585568.295    92484288.4021       -891.488          42.000    22585568.350    92483780.3961       -891.477          35.500                                                                  
G18  23835380.944   125255127.2081      -2222.057          39.000    23835380.292          19.000                                                                    23835379.175    97601393.180       -1731.469          19.000                                                                  
G22  23830861.604   125231996.337        -677.309          42.000    23830860.563          25.000                                                                    23830857.128    97583843.856        -527.769          25.000                                                                  
G24  20207797.921   106192270.250         -13.144          52.000    20207798.010          48.250    20207798.621    82747215.637         -10.269          51.250    20207798.618    82747546.626         -10.240          48.250    20207800.107    79299967.620          -9.841          58.000  
G25  24197310.146   127157961.197        3515.823          38.500    24197309.556          20.250    24197311.840    99083871.211        2739.792          36.000    24197311.418    99083834.214        2739.599          20.250    24197312.710    94955621.0241       2625.488          44.000  
G26  25626061.132   134665933.553       -4107.803          37.250    25626060.565          13.750                                                                    25626060.956   104933911.660       -3200.853          13.750                                                                  
R06  24134332.228   128785020.961       -4479.551          38.750    24134334.672   100165846.378       -3484.208          37.000    24134334.498   100165846.375       -3484.158          37.250  
R07  21485231.823   115012138.7011      -2807.600          47.250    21485233.193    89453861.7181      -2183.684          44.750    21485232.830    89453870.7121      -2183.613          45.750  
R08  21985839.055   117732611.4421        878.512          46.000    21985837.370    91569636.8341        683.414          40.250    21985835.153    91569648.8441        683.297          41.000  
R09  19627294.717   104809099.9151       1102.101          52.000    19627295.783    81518193.205         857.127          50.250    19627296.560    81518193.216         857.155          50.250  
R10  22880335.055   121965033.488        3332.366          44.250    22880340.302    94861695.528        2591.701          37.000    22880339.560    94861695.538        2591.689          36.750  
R16  20431544.641   109141788.463       -2175.231          50.000    20431547.843    84887640.617       -1691.871          48.250    20431548.172    84887812.619       -1691.876          48.250  
R17  22704309.783   121494590.2641      -2985.861          42.000    22704311.072    94495796.068       -2322.444          41.250    22704310.997    94495796.066       -2322.388          40.750  
R18  20650153.149   110231903.9141        697.109          50.000    20650156.618    85736112.077         542.170          48.250    20650156.517    85736112.083         542.169          48.750  
R19  22428491.768   119976738.7881       4227.173          44.500    22428493.188    93315342.3841       3287.818          42.500    22428492.992    93315344.3941       3287.847          42.500  
E11  28326396.780   148857041.6191      -2376.240          34.000    28326396.597   111158393.0861      -1774.606          38.000    28326392.309   114058176.931       -1820.815          36.750    28326393.888   113189847.613       -1806.936          40.250  
E19  26345071.933   138444888.5581       1920.925          38.500    26345074.493   103384066.8971       1434.518          37.750    26345070.665   106081149.177        1471.776          38.000    26345071.814   105273516.975        1460.650          40.750  
E20  39753983.366   208908452.153        -158.252          45.250    39753985.273   156002857.898        -118.185          44.250    39753981.928   160072300.704        -121.211          45.000    39753983.087   158853664.537        -120.304          47.750  
> 2012 12 15 00 26 30.0000000  0 23
G01  25441659.213   133696142.588        -927.741          34.000    25441658.614          14.750    25441660.946   104179011.691        -723.124          34.750    25441660.208   104178810.684        -722.932          14.750    25441661.147    99838779.5561       -692.837          41.500  
G09  19985514.425   105024746.6711      -1235.443          52.000    19985513.893          45.250                                                                    19985512.603    81837394.1901       -962.683          45.250                                                                  
G12  21225301.629   111539951.9871       2328.171          50.500    21225301.509          41.250    21225300.018    86914620.7201       1814.243          45.000    21225299.583    86914224.7221       1814.161          41.250                                                                  
G14  23868972.305   125433008.960        3253.385          38.500    23868972.046          20.500                                                                    23868969.277    97740006.195        2535.100          20.500                                                                  
G15  22465229.072   118055697.488       -3182.413          47.250    22465229.028          36.000    22465227.568    91991107.028       -2479.837          41.500    22465227.478    91991741.017       -2479.804          36.000                                                                  
G17  22592154.150   118722235.5651      -1162.298          46.750    22592154.074          35.500    22592151.865    92511246.795        -905.791          41.250    22592151.629    92510738.784        -905.692          35.500                                                                  
G18  23848095.006   125321934.9821      -2232.116          39.000    23848094.448          18.500                                                                    23848091.989    97653451.185       -1739.297          18.500                                                                  
G22  23834776.170   125252568.105        -694.290          40.750    23834775.120          25.000                                                                    23834771.985    97599873.776        -541.012          25.000                                                                  
G24  20207911.731   106192868.190         -26.699          52.250    20207911.820          48.000    20207912.292    82747681.560         -20.796          51.500    20207912.385    82748012.548         -20.803          48.000    20207913.838    79300414.128         -19.921          57.750  
G25  24177251.183   127052553.7631       3511.220          39.250    24177250.589          21.000    24177253.336    99001735.5541       2736.178          36.750    24177252.971    99001698.5631       2736.022          21.000    24177254.603    94876907.6711       2621.999          44.000  
G26  25649509.624   134789153.545       -4106.801          36.250    25649509.186          14.000                                                                    25649508.816   105029927.271       -3200.091          14.000                                                                  
R06  24159514.488   128919394.382       -4478.801          39.750    24159515.743   100270358.988       -3483.348          35.250    24159516.356   100270359.003       -3483.398          35.250  
R07  21501022.837   115096666.045       -2827.547          48.000    21501023.940    89519605.146       -2199.248          45.250    21501023.757    89519614.152       -2199.275          46.000  
R08  21980991.823   117706653.064         852.045          45.500    21980989.438    91549446.962         662.795          41.250    21980987.945    91549458.972         662.713          41.250  
R09  19621139.542   104776233.6071       1089.061          52.000    19621140.975    81492630.524         847.055          50.500    19621141.837    81492630.539         847.046          50.500  
R10  22861588.637   121865106.5271       3329.423          43.500    22861595.386    94783974.6121       2589.750          38.000    22861593.901    94783974.6171       2589.676          37.500  
R16  20443791.681   109207207.307       -2185.933          50.500    20443794.334    84938521.919       -1700.137          48.250    20443794.672    84938693.926       -1700.194          48.500  
R17  22721105.486   121584454.8931      -3005.099          43.250    22721104.375    94565690.749       -2337.279          41.000    22721104.292    94565690.747       -2337.337          41.250  
R18  20646314.093   110211411.7561        669.064          50.000    20646317.566    85720173.759         520.349          48.000    20646317.714    85720173.757         520.407          48.500  
R19  22404810.789   119850060.5031       4218.000          45.000    22404812.412    93216814.829        3280.791          43.500    22404812.174    93216816.839        3280.572          42.750  
E11  28339985.925   148928454.007       -2384.779          33.500    28339985.854   111211720.510       -1780.636          38.000    28339981.959   114112895.499       -1827.186          37.000    28339983.175   113244149.608       -1813.218          40.500  
E19  26334137.677   138387427.5841       1909.674          38.250    26334139.779   103341157.7301       1426.171          37.250    26334136.238   106037120.657        1463.460          37.500    26334137.601   105229823.643        1452.274          40.250  
E20  39754929.335   208913423.308        -173.189          44.750    39754931.500   156006570.069        -129.270          44.500    39754927.941   160076109.737        -132.691          45.000    39754929.143   158857444.562        -131.677          47.750  
> 2012 12 15 00 27  0.0000000  0 23
G01  25447006.966   133724243.7951       -945.529          35.000    25447006.349          14.000    25447008.445   104200908.6751       -736.584          34.000    25447007.768   104200707.7081       -736.783          14.000    25447008.564    99859764.214        -706.152          41.250  
G09  19992611.332   105062041.7201      -1250.936          52.250    19992610.800          45.250                                                                    19992609.654    81866455.257        -974.758          45.250                                                                  
G12  21212048.061   111470303.683        2315.000          50.250    21212047.932          41.500    21212046.342    86860349.308        1804.019          45.000    21212045.940    86859953.315        1803.899          41.500                                                                  
G14  23850421.125   125335521.0931       3245.777          39.250    23850420.866          21.000                                                                    23850418.103    97664041.6081       2529.188          21.000                                                                  
G15  22483424.954   118151316.552       -3192.130          47.000    22483424.905          36.000    22483423.584    92065615.365       -2487.464          42.000    22483423.136    92066249.371       -2487.373          36.000                                                                  
G17  22598841.217   118757376.4671      -1180.377          46.750    22598841.137          35.750    22598838.741    92538629.315        -919.826          42.000    22598838.986    92538121.312        -919.768          35.750                                                                  
G18  23860867.242   125389055.4981      -2242.508          39.000    23860866.634          18.750                                                                    23860864.597    97705752.9121      -1747.399          18.750                                                                  
G22  23838788.211   125273650.068        -711.305          41.000    23838787.183          24.750                                                                    23838783.419    97616301.294        -554.264          24.750                                                                  
G24  20208102.713   106193871.956         -40.278          52.000    20208102.802          48.000    20208103.426    82748463.695         -31.354          51.500    20208103.431    82748794.696         -31.387          48.000    20208104.924    79301163.6791        -30.030          57.750  
G25  24157219.500   126947284.8061       3506.627          37.750    24157218.901          20.500    24157221.787    98919707.8351       2732.448          37.250    24157221.246    98919670.8381       2732.438          20.500    24157223.035    94798297.7611       2618.564          44.500  
G26  25672953.559   134912350.6371      -4106.086          36.500    25672953.153          14.500                                                                    25672952.603   105125924.9761      -3199.529          14.500                                                                  
R06  24184691.019   129053739.311       -4477.678          39.000    24184692.573   100374849.478       -3482.525          37.000    24184692.758   100374849.487       -3482.619          36.250  
R07  21516925.503   115181792.933       -2847.456          47.750    21516926.315    89585814.934       -2214.652          45.500    21516926.260    89585823.939       -2214.731          45.750  
R08  21976292.563   117681488.527         825.575          45.250    21976291.007    91529874.495         642.104          40.500    21976288.494    91529886.497         642.217          40.750  
R09  19615058.260   104743758.9491       1075.937          52.000    19615059.585    81467372.4471        836.897          50.250    19615060.377    81467372.4611        836.880          50.500  
R10  22842859.223   121765268.3791       3326.554          43.750    22842864.716    94706322.8091       2587.283          37.000    22842864.001    94706322.8381       2587.132          36.750  
R16  20456098.345   109272946.266       -2196.628          50.500    20456100.826    84989652.197       -1708.443          48.250    20456101.431    84989824.203       -1708.466          48.250  
R17  22738003.786   121674892.1961      -3024.100          43.000    22738005.334    94636030.861       -2352.015          40.500    22738004.548    94636030.885       -2352.040          41.000  
R18  20642632.854   110191760.5491        641.000          49.500    20642636.386    85704889.4971        498.563          48.250    20642636.326    85704889.4961        498.619          48.500  
R19  22381181.103   119723658.9151       4208.687          45.250    22381182.418    93118502.5091       3273.474          42.750    22381182.658    93118504.5181       3273.425          43.250  
E11  28353623.224   149000117.831       -2392.872          36.000    28353623.118   111265235.689       -1787.060          39.000    28353618.861   114167806.737       -1833.465          37.500    28353620.506   113298642.798       -1819.586          41.250  
E19  26323265.905   138330297.8561       1898.741          38.250    26323268.133   103298495.964        1417.775          36.250    26323264.887   105993345.946        1454.895          37.750    26323265.960   105186382.203        1443.719          40.000  
E20  39755960.800   208918843.391        -188.185          45.250    39755962.728   156010617.509        -140.446          44.500    39755959.267   160080262.752        -144.148          44.750    39755960.572   158861565.966        -143.041          47.750  
> 2012 12 15 00 27 30.0000000  0 23
G01  25452454.302   133752869.890        -962.969          34.000    25452453.717          14.250    25452455.503   104223214.810        -750.671          34.000    25452455.013   104223013.796        -750.393          14.250    25452455.881    99881140.9001       -719.230          40.750  
G09  19999796.556   105099799.9891      -1266.292          52.250    19999796.024          45.250                                                                    19999794.733    81895877.271        -986.718          45.250                                                                  
G12  21198869.672   111401050.662        2301.895          50.000    21198869.543          42.000    21198867.999    86806385.940        1793.688          45.000    21198867.500    86805989.937        1793.683          42.000                                                                  
G14  23831911.481   125238255.291        3238.538          40.000    23831911.133          21.250                                                                    23831908.953    97588250.064        2523.539          21.250                                                                  
G15  22501676.090   118247224.737       -3201.805          46.750    22501676.086          35.750    22501673.962    92140348.996       -2494.813          41.750    22501673.849    92140983.011       -2494.910          35.750                                                                  
G17  22605631.741   118793060.4581      -1198.399          47.000    22605631.648          35.250    22605629.499    92566435.027        -933.965          41.500    22605629.377    92565927.018        -933.817          35.250                                                                  
G18  23873698.848   125456486.0321      -2252.947          39.250    23873698.205          19.500                                                                    23873696.598    97758296.167       -1755.535          19.500                                                                  
G22  23842896.910   125295240.3111       -728.119          41.750    23842895.891          24.500                                                                    23842891.995    97633124.8571       -567.367          24.500                                                                  
G24  20208371.233   106195282.4191        -53.801          52.000    20208371.326          48.500    20208371.941    82749562.7681        -41.904          51.500    20208371.849    82749893.7551        -41.922          48.500    20208373.284    79302216.954         -40.193          57.500  
G25  24137214.762   126842155.6731       3501.836          39.250    24137214.186          21.250    24137215.687    98837789.0211       2728.819          36.500    24137215.489    98837752.0111       2728.701          21.250    24137217.456    94719792.2421       2615.118          44.250  
G26  25696391.891   135035522.990       -4105.213          35.750    25696391.489          12.500                                                                    25696391.641   105221903.459       -3198.848          12.500                                                                  
R06  24209860.466   129188051.911       -4476.592          38.000    24209863.485   100479314.800       -3481.686          37.250    24209863.069   100479314.807       -3481.675          36.500  
R07  21532938.933   115267515.734       -2867.282          47.750    21532939.610    89652488.210       -2230.167          45.500    21532939.811    89652497.210       -2230.112          45.750  
R08  21971741.118   117657117.982         799.133          45.750    21971740.072    91510919.587         621.486          40.500    21971737.442    91510931.597         621.505          40.750  
R09  19609050.336   104711676.6611       1062.884          52.250    19609051.533    81442419.553         826.682          50.250    19609052.318    81442419.566         826.708          50.500  
R10  22824147.062   121665520.3481       3323.319          43.500    22824151.717    94628741.0721       2585.052          36.500    22824151.794    94628741.1001       2584.835          37.000  
R16  20468464.676   109339004.958       -2207.251          50.500    20468467.385    85041031.149       -1716.793          48.250    20468467.704    85041203.159       -1716.830          48.000  
R17  22755012.098   121765898.2631      -3042.913          43.250    22755012.113    94706813.350       -2366.776          41.750    22755012.382    94706813.356       -2366.707          42.250  
R18  20639109.230   110172951.4771        612.954          50.250    20639112.492    85690260.241         476.728          48.000    20639112.589    85690260.240         476.759          48.500  
R19  22357604.860   119597538.3911       4199.239          45.750    22357605.499    93020408.770        3266.046          42.750    22357605.643    93020410.770        3266.162          43.250  
E11  28367308.182   149072031.445       -2401.054          37.250    28367307.960   111318937.368       -1793.103          38.750    28367304.642   114222909.370       -1839.933          39.000    28367305.321   113353325.914       -1825.856          41.750  
E19  26312457.935   138273500.7531       1887.479          37.500    26312459.815   103256082.5311       1409.570          36.250    26312457.011   105949826.086        1446.500          38.000    26312457.843   105143193.651        1435.470          40.000  
E20  39757077.420   208924712.1981       -203.019          45.250    39757079.833   156015000.0381       -151.609          44.750    39757075.898   160084759.610        -155.584          44.750    39757077.369   158866028.587        -154.404          47.750  
> 2012 12 15 00 28  0.0000000  0 24
G01  25458001.574   133782019.8831       -980.739          32.000    25458001.092          11.750    25458002.681   104245929.1901       -763.794          32.750    25458002.128   104245728.1681       -764.229          11.750    25458002.316    99902908.902        -732.039          38.500  
G09  20007069.919   105138021.0951      -1281.775          52.000    20007069.387          45.250                                                                    20007067.997    81925659.944        -998.786          45.250                                                                  
G12  21185766.593   111332194.045        2288.578          50.000    21185766.482          41.750    21185764.770    86752731.452        1783.284          44.750    21185764.510    86752335.446        1783.308          41.750                                                                  
G14  23813445.460   125141214.2741       3230.908          39.500    23813445.022          20.750                                                                    23813442.712    97512633.6731       2517.598          20.750                                                                  
G15  22519980.954   118343419.327       -3211.272          47.000    22519980.962          35.750    22519979.349    92215305.821       -2502.210          41.500    22519978.959    92215939.831       -2502.291          35.750                                                                  
G17  22612525.306   118829286.1601      -1216.554          46.250    22612525.213          35.250    22612522.674    92594662.839        -947.940          41.750    22612522.678    92594154.840        -947.961          35.250                                                                  
G18  23886588.695   125524223.9521      -2262.935          39.000    23886588.105          18.500                                                                    23886586.734    97811078.930       -1763.314          18.500                                                                  
G22  23847101.292   125317337.825        -745.112          41.500    23847100.197          24.750                                                                    23847097.006    97650343.685        -580.598          24.750                                                                  
G24  20208716.943   106197099.519         -67.391          52.250    20208717.032          48.250    20208717.475    82750978.685         -52.446          51.250    20208717.635    82751309.679         -52.513          48.250    20208719.097    79303573.881         -50.310          57.750  
G25  24117235.532   126737167.6221       3497.279          38.000    24117234.987          21.500    24117236.741    98755980.1721       2725.078          37.750    24117237.187    98755943.1501       2725.167          21.500    24117239.043    94641392.0931       2611.501          44.500  
G26  25719825.717   135158668.710       -4104.515          34.000    25719825.275          10.750                                                                    25719825.564   105317861.141       -3198.275          10.750                                                                  
R01  24710706.306   132093614.7201       3719.788          30.500                                                                                                                                  
R06  24235024.268   129322328.450       -4475.150          38.000    24235024.923   100583752.050       -3480.767          38.000    24235026.231   100583752.066       -3480.659          37.500  
R07  21549063.077   115353830.527       -2886.947          47.500    21549064.720    89719621.922       -2245.465          45.500    21549063.932    89719630.924       -2245.403          46.000  
R08  21967339.972   117633543.8781        772.492          46.000    21967336.502    91492584.1651        600.816          41.250    21967335.420    91492596.1611        600.856          41.000  
R09  19603115.940   104679987.4231       1049.690          52.250    19603117.209    81417772.360         816.446          50.000    19603117.867    81417772.374         816.447          50.500  
R10  22805451.184   121565862.9611       3320.350          43.000    22805456.111    94551229.8971       2582.477          37.250    22805456.195    94551229.8791       2582.720          37.250  
R16  20480890.564   109405382.340       -2217.943          50.500    20480893.345    85092657.995       -1725.059          48.250    20480893.820    85092830.002       -1725.058          48.000  
R17  22772122.746   121857469.4281      -3061.889          42.500    22772123.663    94778035.347       -2381.281          41.000    22772123.681    94778035.349       -2381.435          41.000  
R18  20635743.614   110154985.2501        584.787          50.000    20635746.999    85676286.515         454.845          48.250    20635747.000    85676286.517         454.845          48.750  
R19  22334080.894   119471703.5051       4189.684          46.000    22334082.420    92922537.2081       3258.728          42.500    22334081.792    92922539.2141       3258.701          42.750  
E11  28381040.625   149144193.169       -2409.572          36.500    28381039.485   111372824.368       -1799.291          38.250    28381035.899   114278202.083       -1846.191          38.000    28381037.223   113408197.697       -1832.131          41.250  
E19  26301713.892   138217037.8851       1876.650          37.500    26301715.776   103213918.7421       1401.470          36.750    26301711.545   105906562.357        1438.094          37.000    26301713.294   105100259.309        1427.074          40.000  
E20  39758279.742   208931029.482        -218.019          44.750    39758281.935   156019717.464        -162.901          44.500    39758277.977   160089600.095        -167.004          44.750    39758279.542   158870832.222        -165.797          47.750  
> 2012 12 15 00 28 30.0000000  0 24
G01  25463646.428   133811692.4171       -997.767          33.500    25463645.878          11.500    25463648.880   104269050.544        -777.384          32.500    25463648.670   104268849.564        -777.471          11.500    25463649.018    99925066.8791       -745.197          39.750  
G09  20014430.922   105176704.5541      -1297.126          52.000    20014430.399          45.250                                                                    20014429.191    81955802.890       -1010.746          45.250                                                                  
G12  21172739.405   111263734.5091       2275.380          50.250    21172739.298          41.750    21172737.443    86699386.3671       1772.982          45.000    21172737.091    86698990.3661       1773.023          41.750                                                                  
G14  23795022.174   125044400.302        3223.410          40.000    23795021.696          21.000                                                                    23795019.734    97437194.221        2511.750          21.000                                                                  
G15  22538340.177   118439898.314       -3220.737          47.000    22538340.185          35.750    22538338.739    92290484.244       -2509.633          41.750    22538338.328    92291118.252       -2509.664          35.750                                                                  
G17  22619521.426   118866052.4231      -1234.569          46.500    22619521.337          35.500    22619519.301    92623311.872        -961.988          41.750    22619519.449    92622803.874        -962.006          35.500                                                                  
G18  23899537.100   125592266.7141      -2273.156          40.000    23899536.461          18.250                                                                    23899534.335    97864099.293       -1771.305          18.250                                                                  
G22  23851403.043   125339941.297        -761.975          41.500    23851401.948          24.750                                                                    23851398.358    97667956.759        -593.747          24.750                                                                  
G24  20209140.191   106199323.714         -80.922          52.250    20209140.280          48.250    20209140.870    82752711.822         -63.045          51.250    20209140.856    82753042.813         -63.060          48.250    20209142.372    79305234.800         -60.437          57.500  
G25  24097284.254   126632322.0391       3492.562          39.250    24097283.718          21.750    24097286.088    98674282.3221       2721.403          36.500    24097285.894    98674245.3231       2721.477          21.750    24097288.049    94563098.3281       2607.957          45.000  
G26  25743253.830   135281785.729       -4103.492          33.750    25743253.383          11.000                                                                    25743253.951   105413796.495       -3197.481          11.000                                                                  
R01  24689861.758   131982194.0901       3708.067          37.000                                                                                                                                  
R06  24260179.674   129456565.173       -4473.862          40.000    24260182.464   100688158.343       -3479.863          38.500    24260182.435   100688158.322       -3479.660          37.750  
R07  21565297.224   115440732.802       -2906.498          47.000    21565297.962    89787212.555       -2260.652          45.750    21565298.601    89787221.559       -2260.664          46.000  
R08  21963085.074   117610765.131         746.092          45.500    21963083.543    91474867.324         580.259          40.250    21963080.989    91474879.339         580.133          40.000  
R09  19597255.261   104648691.9051       1036.612          52.250    19597256.552    81393431.403         806.257          50.250    19597257.466    81393431.419         806.188          50.500  
R10  22786772.618   121466297.2701       3317.310          43.000    22786777.685    94473789.9961       2580.064          37.000    22786777.713    94473789.9811       2580.182          37.000  
R16  20493376.250   109472077.535       -2228.464          50.750    20493378.672    85144532.021       -1733.267          48.500    20493379.225    85144704.026       -1733.234          48.000  
R17  22789341.307   121949601.8011      -3080.304          43.000    22789341.029    94849693.839       -2395.841          41.000    22789341.288    94849693.848       -2395.815          41.500  
R18  20632536.015   110137862.9361        556.699          49.750    20632539.485    85662969.177         432.987          48.000    20632539.456    85662969.184         432.971          48.500  
R19  22310611.867   119346158.7361       4179.938          45.500    22310612.980    92824891.298        3251.016          43.500    22310613.018    92824893.279        3251.116          43.500  
E11  28394819.007   149216601.206       -2417.655          35.000    28394818.504   111426895.312       -1805.419          38.500    28394814.592   114333683.569       -1852.558          38.500    28394815.996   113463256.801       -1838.445          41.250  
E19  26291032.855   138160910.5751       1865.392          38.250    26291035.350   103172005.4911       1393.008          37.000    26291030.990   105863555.732        1429.319          37.250    26291032.667   105057580.080        1418.440          40.000  
E20  39759567.056   208937794.991        -232.980          45.250    39759569.315   156024769.607        -174.042          44.750    39759565.541   160094784.038        -178.455          45.000    39759566.976   158875976.699        -177.176          47.750  
> 2012 12 15 00 29  0.0000000  0 24
G01  25469392.641   133841886.8291      -1015.182          35.250    25469392.069          15.250    25469394.822   104292578.6881       -790.835          34.250    25469394.459   104292377.6701       -791.044          15.250    25469394.839    99947614.629        -758.090          40.250  
G09  20021880.002   105215849.8151      -1312.512          52.000    20021879.479          45.000                                                                    20021878.288    81986305.674       -1022.735          45.000                                                                  
G12  21159787.608   111195672.985        2262.096          50.500    21159787.506          41.750    21159785.477    86646351.413        1762.676          45.000    21159785.407    86645955.418        1762.672          41.750                                                                  
G14  23776642.882   124947816.0081       3215.658          40.000    23776642.332          20.750                                                                    23776640.190    97361933.6771       2505.706          20.750                                                                  
G15  22556753.299   118536659.720       -3230.029          47.000    22556753.295          35.500    22556751.826    92365882.751       -2516.917          42.250    22556751.455    92366516.751       -2516.907          35.500                                                                  
G17  22626620.702   118903357.9331      -1252.436          46.000    22626620.604          35.000    22626618.267    92652381.115        -976.142          41.750    22626618.216    92651873.104        -975.920          35.000                                                                  
G18  23912542.385   125660611.6371      -2282.973          39.750    23912541.724          19.250                                                                    23912540.192    97917355.056       -1778.933          19.250                                                                  
G22  23855800.262   125363049.632        -778.548          41.250    23855799.203          24.500                                                                    23855795.274    97685963.266        -606.658          24.500                                                                  
G24  20209641.046   106201955.284         -94.443          52.250    20209641.144          48.000    20209641.478    82754762.397         -73.635          51.250    20209641.647    82755093.384         -73.592          48.000    20209643.069    79307199.932         -70.573          57.500  
G25  24077359.850   126527620.2141       3487.774          38.250    24077359.327          20.000    24077361.517    98592696.4721       2717.718          36.500    24077360.862    98592659.4611       2717.762          20.000    24077362.633    94484911.9171       2604.494          43.750  
G26  25766676.952   135404872.171       -4102.661          35.000    25766676.429          10.000                                                                    25766676.413   105509707.938       -3196.842          10.000                                                                  
R01  24669083.933   131871123.5871       3696.495          37.000                                                                                                                                  
R06  24285326.993   129590758.333       -4472.252          40.500    24285328.666   100792530.737       -3478.459          37.000    24285329.472   100792530.761       -3478.553          36.750  
R07  21581640.127   115528218.899       -2925.788          47.500    21581642.244    89855257.270       -2275.718          44.000    21581640.691    89855266.270       -2275.682          45.250  
R08  21958980.208   117588783.890         719.514          45.500    21958978.244    91457770.809         559.601          40.500    21958976.129    91457782.812         559.613          40.500  
R09  19591468.401   104617790.8251       1023.481          52.250    19591469.688    81369397.216         796.031          50.250    19591470.632    81369397.231         796.036          50.500  
R10  22768112.021   121366824.2911       3314.360          43.750    22768116.730    94396422.1251       2577.843          36.250    22768116.613    94396422.1261       2577.863          37.000  
R16  20505920.794   109539089.839       -2239.011          50.750    20505923.429    85196652.686       -1741.474          47.750    20505923.736    85196824.686       -1741.434          47.750  
R17  22806662.095   122042291.8391      -3098.962          43.000    22806662.307    94921786.0911      -2410.344          41.000    22806662.453    94921786.0871      -2410.334          41.000  
R18  20629486.587   110121585.3941        528.502          50.000    20629489.940    85650308.8861        411.052          48.000    20629490.091    85650308.8851        411.089          48.500  
R19  22287198.038   119220908.4141       4170.118          46.000    22287198.747    92727474.3731       3243.424          42.500    22287198.198    92727476.3931       3243.324          42.750  
E11  28408644.561   149289253.947       -2425.720          34.000    28408643.876   111481148.958       -1811.547          38.250    28408640.379   114389352.517       -1858.699          38.250    28408641.233   113518501.948       -1844.613          41.000  
E19  26280416.442   138105120.3781       1854.088          38.000    26280418.739   103130343.9891       1384.414          37.750    26280415.157   105820807.398        1420.530          37.500    26280416.006   105015157.194        1409.733          40.500  
E20  39760939.761   208945008.437        -247.882          44.750    39760942.385   156030156.236        -185.125          44.750    39760938.128   160100311.193        -189.895          44.750    39760939.679   158881461.772        -188.491          47.750  
> 2012 12 15 00 29 30.0000000  0 24
G01  25475237.917   133872602.0061      -1032.326          34.000    25475237.278          13.000    25475239.518   104316512.736        -804.606          33.500    25475239.495   104316311.678        -804.364          13.000    25475239.987    99970551.4091       -770.922          39.750  
G09  20029417.019   105255456.2771      -1327.924          52.250    20029416.496          45.250                                                                    20029415.204    82017167.846       -1034.742          45.250                                                                  
G12  21146911.878   111128010.605        2248.712          50.250    21146911.776          41.500    21146909.927    86593627.483        1752.355          45.250    21146909.692    86593231.490        1752.248          41.500                                                                  
G14  23758308.005   124851463.771        3207.786          39.500    23758307.433          21.000                                                                    23758305.173    97286853.996        2499.569          21.000                                                                  
G15  22575219.504   118633700.405       -3239.342          46.750    22575219.521          35.500    22575217.950    92441498.863       -2524.191          42.250    22575217.754    92442132.862       -2524.160          35.500                                                                  
G17  22633821.801   118941201.181       -1270.405          47.000    22633821.699          35.500    22633819.364    92681869.343        -989.921          41.750    22633819.675    92681361.349        -989.930          35.500                                                                  
G18  23925604.682   125729256.0141      -2293.167          38.750    23925604.007          18.000                                                                    23925602.674    97970844.186       -1786.869          18.000                                                                  
G22  23860293.464   125386661.4341       -795.394          41.250    23860292.458          25.000                                                                    23860288.883    97704361.9991       -619.780          25.000                                                                  
G24  20210219.274   106204994.670        -108.133          52.000    20210219.372          47.750    20210219.871    82757130.744         -84.250          51.250    20210219.988    82757461.736         -84.260          47.750    20210221.509    79309469.596         -80.718          57.500  
G25  24057463.893   126423063.5141       3482.759          39.500    24057463.294          22.750    24057465.758    98511223.7341       2713.841          38.750    24057465.670    98511186.7391       2713.862          22.750    24057467.409    94406833.8111       2600.870          45.000  
G26  25790093.904   135527926.107       -4101.082          35.000    25790093.363          10.500                                                                    25790092.668   105605594.134       -3195.620          10.500                                                                  
R01  24648372.966   131760028.2461       3684.732          35.250    24648376.740   102480364.5811       2865.940          31.000    24648377.096   102480021.5931       2865.487          31.250  
R06  24310466.394   129724903.951       -4470.690          39.250    24310467.952   100896866.164       -3477.269          37.750    24310468.728   100896866.183       -3477.269          36.000  
R07  21598091.584   115616284.746       -2945.138          47.250    21598092.967    89923752.915       -2290.694          45.500    21598093.230    89923761.917       -2290.746          46.000  
R08  21955024.168   117567600.107         692.822          45.500    21955022.655    91441294.507         538.848          40.250    21955020.540    91441306.514         538.884          41.250  
R09  19585755.886   104587285.2641       1010.231          52.250    19585756.992    81345670.668         785.784          50.250    19585757.821    81345670.685         785.762          50.750  
R10  22749468.671   121267444.902        3311.025          43.500    22749474.859    94319127.076        2575.214          37.750    22749474.069    94319127.076        2575.587          38.000  
R16  20518525.130   109606418.3751      -2249.502          51.000    20518527.567    85249019.2951      -1749.614          48.000    20518527.983    85249191.3041      -1749.596          48.000  
R17  22824086.280   122135535.548       -3117.397          42.500    22824087.668    94994308.955       -2424.484          39.500    22824086.636    94994308.969       -2424.596          40.500  
R18  20626595.759   110106153.6131        500.208          50.000    20626599.124    85638306.392         389.131          47.750    20626599.026    85638306.399         389.132          48.500  
R19  22263839.445   119095957.0581       4160.014          46.000    22263840.636    92630290.000        3235.623          43.750    22263840.628    92630292.002        3235.543          43.750  
E11  28422515.744   149362149.729       -2433.704          34.000    28422515.350   111535584.081       -1817.307          37.750    28422511.231   114445207.712       -1865.027          37.250    28422512.881   113573931.903       -1850.669          40.500  
E19  26269864.219   138049668.7761       1842.827          37.750    26269866.537   103088935.3261       1376.083          37.250    26269862.624   105778318.516        1411.992          37.500    26269863.889   104972991.777        1401.266          40.250  
E20  39762397.727   208952669.6111       -262.948          44.750    39762400.348   156035877.2201       -196.261          44.750    39762396.489   160106181.436        -201.394          45.000    39762397.594   158887287.317        -199.850          48.000  
