     3.01           Observation data    Mixed               RINEX VERSION / TYPE
BNC 2.8             Weber               20130126 131026 UTC PGM / RUN BY / DATE
BRUX                                                        MARKER NAME
13101M010                                                   MARKER NUMBER
Carine Bruyninx     ROB                                     OBSERVER / AGENCY
3001376             SEPT POLARX4TR      2.3.4               REC # / TYPE / VERS
00464               JAVRINGANT_DM   NONE                    ANT # / TYPE
  4027881.6287   306998.5366  4919498.9839                  APPROX POSITION XYZ
        0.4689        0.0000        0.0010                  ANTENNA: DELTA H/E/N
E   16 C1C L1C D1C S1C C5Q L5Q D5Q S5Q C7Q L7Q D7Q S7Q C8Q  SYS / # / OBS TYPES
       L8Q D8Q S8Q                                          SYS / # / OBS TYPES
G   18 C1C L1C D1C S1C C1W S1W C2L L2L D2L S2L C2W L2W D2W  SYS / # / OBS TYPES
       S2W C5Q L5Q D5Q S5Q                                  SYS / # / OBS TYPES
R   12 C1C L1C D1C S1C C2C L2C D2C S2C C2P L2P D2P S2P      SYS / # / OBS TYPES
    30.000                                                  INTERVAL
  2012    12    15     0    30    0.0000000     GPS         TIME OF FIRST OBS
                                                            END OF HEADER
> 2012 12 15 00 30  0.0000000  0 24
G01  25481181.913   133903836.6281      -1049.598          32.250    25481181.390          12.000    25481183.801   104340851.368        -817.714          32.250    25481183.440   104340650.355        -817.841          12.000    25481183.905    99993876.000        -783.937          40.250  
G09  20037041.666   105295523.5891      -1343.312          52.250    20037041.139          45.000                                                                    20037039.749    82048389.122       -1046.735          45.000                                                                  
G12  21134112.288   111060748.427        2235.396          50.250    21134112.172          42.000    21134110.232    86541215.418        1741.855          45.750    21134110.102    86540819.411        1741.865          42.000                                                                  
G14  23740016.852   124755346.213        3200.021          39.500    23740016.280          21.000                                                                    23740014.694    97211957.177        2493.523          21.000                                                                  
G15  22593738.572   118731019.008       -3248.566          46.750    22593738.589          35.250    22593736.987    92517331.536       -2531.327          42.250    22593737.028    92517965.536       -2531.349          35.250                                                                  
G17  22641125.437   118979581.1661      -1288.280          46.500    22641125.321          35.000    22641123.277    92711775.830       -1003.716          41.750    22641123.033    92711267.831       -1003.853          35.000                                                                  
G18  23938724.203   125798197.0511      -2302.878          39.000    23938723.528          18.750                                                                    23938721.391    98024564.428       -1794.415          18.750                                                                  
G22  23864882.102   125410775.644        -812.183          41.750    23864881.092          24.750                                                                    23864877.939    97723152.274        -632.868          24.750                                                                  
G24  20210875.381   106208442.163        -121.765          52.000    20210875.479          48.250    20210876.015    82759817.106         -94.875          51.500    20210876.011    82760148.094         -94.878          48.250    20210877.478    79312044.030         -90.910          57.500  
G25  24037595.230   126318653.141        3477.940          38.750    24037594.622          19.250    24037597.359    98429864.999        2710.055          35.250    24037596.520    98429828.005        2710.041          19.250    24037599.056    94328865.098        2597.085          45.500  
G26  25813503.685   135650945.608       -4099.843          34.500    25813503.296           8.000                                                                    25813502.618   105701453.500       -3194.610           8.000                                                                  
R01  24627726.546   131649669.9031       3672.329          34.750    24627730.442   102394530.2811       2856.720          30.250    24627732.129   102394187.2511       2856.671          29.750  
R06  24335595.278   129858998.473       -4469.086          38.250    24335597.861   101001161.791       -3475.881          35.750    24335598.026   101001161.788       -3475.820          35.500  
R07  21614650.896   115704926.388       -2964.269          47.750    21614651.729    89992696.390       -2305.583          45.000    21614651.586    89992705.387       -2305.633          45.250  
R08  21951217.451   117547215.025         666.102          46.000    21951215.898    91425439.414         518.057          40.500    21951213.736    91425451.403         518.168          40.750  
R09  19580117.285   104557175.3971        996.997          52.250    19580118.524    81322251.877         775.494          50.250    19580119.266    81322251.893         775.452          50.500  
R10  22730843.276   121168160.249        3307.935          43.000    22730848.212    94241905.767        2572.806          37.000    22730847.812    94241905.771        2572.814          37.500  
R16  20531187.971   109674062.264       -2260.093          50.500    20531190.881    85301631.183       -1757.918          48.500    20531191.207    85301803.190       -1757.877          47.500  
R17  22841614.184   122229329.1791      -3135.658          43.000    22841614.577    95067259.557       -2438.662          40.750    22841614.846    95067259.544       -2438.649          40.750  
R18  20623863.333   110091568.1471        472.082          50.250    20623866.881    85626962.168         367.163          48.000    20623866.454    85626962.171         367.151          48.250  
R19  22240537.854   118971309.0301       4149.847          45.250    22240538.954    92533341.552        3227.675          42.500    22240538.198    92533343.562        3227.682          43.000  
E11  28436433.328   149435286.763       -2442.002          33.500    28436431.750   111590199.362       -1823.593          35.500    28436429.420   114501247.736       -1871.073          37.000    28436430.342   113629545.296       -1856.880          39.250  
E19  26259377.020   137994557.1781       1831.260          38.250    26259378.833   103047780.569        1367.523          37.500    26259374.974   105736090.131        1403.454          37.750    26259376.508   104931084.893        1392.658          40.500  
E20  39763940.656   208960778.178        -277.754          45.250    39763943.152   156041932.310        -207.427          44.250    39763939.382   160112394.481        -212.750          44.750    39763940.661   158893453.061        -211.146          47.500  
> 2012 12 15 00 30 30.0000000  0 24
G01  25487224.174   133935589.7481      -1067.193          34.500    25487223.701          14.500    25487225.669   104365594.127        -831.611          35.250    25487225.698   104365393.084        -831.603          14.500    25487226.091   100017587.766        -796.833          42.500  
G09  20044753.752   105336051.2091      -1358.621          52.000    20044753.225          45.000                                                                    20044751.997    82079969.080       -1058.666          45.000                                                                  
G12  21121389.084   110993887.2631       2221.958          50.750    21121388.977          42.250    21121387.239    86489115.8011       1731.313          45.250    21121386.855    86488719.8051       1731.394          42.250                                                                  
G14  23721771.838   124659465.7801       3192.032          40.000    23721771.244          21.000                                                                    23721769.030    97137245.1281       2487.299          21.000                                                                  
G15  22612310.186   118828613.285       -3257.755          46.250    22612310.186          34.750    22612308.699    92593379.010       -2538.482          41.750    22612308.432    92594013.023       -2538.515          34.750                                                                  
G17  22648530.496   119018496.1601      -1306.098          46.750    22648530.367          35.250    22648528.382    92742099.215       -1017.681          42.000    22648528.268    92741591.212       -1017.735          35.250                                                                  
G18  23951898.684   125867431.8161      -2312.645          40.000    23951897.960          19.000                                                                    23951896.763    98078513.559       -1802.032          19.000                                                                  
G22  23869566.005   125435390.728        -828.941          40.750    23869564.955          23.750                                                                    23869561.875    97742332.837        -645.925          23.750                                                                  
G24  20211609.212   106212298.493        -135.366          52.250    20211609.305          48.250    20211609.811    82762822.038        -105.484          51.500    20211609.858    82763153.030        -105.476          48.250    20211611.343    79314923.757        -101.072          57.500  
G25  24017754.519   126214390.5021       3472.856          40.000    24017753.885          23.250    24017756.395    98348621.3731       2706.102          38.500    24017755.699    98348584.3551       2706.128          23.250    24017756.343    94251006.586        2593.263          43.250  
G26  25836906.148   135773928.917       -4098.865          33.250    25836905.903           7.750                                                                    25836905.552   105797284.595       -3193.895           7.750                                                                  
R01  24607151.375   131538856.5081       3660.648          36.500    24607154.917   102307999.3231       2846.897          30.500    24607154.929   102307999.3451       2846.667          30.500  
R06  24360715.288   129993038.130       -4467.015          36.750    24360716.021   101105414.746       -3474.231          34.000    24360716.096   101105414.774       -3474.488          33.500  
R07  21631316.060   115794139.4681      -2983.295          46.750    21631317.431    90062084.3221      -2320.310          44.750    21631317.583    90062093.3301      -2320.373          45.500  
R08  21947560.179   117527630.007         639.470          45.500    21947558.520    91410206.590         497.258          41.000    21947556.709    91410218.598         497.379          41.000  
R09  19574552.685   104527462.0411        983.850          52.000    19574554.087    81299141.488         765.212          50.250    19574554.953    81299141.501         765.208          50.750  
R10  22712235.979   121068971.070        3304.700          44.750    22712239.996    94164758.646        2570.213          37.250    22712240.411    94164758.629        2570.171          37.250  
R16  20543910.063   109742020.689       -2270.520          50.500    20543912.956    85354487.700       -1765.872          48.250    20543912.987    85354659.707       -1765.947          47.750  
R17  22859243.736   122323668.7371      -3153.616          43.000    22859244.248    95140634.734       -2452.742          40.500    22859244.375    95140634.746       -2452.853          41.000  
R18  20621290.008   110077829.8521        443.803          49.750    20621293.264    85616276.836         345.215          48.000    20621293.124    85616276.836         345.227          48.750  
R19  22217293.950   118846968.6881       4139.479          46.500    22217294.784    92436632.4091       3219.568          43.500    22217294.758    92436634.4131       3219.618          43.750  
E11  28450396.307   149508663.3491      -2449.997          36.000    28450395.076   111644993.5221      -1829.418          36.000    28450392.446   114557471.306       -1877.126          37.750    28450393.488   113685340.829       -1862.786          40.000  
E19  26248954.417   137939787.0681       1819.891          38.000    26248956.715   103006880.7831       1359.160          37.250    26248953.053   105694123.431        1394.442          38.500    26248954.216   104889437.669        1383.933          41.000  
E20  39765568.987   208969333.858        -292.741          45.000    39765571.082   156048321.260        -218.536          44.250    39765567.084   160118950.102        -224.125          44.500    39765568.824   158899958.775        -222.485          47.250  
> 2012 12 15 00 31  0.0000000  0 24
G01  25493365.436   133967860.0371      -1084.154          36.000    25493364.940          16.250    25493366.379   104390739.7431       -844.793          36.250    25493366.237   104390538.7071       -844.812          16.250    25493366.935   100041685.6661       -809.482          42.750  
G09  20052553.403   105377038.3721      -1373.841          52.000    20052552.885          45.250                                                                    20052551.589    82111907.1221      -1070.522          45.250                                                                  
G12  21108742.144   110927428.120        2208.596          50.500    21108742.033          42.000    21108740.470    86437329.472        1720.972          45.250    21108740.069    86436933.473        1720.984          42.000                                                                  
G14  23703572.014   124563825.034        3184.017          39.750    23703571.464          21.750                                                                    23703569.468    97062719.875        2481.062          21.750                                                                  
G15  22630933.778   118926480.4571      -3266.721          46.500    22630933.782          35.250    22630932.221    92669639.1451      -2545.674          41.750    22630931.988    92670273.1441      -2545.496          35.250                                                                  
G17  22656037.825   119057945.2701      -1323.883          46.500    22656037.714          35.250    22656035.148    92772838.772       -1031.589          41.500    22656035.510    92772330.767       -1031.595          35.250                                                                  
G18  23965129.063   125936957.8641      -2322.279          39.250    23965128.285          17.000                                                                    23965127.283    98132689.675       -1809.564          17.000                                                                  
G22  23874345.698   125460505.628        -845.545          40.750    23874344.710          24.500                                                                    23874341.275    97761902.902        -658.871          24.500                                                                  
G24  20212420.887   106216563.364        -148.948          52.250    20212420.980          48.000    20212421.452    82766145.312        -116.093          51.250    20212421.426    82766476.305        -116.066          48.000    20212422.942    79318108.564        -111.253          57.500  
G25  23997942.646   126110276.8831       3468.176          38.250    23997941.958          21.500    23997943.882    98267493.9091       2702.230          37.500    23997944.653    98267456.9121       2702.457          21.500    23997946.661    94173259.4181       2589.699          46.250  
G26  25860301.844   135896873.730       -4097.350          33.000    25860301.670           3.500                                                                    25860301.126   105893085.793       -3192.533           3.500                                                                  
R01  24586643.108   131429441.4031       3648.146          36.000    24586644.847   102222898.1951       2837.362          31.000    24586646.275   102222898.2131       2837.406          32.000  
R06  24385822.384   130127018.894       -4464.860          36.250    24385824.737   101209621.986       -3472.815          34.250    24385825.696   101209621.960       -3472.759          33.750  
R07  21648088.442   115883920.293       -3002.057          47.000    21648089.711    90131913.829       -2334.982          44.250    21648089.315    90131922.836       -2334.916          45.500  
R08  21944052.614   117508845.133         612.891          45.250    21944050.395    91395596.122         476.678          40.750    21944048.708    91395608.127         476.477          41.000  
R09  19569062.513   104498145.9591        970.540          52.000    19569064.074    81276340.095         754.832          50.000    19569065.021    81276340.108         754.840          50.750  
R10  22693645.999   120969878.1661       3301.635          43.750    22693651.155    94087686.3901       2568.063          37.000    22693650.807    94087686.3971       2567.822          37.750  
R16  20556690.593   109810293.042       -2280.895          50.500    20556693.412    85407588.406       -1774.089          47.750    20556693.827    85407760.416       -1774.094          47.750  
R17  22876975.033   122418550.3221      -3171.626          42.000    22876974.909    95214431.532       -2466.904          41.000    22876975.718    95214431.539       -2466.842          41.500  
R18  20618875.240   110064939.5291        415.558          50.250    20618878.228    85606251.053         323.223          48.000    20618878.318    85606251.053         323.233          48.750  
R19  22194107.608   118722940.4811       4129.027          45.250    22194108.676    92340166.047        3211.378          43.000    22194108.469    92340168.063        3211.435          43.500  
E11  28464404.811   149582277.818       -2457.876          35.750    28464403.972   111699965.342       -1835.389          36.250    28464400.582   114613877.178       -1883.478          36.250    28464401.740   113741317.287       -1869.048          39.250  
E19  26238597.260   137885359.8351       1808.533          39.500    26238599.387   102966237.0691       1350.559          38.000    26238595.890   105652419.433        1385.863          39.000    26238597.075   104848051.172        1375.264          41.500  
E20  39767282.066   208978336.302        -307.479          45.250    39767284.223   156055043.836        -229.598          44.250    39767280.731   160125848.056        -235.555          44.750    39767281.916   158906804.211        -233.762          47.500  
> 2012 12 15 00 31 30.0000000  0 24
G01  25499604.098   134000646.3751      -1101.614          33.250    25499603.593          13.250    25499605.189   104416287.546        -858.301          34.000    25499605.184   104416086.573        -858.401          13.250    25499605.595   100066169.000        -822.597          40.750  
G09  20060440.291   105418484.5521      -1389.209          52.000    20060439.768          45.000                                                                    20060438.534    82144202.837       -1082.494          45.000                                                                  
G12  21096172.077   110861371.502        2195.146          50.250    21096171.966          42.250    21096170.385    86385856.799        1710.598          45.250    21096169.887    86385460.806        1710.502          42.250                                                                  
G14  23685417.931   124468426.4241       3175.889          39.750    23685417.359          22.250                                                                    23685415.512    96988383.3091       2474.710          22.250                                                                  
G15  22649608.938   119024618.552       -3275.770          46.000    22649608.955          34.750    22649607.257    92746110.400       -2552.658          41.250    22649606.897    92746744.393       -2552.548          34.750                                                                  
G17  22663645.614   119097927.0761      -1341.546          46.750    22663645.516          35.000    22663643.523    92803993.432       -1045.219          41.250    22663643.386    92803485.432       -1045.363          35.000                                                                  
G18  23978414.989   126006772.3361      -2331.875          39.000    23978414.194          18.500                                                                    23978412.447    98187090.5131      -1817.032          18.500                                                                  
G22  23879219.653   125486118.4951       -862.085          40.750    23879218.706          24.250                                                                    23879215.205    97781860.9451       -671.753          24.250                                                                  
G24  20213310.311   106221237.5011       -162.603          52.250    20213310.404          48.250    20213310.935    82769787.4841       -126.720          51.250    20213310.926    82770118.4771       -126.704          48.250    20213312.429    79321598.9761       -121.410          57.750  
G25  23978159.039   126006313.6101       3463.003          40.250    23978158.467          22.000    23978160.470    98186483.5201       2698.397          36.500    23978159.387    98186446.5181       2698.444          22.000    23978162.016    94095624.5281       2586.076          45.000  
G26  25883689.064   136019778.663       -4096.008          30.000    25883688.568           4.250                                                                    25883689.197   105988855.738       -3191.801           4.250                                                                  
R01  24566204.903   131320181.9091       3635.485          36.000    24566206.061   102137918.5951       2827.817          31.000    24566207.445   102137918.6301       2827.395          30.250  
R06  24410919.974   130260937.417       -4462.816          37.250    24410922.813   101313780.755       -3471.131          32.500    24410921.954   101313780.704       -3470.891          31.500  
R07  21664965.662   115974264.513       -3020.917          47.000    21664966.577    90202181.535       -2349.569          44.750    21664966.359    90202190.532       -2349.567          44.750  
R08  21940694.121   117490861.068         586.091          45.750    21940691.772    91381608.459         455.877          40.500    21940690.036    91381620.466         455.921          40.750  
R09  19563647.347   104469227.7591        957.315          52.250    19563648.543    81253848.1571        744.632          50.000    19563649.399    81253848.1711        744.566          50.750  
R10  22675074.679   120870882.671        3298.238          44.250    22675080.404    94010689.889        2565.466          37.000    22675079.202    94010689.913        2565.382          37.500  
R16  20569530.502   109878878.209       -2291.409          51.000    20569532.968    85460932.405       -1782.219          47.750    20569533.068    85461104.405       -1782.153          47.750  
R17  22894807.394   122513970.2541      -3189.602          43.500    22894806.672    95288647.011       -2480.919          40.500    22894806.424    95288646.991       -2480.695          40.750  
R18  20616619.029   110052897.6321        387.183          49.750    20616622.205    85596885.1511        301.165          48.000    20616622.300    85596885.1501        301.187          48.500  
R19  22170981.164   118599229.0651       4118.423          45.750    22170982.538    92243946.0671       3203.169          42.750    22170981.769    92243948.0721       3203.224          43.750  
E11  28478458.224   149656128.400       -2465.610          35.250    28478457.400   111755113.424       -1841.209          37.250    28478454.096   114670463.926       -1889.332          38.000    28478455.250   113797473.224       -1874.889          40.500  
E19  26228305.763   137831277.0001       1796.805          39.000    26228307.755   102925850.5201       1341.797          38.000    26228303.972   105610979.319        1376.986          38.500    26228305.416   104806926.542        1366.404          41.250  
E20  39769080.171   208987785.2201       -322.550          44.500    39769082.598   156062099.8111       -240.683          44.500    39769078.985   160133088.116        -247.045          44.750    39769080.045   158913989.144        -245.094          47.750  
> 2012 12 15 00 32  0.0000000  0 24
G01  25505941.412   134033947.5921      -1118.563          32.500    25505940.822          13.500    25505942.643   104442236.490        -871.610          34.500    25505941.987   104442035.492        -871.575          13.500    25505942.975   100091036.7231       -835.253          40.250  
G09  20068414.604   105460389.2891      -1404.439          52.000    20068414.086          45.000                                                                    20068412.765    82176855.868       -1094.366          45.000                                                                  
G12  21083678.903   110795718.754        2181.706          50.500    21083678.796          42.500    21083676.822    86334698.831        1699.994          45.500    21083676.607    86334302.835        1700.032          42.500                                                                  
G14  23667311.276   124373272.555        3167.776          40.250    23667310.704          22.000                                                                    23667308.227    96914237.418        2468.393          22.000                                                                  
G15  22668334.915   119123025.094       -3284.608          46.250    22668334.950          34.750    22668333.335    92822790.811       -2559.476          41.750    22668333.199    92823424.809       -2559.438          34.750                                                                  
G17  22671355.146   119138440.0031      -1359.240          46.750    22671355.044          35.000    22671352.482    92835561.946       -1059.085          42.000    22671352.964    92835053.946       -1059.146          35.000                                                                  
G18  23991754.758   126076872.5901      -2341.285          38.750    23991753.945          18.250                                                                    23991752.343    98241714.040       -1824.394          18.250                                                                  
G22  23884188.012   125512228.040        -878.562          40.750    23884187.105          24.250                                                                    23884183.830    97802205.994        -684.588          24.250                                                                  
G24  20214277.664   106226320.921        -176.248          52.000    20214277.757          48.250    20214278.167    82773748.583        -137.347          51.250    20214278.299    82774079.576        -137.336          48.250    20214279.766    79325395.030        -131.634          57.750  
G25  23958403.918   125902501.902        3457.931          37.750    23958403.386          22.750    23958406.380    98105591.334        2694.301          38.750    23958405.771    98105554.309        2694.482          22.750    23958407.027    94018102.7631       2582.217          44.500  
G26  25907070.153   136142641.473       -4094.952          31.000    25907069.621           4.000                                                                    25907069.223   106084593.104       -3190.927           4.000                                                                  
R01  24545834.890   131211296.5711       3623.081          37.000    24545837.945   102053229.9661       2817.902          32.250    24545838.060   102053229.9371       2818.486          32.500  
R06  24436003.539   130394789.747       -4460.594          33.500    24436005.597   101417887.992       -3469.395          32.250                                                                  
R07  21681946.511   116065168.064       -3039.337          46.250    21681948.147    90272884.293       -2363.908          44.750    21681948.164    90272893.303       -2364.007          45.000  
R08  21937485.712   117473678.255         559.452          46.000    21937483.377    91368244.031         435.082          40.500    21937481.446    91368256.026         435.144          40.500  
R09  19558306.311   104440708.0451        944.035          52.000    19558307.855    81231666.166         734.240          50.000    19558308.685    81231666.181         734.215          51.000  
R10  22656521.956   120771985.819        3294.970          43.500    22656527.143    93933770.110        2562.627          37.500    22656526.163    93933770.123        2562.660          37.250  
R16  20582427.888   109947775.599       -2301.803          50.500    20582430.462    85514519.252       -1790.305          47.750    20582430.949    85514691.254       -1790.280          47.750  
R17  22912737.517   122609924.5661      -3207.258          42.500    22912738.795    95363278.141       -2494.662          40.500    22912738.767    95363278.152       -2494.539          41.500  
R18  20614522.380   110041704.8061        358.982          50.000    20614525.392    85588179.635         279.094          47.750    20614525.395    85588179.634         279.168          48.500  
R19  22147914.300   118475838.8021       4107.671          46.000    22147915.833    92147975.890        3194.826          43.500    22147915.687    92147977.889        3194.774          44.250  
E11  28492555.923   149730213.332       -2473.241          33.250    28492555.447   111810436.506       -1847.182          37.250    28492552.505   114727230.240       -1895.197          37.750    28492553.471   113853807.360       -1880.822          40.500  
E19  26218079.620   137777539.9331       1785.541          38.250    26218082.380   102885722.2141       1333.389          38.250    26218078.172   105569804.194        1368.152          38.500    26218079.670   104766064.886        1357.711          41.500  
E20  39770962.966   208997680.227        -337.319          45.250    39770965.732   156069488.919        -251.851          44.750    39770961.972   160140669.990        -258.482          45.000    39770963.041   158921513.293        -256.468          47.750  
> 2012 12 15 00 32 30.0000000  0 24
G01  25512376.304   134067762.8501      -1135.653          32.750    25512375.750          12.750    25512377.637   104468586.0961       -884.792          33.500    25512377.001   104468385.1031       -884.886          12.750    25512377.667   100116288.438        -848.131          39.250  
G09  20076475.935   105502751.8661      -1419.644          52.250    20076475.417          45.000                                                                    20076474.023    82209865.667       -1106.215          45.000                                                                  
G12  21071262.547   110730470.833        2168.218          50.250    21071262.445          42.500    21071260.385    86283856.309        1689.455          45.750    21071260.342    86283460.300        1689.522          42.500                                                                  
G14  23649251.021   124278365.6651       3159.363          39.750    23649250.503          22.250                                                                    23649248.184    96840283.9971       2461.834          22.250                                                                  
G15  22687111.689   119221697.831       -3293.450          46.250    22687111.711          34.500    22687110.118    92899678.642       -2566.328          42.000    22687109.966    92900312.654       -2566.322          34.500                                                                  
G17  22679165.291   119179482.6121      -1376.844          46.500    22679165.207          34.750    22679163.281    92867543.196       -1072.887          41.250    22679162.822    92867035.203       -1072.870          34.750                                                                  
G18  24005148.167   126147255.6241      -2350.712          38.750    24005147.389          18.000                                                                    24005145.886    98296557.915       -1831.737          18.000                                                                  
G22  23889250.892   125538833.134        -894.991          40.750    23889249.936          24.250                                                                    23889246.507    97822937.228        -697.395          24.250                                                                  
G24  20215323.036   106231814.231        -189.885          52.000    20215323.129          48.250    20215323.431    82778029.085        -147.984          51.500    20215323.666    82778360.075        -147.961          48.250    20215325.084    79329497.176        -141.822          57.750  
G25  23938678.479   125798843.1681       3452.734          40.500    23938677.921          22.500    23938679.945    98024818.2671       2690.309          37.000    23938679.785    98024781.2671       2690.438          22.500    23938682.964    93940695.287        2578.281          46.500  
G26  25930441.326   136265460.428       -4093.260          30.750    25930440.790           5.250                                                                    25930440.887   106180296.166       -3189.652           5.250                                                                  
R01  24525535.532   131102789.0971       3610.595          36.000    24525538.217   101968835.2941       2808.647          31.750    24525539.294   101968835.2911       2808.061          31.000  
R06  24461073.154   130529257.0051      -4458.027          30.250    24461074.064   101522754.5401      -3467.611          28.500                                                                  
R07  21699032.051   116156626.957       -3057.822          46.500    21699033.143    90344018.971       -2378.391          45.500    21699033.836    90344027.971       -2378.382          45.500  
R08  21934426.615   117457297.9801        532.608          46.500    21934425.076    91355503.7861        414.450          40.500    21934422.744    91355515.7941        414.393          40.750  
R09  19553040.480   104412587.5651        930.702          52.000    19553041.616    81209794.686         723.825          50.000    19553042.549    81209794.697         723.861          50.500  
R10  22637987.531   120673187.9921       3291.632          45.000    22637992.703    93856927.3211       2560.306          38.500    22637993.112    93856927.3181       2560.002          38.250  
R16  20595383.669   110016984.362       -2312.043          50.250    20595386.503    85568348.277       -1798.259          47.750    20595387.189    85568520.285       -1798.284          47.750  
R17  22930768.948   122706409.4811      -3224.928          42.500    22930769.000    95438321.929       -2508.214          40.000    22930768.362    95438321.944       -2508.317          40.500  
R18  20612584.858   110031361.7761        330.661          50.000    20612587.865    85580135.066         257.163          47.750    20612587.890    85580135.069         257.166          48.500  
R19  22124908.840   118352773.9691       4096.712          45.500    22124909.777    92052258.7951       3186.278          43.250    22124909.730    92052260.8031       3186.396          43.500  
E11  28506697.987   149804531.161       -2481.097          33.500    28506698.326   111865933.559       -1852.759          37.250    28506694.530   114784175.019       -1901.216          37.000    28506695.487   113910318.631       -1886.649          40.000  
E19  26207919.880   137724150.0611       1773.973          38.500    26207922.316   102845853.1691       1324.700          38.250    26207918.502   105528895.080        1359.191          39.000    26207919.817   104725467.215        1348.911          41.750  
E20  39772930.783   209008021.006        -352.040          44.750    39772933.331   156077210.920        -263.015          44.250    39772929.535   160148593.417        -269.809          44.750    39772930.823   158929376.409        -267.802          47.500  
> 2012 12 15 00 33  0.0000000  0 24
G01  25518908.233   134102090.2901      -1152.688          31.500    25518907.625          10.500    25518909.744   104495334.791        -898.500          30.750    25518909.326   104495133.763        -898.241          10.500    25518910.041   100141922.578        -860.906          38.250  
G09  20084624.160   105545571.6271      -1434.938          52.000    20084623.642          45.000                                                                    20084622.361    82243231.717       -1118.136          45.000                                                                  
G12  21058923.328   110665628.4381       2154.664          50.500    21058923.226          42.500    21058921.414    86233329.7661       1679.001          45.500    21058921.190    86232933.7681       1678.961          42.500                                                                  
G14  23631238.264   124183708.323        3151.184          40.000    23631237.759          22.250                                                                    23631235.406    96766525.023        2455.475          22.250                                                                  
G15  22705938.573   119320634.324       -3302.221          46.500    22705938.586          34.500    22705937.263    92976772.017       -2573.187          42.000    22705937.031    92977406.019       -2573.159          34.500                                                                  
G17  22687075.962   119221053.5381      -1394.473          46.250    22687075.895          34.750    22687073.238    92899936.122       -1086.495          42.000    22687073.565    92899428.134       -1086.600          34.750                                                                  
G18  24018594.601   126217918.7631      -2360.106          39.250    24018593.779          18.750                                                                    24018592.507    98351620.096       -1839.075          18.750                                                                  
G22  23894407.971   125565932.301        -911.474          41.000    23894407.032          23.750                                                                    23894403.160    97844053.450        -710.227          23.750                                                                  
G24  20216446.464   106237718.007        -203.621          52.500    20216446.557          48.250    20216447.011    82782629.424        -158.650          51.500    20216447.112    82782960.417        -158.667          48.250    20216448.583    79333905.834        -152.038          57.750  
G25  23918982.349   125695338.648        3447.523          38.500    23918981.777          22.250    23918984.030    97944165.395        2686.532          38.500    23918983.369    97944128.376        2686.371          22.250    23918984.545    93863402.9781       2574.542          44.500  
G26  25953804.864   136388233.5091      -4091.943          28.500    25953804.207           4.500                                                                    25953803.738   106276828.4991      -3188.496           4.500                                                                  
R01  24505309.170   130994663.8841       3598.003          35.250    24505312.097   101884737.9611       2798.457          31.500    24505312.066   101884737.9951       2798.804          30.500  
R06  24486131.325   130661932.3551      -4455.849          28.250    24486133.691   101625947.3561      -3465.591          30.000                                                                  
R07  21716220.105   116248636.735       -3076.055          46.500    21716222.064    90415582.095       -2392.524          44.500    21716221.456    90415591.099       -2392.548          44.750  
R08  21931517.822   117441720.978         505.880          45.750    21931515.724    91343388.338         393.445          41.000    21931513.941    91343400.340         393.433          41.000  
R09  19547849.328   104384867.1481        917.302          51.750    19547850.644    81188234.359         713.467          50.000    19547851.353    81188234.370         713.478          50.500  
R10  22619472.328   120574490.577        3288.230          44.750    22619477.622    93780162.724        2557.329          37.250    22619476.851    93780162.732        2557.594          37.250  
R16  20608397.962   110086503.483       -2322.429          50.250    20608400.541    85622418.675       -1806.335          47.500    20608400.997    85622590.682       -1806.385          47.500  
R17  22948898.151   122803420.9921      -3242.460          42.750    22948898.585    95513775.337       -2521.829          40.500    22948898.118    95513775.359       -2521.929          41.250  
R18  20610806.172   110021868.9351        302.232          50.000    20610809.616    85572751.751         235.040          48.000    20610809.615    85572751.754         235.058          48.500  
R19  22101964.959   118230039.1711       4085.569          46.000    22101965.915    91956798.407        3177.754          44.250    22101966.219    91956800.415        3177.729          44.500  
E11  28520884.622   149879080.017       -2488.587          34.000    28520884.222   111921603.117       -1858.377          37.500    28520880.430   114841296.854       -1906.949          36.750    28520881.843   113967005.582       -1892.389          40.000  
E19  26197826.704   137671108.7941       1762.235          38.000    26197828.970   102806244.413        1315.960          38.250    26197825.491   105488253.052        1350.347          38.750    26197826.260   104685134.598        1340.031          41.500  
E20  39774983.403   209018807.193        -366.941          44.500    39774985.793   156085265.488        -273.998          44.500    39774982.126   160156858.112        -281.185          45.000    39774983.342   158937578.179        -279.031          47.750  
> 2012 12 15 00 33 30.0000000  0 24
G01  25525538.165   134136929.0001      -1170.078          30.250    25525537.378           7.000    25525538.501   104522481.708        -911.292          28.750    25525539.011   104522280.736        -911.813           7.000    25525540.022   100167938.388        -873.501          36.000  
G09  20092859.494   105588848.2551      -1450.173          52.500    20092858.980          45.000                                                                    20092857.596    82276953.758       -1130.004          45.000                                                                  
G12  21046661.634   110601192.691        2141.028          50.250    21046661.541          42.500    21046659.657    86183120.124        1668.339          45.750    21046659.474    86182724.123        1668.332          42.500                                                                  
G14  23613273.499   124089303.2341       3142.717          39.750    23613273.061          22.500                                                                    23613270.971    96692962.6081       2448.877          22.500                                                                  
G15  22724815.438   119419832.472       -3311.000          46.250    22724815.455          34.500    22724814.379    93054069.271       -2579.997          41.250    22724813.807    93054703.275       -2579.995          34.500                                                                  
G17  22695086.908   119263151.2891      -1412.088          46.250    22695086.832          34.750    22695085.163    92932739.573       -1100.347          41.250    22695084.692    92932231.565       -1100.329          34.750                                                                  
G18  24032094.705   126288859.5291      -2369.344          38.250    24032093.883          18.000                                                                    24032092.111    98406898.568       -1846.243          18.000                                                                  
G22  23899658.417   125593524.037        -927.944          42.000    23899657.429          24.500                                                                    23899653.829    97865553.492        -723.075          24.500                                                                  
G24  20217648.011   106244031.934        -217.357          52.000    20217648.104          48.250    20217648.485    82787549.375        -169.381          51.500    20217648.579    82787880.363        -169.367          48.250    20217650.046    79338620.787        -162.273          57.750  
G25  23899315.542   125591989.6621       3442.310          39.750    23899314.984          24.250    23899317.797    97863633.7471       2682.282          38.250    23899318.045    97863596.7621       2682.321          24.250    23899319.159    93786226.752        2570.627          45.750  
G26  25977158.804   136510959.4171      -4089.794          31.000    25977158.062           5.000                                                                    25977157.690   106372459.0141      -3186.879           5.000                                                                  
R01  24485154.008   130886924.5741       3584.972          34.750    24485156.547   101800940.7091       2788.286          30.000    24485156.898   101800940.7491       2788.217          29.750  
R06  24511175.187   130795978.4491      -4453.206          29.000    24511176.412   101730205.0071      -3463.201          28.500                                                                  
R07  21733510.339   116341193.101       -3094.205          46.750    21733512.420    90487570.372       -2406.605          45.000    21733512.080    90487579.375       -2406.578          44.750  
R08  21928759.350   117426947.037         479.068          46.250    21928756.484    91331897.462         372.532          41.250    21928755.003    91331909.458         372.683          41.000  
R09  19542733.192   104357547.1901        903.872          51.500    19542734.466    81166985.508         703.046          50.000    19542735.263    81166985.520         703.110          50.750  
R10  22600975.820   120475894.5721       3284.705          44.000    22600980.384    93703476.9431       2554.892          35.250    22600979.359    93703476.9541       2554.958          36.750  
R16  20621470.372   110156332.403       -2332.776          50.500    20621472.649    85676730.042       -1814.401          47.750    20621473.173    85676902.045       -1814.379          47.500  
R17  22967124.117   122900955.2611      -3259.891          42.500    22967124.420    95589635.3131      -2535.418          40.250    22967124.590    95589635.3211      -2535.451          40.750  
R18  20609187.513   110013226.9431        273.855          50.250    20609190.535    85566030.2101        213.063          48.000    20609190.750    85566030.2131        213.077          48.500  
R19  22079083.353   118107638.7661       4074.297          45.750    22079084.328    91861598.1201       3168.978          43.000    22079084.046    91861600.1051       3169.061          43.250  
E11  28535114.488   149953858.105       -2496.233          35.250    28535114.370   111977443.856       -1864.332          37.250    28535110.426   114898594.275       -1912.556          36.250    28535111.629   114023866.812       -1898.199          39.750  
E19  26187799.587   137618417.5711       1750.514          38.250    26187801.902   102766897.0911       1307.309          37.750    26187798.003   105447879.262        1341.477          38.500    26187799.438   104645068.177        1331.302          41.250  
E20  39777120.742   209030038.397        -381.777          44.750    39777123.112   156093652.398        -285.104          44.250    39777119.477   160165463.814        -292.585          45.000    39777120.617   158946118.367        -290.347          47.750  
> 2012 12 15 00 34  0.0000000  0 22
G01  25532265.151   134173430.7421      -1186.709          28.250    25532264.002           2.000    25532265.064   104550026.3371       -925.064          28.250    25532265.758   104550724.5021       -924.892           2.000    25532266.429   100194335.2991       -886.288          35.500  
G09  20101181.529   105632580.8751      -1465.309          51.750    20101181.011          45.000                                                                    20101179.662    82311031.116       -1141.800          45.000                                                                  
G12  21034477.255   110537164.181        2127.562          50.750    21034477.157          42.750    21034475.442    86133227.797        1657.761          45.500    21034475.259    86132831.799        1657.840          42.750                                                                  
G14  23595357.253   123995153.053        3133.930          41.000    23595356.815          22.750                                                                    23595354.606    96619598.808        2442.025          22.750                                                                  
G15  22743741.555   119519289.930       -3319.548          46.000    22743741.551          34.250    22743739.709    93131568.583       -2586.665          41.250    22743739.833    93132202.590       -2586.659          34.250                                                                  
G17  22703197.756   119305774.357       -1429.464          46.500    22703197.694          34.750    22703195.593    92965952.342       -1113.942          41.000    22703195.187    92965444.342       -1113.869          34.750                                                                  
G18  24045645.964   126360074.9251      -2378.320          38.750    24045645.209          18.000                                                                    24045644.558    98462391.055       -1853.254          18.000                                                                  
G22  23905002.309   125621606.5411       -944.337          40.500    23905001.321          24.250                                                                    23904997.605    97887435.9211       -735.846          24.250                                                                  
G24  20218927.579   106250756.466        -230.991          52.500    20218927.672          48.250    20218928.129    82792789.266        -180.016          51.250    20218928.196    82793120.259        -179.991          48.250    20218929.685    79343642.351        -172.507          57.750  
G25  23879678.625   125488797.480        3437.164          38.750    23879678.049          21.500    23879680.384    97783224.256        2678.152          36.750    23879679.578    97783187.233        2678.319          21.500    23879682.677    93709167.7111       2566.668          46.250  
R01  24465072.706   130780551.1051       3571.999          36.500    24465073.939   101718206.8201       2778.117          28.250    24465073.983   101718206.8251       2778.062          28.750  
R07  21750902.360   116434292.278       -3112.266          47.000    21750903.581    90559980.832       -2420.638          44.500    21750903.745    90559989.832       -2420.612          45.000  
R08  21926150.981   117412976.661         452.376          46.500    21926148.163    91321031.600         351.775          40.750    21926146.111    91321043.612         351.685          41.000  
R09  19537691.883   104330628.4371        890.632          51.750    19537693.589    81146048.704         692.702          50.250    19537694.286    81146048.720         692.678          50.750  
R10  22582499.036   120377400.576        3281.495          44.500    22582504.694    93626870.600        2552.125          38.000    22582503.616    93626870.591        2552.264          38.500  
R16  20634599.672   110226469.9241      -2343.027          49.750    20634602.566    85731281.4281      -1822.427          48.000    20634603.198    85731453.4361      -1822.421          47.750  
R17  22985447.554   122999008.096       -3276.989          42.250    22985447.517    95665898.607       -2548.638          40.750    22985448.208    95665898.607       -2548.881          41.000  
R18  20607727.920   110005435.8961        245.493          50.250    20607730.855    85559970.527         190.984          48.250    20607731.257    85559970.529         190.941          48.750  
R19  22056265.576   117985577.1501       4063.087          46.250    22056266.595    91766661.320        3160.136          44.250    22056266.165    91766663.321        3160.239          44.500  
E11  28549388.393   150028863.845       -2503.700          36.250    28549387.431   112033454.571       -1869.748          38.250    28549383.626   114956066.194       -1918.524          37.000    28549384.882   114080901.169       -1903.939          40.500  
E19  26177840.096   137566077.7781       1738.784          39.250    26177842.105   102727812.1711       1298.354          38.500    26177838.765   105407774.765        1332.139          39.250    26177839.690   104605268.987        1322.048          42.000  
E20  39779342.539   209041714.1911       -396.478          44.750    39779344.650   156102371.3101       -296.189          44.250    39779341.538   160174410.177        -303.869          44.750    39779342.445   158954996.620        -301.589          47.500  
> 2012 12 15 00 34 30.0000000  0 22
G09  20109590.276   105676768.8581      -1480.514          52.000    20109589.758          44.750                                                                    20109588.423    82345463.299       -1153.646          44.750                                                                  
G12  21022370.855   110473543.678        2113.876          50.750    21022370.762          42.500    21022368.760    86083653.394        1647.097          45.750    21022368.632    86083257.393        1647.177          42.500                                                                  
G14  23577490.216   123901259.7891       3125.452          40.250    23577489.769          23.000                                                                    23577487.406    96546435.1981       2435.424          23.000                                                                  
G15  22762716.578   119619004.356       -3328.072          46.250    22762716.586          34.000    22762715.110    93209268.132       -2593.184          41.500    22762714.900    93209902.135       -2593.304          34.000                                                                  
G17  22711408.301   119348921.3651      -1446.968          46.500    22711408.234          34.750    22711406.013    92999573.3731      -1127.499          41.750    22711406.222    92999065.3751      -1127.508          34.750                                                                  
G18  24059249.889   126431562.3731      -2387.289          38.500    24059249.147          16.500                                                                    24059247.953    98518095.544       -1860.232          16.500                                                                  
G22  23910439.403   125650178.684        -960.539          41.250    23910438.433          24.000                                                                    23910434.750    97909699.851        -748.475          24.000                                                                  
G24  20220285.380   106257891.854        -244.686          52.500    20220285.473          48.000    20220285.855    82798349.309        -190.662          51.500    20220286.005    82798680.296        -190.664          48.000    20220287.494    79348970.724        -182.712          57.750  
G25  23860071.845   125385763.3861       3431.828          40.000    23860071.287          24.500    23860074.193    97702937.9471       2674.139          39.500    23860073.646    97702900.9351       2674.149          24.500    23860074.200    93632226.649        2562.735          44.500  
G26  26023837.939   136756156.6951      -4086.959          28.000    26023837.135           2.500                                                                    26023837.087   106563238.7521      -3184.585           2.500                                                                  
R01  24445062.622   130672425.5131       3558.502          34.500    24445066.428   101634109.1991       2767.672          28.000    24445066.392   101634109.1871       2767.574          28.500  
R07  21768395.224   116527929.822       -3130.242          47.250    21768396.340    90632810.014       -2434.632          43.750    21768395.248    90632819.027       -2434.676          44.500  
R08  21923691.417   117399810.5621        425.437          45.500    21923688.871    91310791.2671        330.981          40.500    21923687.143    91310803.2901        330.964          41.000  
R09  19532726.454   104304111.6551        877.226          51.750    19532727.829    81125424.555         682.259          50.250    19532728.491    81125424.568         682.256          50.750  
R10  22564040.580   120279009.9591       3278.016          44.500    22564046.272    93550344.5981       2549.438          38.000    22564045.277    93550344.5741       2549.680          38.250  
R16  20647788.051   110296915.565       -2353.293          50.500    20647789.907    85786072.449       -1830.423          47.500    20647790.827    85786244.452       -1830.263          47.750  
R17  23003866.371   123097575.9411      -3294.143          41.500    23003866.881    95742562.481       -2562.031          40.250    23003867.591    95742562.469       -2562.039          40.000  
R18  20606427.986   109998496.4851        217.133          50.000    20606430.959    85554573.216         168.901          48.250    20606431.195    85554573.220         168.890          48.500  
R19  22033511.171   117863858.7501       4051.540          46.000    22033512.740    91671991.4531       3151.200          42.750    22033511.790    91671993.4711       3151.175          43.500  
E11  28563704.106   150104095.4611      -2511.357          36.250    28563703.393   112089633.9851      -1875.309          37.250    28563699.333   115013711.141       -1924.062          36.500    28563701.006   114138107.271       -1909.542          40.000  
E19  26167947.311   137514090.7441       1727.177          39.250    26167949.593   102688990.7021       1289.617          38.500    26167946.387   105367940.556        1323.324          39.500    26167946.932   104565738.039        1313.204          42.000  
E20  39781648.906   209053834.170        -411.314          44.750    39781651.211   156111421.891        -307.247          44.000    39781647.875   160183696.867        -315.154          45.000    39781648.846   158964212.604        -312.781          47.500  
> 2012 12 15 00 35  0.0000000  0 22
G09  20118085.400   105721411.6491      -1495.597          51.750    20118084.886          45.000                                                                    20118083.625    82380249.8761      -1165.400          45.000                                                                  
G12  21010341.917   110410332.2051       2100.251          50.750    21010341.810          42.750    21010340.052    86034397.7281       1636.586          45.500    21010339.869    86034001.7291       1636.562          42.750                                                                  
G14  23559672.193   123807626.230        3116.789          40.250    23559671.724          22.500                                                                    23559669.609    96473473.965        2428.674          22.500                                                                  
G15  22781740.284   119718973.422       -3336.437          45.500    22781740.276          34.000    22781738.449    93287166.107       -2599.966          41.250    22781738.363    93287800.107       -2599.820          34.000                                                                  
G17  22719718.222   119392590.7171      -1464.211          46.250    22719718.151          34.750    22719716.323    93033601.440       -1140.992          40.750    22719716.102    93033093.436       -1140.945          34.750                                                                  
G18  24072904.711   126503319.0431      -2396.258          38.500    24072903.996          17.000                                                                    24072902.500    98574009.840       -1867.237          17.000                                                                  
G22  23915969.147   125679238.928        -976.775          41.250    23915968.115          24.500                                                                    23915964.698    97932344.127        -761.122          24.500                                                                  
G24  20221721.563   106265438.926        -258.362          52.250    20221721.652          48.250    20221722.162    82804230.133        -201.358          51.000    20221722.223    82804561.122        -201.321          48.250    20221723.667    79354606.512        -192.968          57.750  
G25  23840495.560   125282888.678        3426.533          39.250    23840495.051          22.250    23840498.046    97622775.837        2670.005          35.250    23840497.687    97622738.873        2670.022          22.250    23840499.637    93555404.6271       2558.795          46.500  
G26  26047163.806   136879413.2821      -4084.550          28.750    26047163.274           2.000                                                                    26047161.411   106659283.0791      -3182.641           2.000                                                                  
R01  24425130.379   130565867.5761       3545.250          35.500    24425130.633   101551230.8081       2757.526          31.000    24425132.516   101551230.7931       2757.582          31.500  
R07  21785986.648   116622101.4711      -3147.962          46.750    21785988.347    90706054.6391      -2448.352          44.750    21785988.543    90706063.6451      -2448.386          45.500  
R08  21921382.795   117387449.243         398.733          45.750    21921380.679    91301176.885         310.160          40.750    21921378.677    91301188.879         310.087          40.750  
R09  19527836.176   104277997.4061        863.832          51.500    19527837.524    81105113.469         671.815          50.250    19527838.074    81105113.484         671.836          50.750  
R10  22545601.974   120180723.730        3274.498          45.750    22545607.544    93473899.723        2546.632          37.000    22545606.765    93473899.700        2546.911          37.500  
R16  20661032.628   110367668.527       -2363.430          49.750    20661035.429    85841102.509       -1838.244          47.750    20661035.773    85841274.513       -1838.269          47.750  
R17  23022381.346   123196654.5501      -3310.892          41.000    23022382.799    95819623.619       -2575.330          39.500    23022382.442    95819623.637       -2575.348          40.000  
R18  20605287.640   109992408.7921        188.819          50.000    20605290.540    85549838.360         146.767          48.250    20605290.533    85549838.364         146.749          48.750  
R19  22010822.280   117742488.1561       4039.904          46.000    22010823.330    91577592.132        3142.126          44.000    22010823.699    91577594.133        3142.107          44.500  
E11  28578062.492   150179551.250       -2518.937          35.500    28578062.404   112145980.787       -1881.033          37.000    28578058.496   115071527.880       -1930.184          37.000    28578059.784   114195483.837       -1915.422          40.000  
E19  26158121.970   137462457.8971       1715.222          39.500    26158123.868   102650433.6851       1280.742          37.750    26158120.000   105328377.694        1314.323          38.500    26158121.409   104526476.373        1304.272          41.250  
E20  39784039.591   209066397.937        -426.138          44.750    39784041.839   156120803.896        -318.262          44.000    39784038.678   160193323.615        -326.556          45.000    39784039.635   158973766.065        -324.062          47.500  
> 2012 12 15 00 35 30.0000000  0 22
G09  20126667.153   105766508.6321      -1510.801          52.000    20126666.635          44.750                                                                    20126665.335    82415390.369       -1177.248          44.750                                                                  
G12  20998391.412   110347530.434        2086.587          50.500    20998391.296          43.000    20998389.405    85985461.291        1625.935          45.750    20998389.050    85985065.290        1625.909          43.000                                                                  
G14  23541904.686   123714254.9581       3107.840          40.500    23541904.204          23.250                                                                    23541901.415    96400717.1011       2421.698          23.250                                                                  
G15  22800811.810   119819194.876       -3344.861          45.500    22800811.797          33.500    22800810.228    93365260.734       -2606.528          41.500    22800809.967    93365894.734       -2606.388          33.500                                                                  
G17  22728127.515   119436780.7931      -1481.664          46.500    22728127.448          34.750    22728125.201    93068035.266       -1154.509          41.750    22728125.310    93067527.268       -1154.543          34.750                                                                  
G18  24086609.880   126575341.9161      -2405.322          38.000    24086609.223          17.000                                                                    24086607.706    98630131.5301      -1874.279          17.000                                                                  
G22  23921592.327   125708786.023        -993.117          41.000    23921591.290          24.250                                                                    23921587.701    97955367.819        -773.864          24.250                                                                  
G24  20223236.072   106273397.598        -272.154          52.250    20223236.161          48.250    20223236.612    82810431.688        -212.067          51.500    20223236.685    82810762.677        -212.066          48.250    20223238.183    79360549.6681       -203.231          57.750  
G25  23820949.769   125180174.6631       3421.061          40.750    23820949.278          23.750    23820951.803    97542738.9471       2665.760          38.250    23820950.579    97542701.9361       2665.757          23.750    23820952.480    93478702.645        2554.662          45.250  
G26  26070478.852   137001930.1341      -4083.040          28.500    26070478.410           3.750                                                                    26070475.534   106754750.6581      -3181.513           3.750                                                                  
R01  24405270.521   130459711.6671       3531.785          36.750    24405273.710   101468665.1641       2746.759          30.500                                                                  
R07  21803677.918   116716803.279       -3165.398          46.750    21803679.016    90779711.595       -2462.093          44.250    21803678.993    90779720.592       -2462.046          44.750  
R08  21919225.031   117375893.451         371.879          46.250    21919224.302    91292189.020         289.107          40.500    21919221.316    91292201.033         289.099          41.250  
R09  19523021.026   104252286.7071        850.305          51.750    19523022.502    81085116.2571        661.421          50.250    19523023.483    81085116.2721        661.386          50.750  
R10  22527183.967   120082542.6641       3270.978          45.000    22527189.183    93397536.7071       2543.889          38.500    22527189.296    93397536.6971       2543.977          38.500  
R16  20674335.414   110438727.742       -2373.752          50.000    20674338.035    85896370.760       -1846.280          47.750    20674338.184    85896542.769       -1846.280          47.750  
R17  23040992.562   123296240.2201      -3327.967          42.250    23040992.324    95897079.089       -2588.336          40.250    23040993.076    95897079.113       -2588.484          40.750  
R18  20604306.511   109987173.2141        160.274          50.000    20604310.060    85545766.2521        124.684          48.500    20604310.000    85545766.2561        124.637          49.000  
R19  21988199.612   117621469.7561       4028.071          47.000    21988200.199    91483466.721        3132.883          43.750    21988200.249    91483468.722        3133.000          44.000  
E11  28592463.478   150255229.576       -2526.319          36.000    28592463.783   112202493.740       -1886.650          37.750    28592459.915   115129515.102       -1935.779          37.750    28592461.020   114253029.593       -1921.044          40.750  
E19  26148363.563   137411180.5311       1703.229          38.250    26148366.126   102612142.1281       1271.768          37.750    26148362.361   105289087.235        1305.132          38.500    26148363.653   104487485.032        1295.157          41.000  
E20  39786514.904   209079405.058        -440.988          44.750    39786516.958   156130516.978        -329.269          44.250    39786513.739   160203290.085        -337.800          45.000    39786514.812   158983656.660        -335.270          47.500  
> 2012 12 15 00 36  0.0000000  0 21
G09  20135334.871   105812059.1371      -1525.855          52.000    20135334.362          44.500                                                                    20135333.360    82450884.248       -1188.981          44.500                                                                  
G12  20986518.796   110285139.836        2072.923          50.500    20986518.685          43.000    20986516.730    85936845.265        1615.207          45.750    20986516.517    85936449.259        1615.265          43.000                                                                  
G14  23524186.731   123621148.596        3099.115          40.750    23524186.266          23.500                                                                    23524184.190    96328166.677        2414.895          23.500                                                                  
G15  22819930.904   119919666.442       -3353.131          46.000    22819930.900          33.500    22819929.132    93443550.263       -2612.973          41.000    22819929.042    93444184.259       -2612.828          33.500                                                                  
G17  22736635.452   119481490.6061      -1498.926          46.250    22736635.376          34.250    22736633.595    93102874.089       -1168.062          41.000    22736633.260    93102366.076       -1167.995          34.250                                                                  
G18  24100366.045   126647628.3261      -2413.794          38.750    24100365.335          17.000                                                                    24100363.562    98686458.580       -1880.886          17.000                                                                  
G22  23927307.779   125738818.5511      -1009.054          40.250    23927306.782          23.750                                                                    23927302.640    97978769.7421       -786.277          23.750                                                                  
G24  20224828.904   106281768.1841       -285.802          52.000    20224828.993          48.250    20224829.556    82816954.2201       -222.807          51.500    20224829.571    82817285.2071       -222.700          48.250    20224831.024    79366800.427        -213.495          57.500  
G25  23801435.120   125077622.562        3415.873          39.500    23801434.597          23.500    23801436.702    97462828.233        2661.704          37.750    23801436.745    97462791.244        2661.718          23.500    23801437.621    93402121.5101       2550.650          45.250  
R01  24385489.300   130354819.1241       3518.376          37.000    24385491.360   101387081.6801       2736.074          32.250    24385491.372   101387081.6671       2736.339          31.250  
R07  21821467.151   116812030.791       -3182.808          47.250    21821468.482    90853777.430       -2475.638          44.000    21821468.364    90853786.434       -2475.617          45.000  
R08  21917217.112   117365142.403         345.052          45.750    21917215.323    91283827.054         268.361          40.250    21917213.307    91283839.068         268.192          40.500  
R09  19518282.206   104226979.8661        836.862          51.750    19518283.535    81065433.167         650.859          50.500    19518284.220    81065433.181         650.798          50.750  
R10  22508785.090   119984467.779        3267.432          44.750    22508791.014    93321256.249        2541.285          37.000    22508789.562    93321256.244        2541.394          37.750  
R16  20687694.994   110510092.642       -2383.790          49.750    20687697.513    85951876.772       -1854.192          47.750    20687698.113    85952048.782       -1854.158          47.500  
R17  23059696.549   123396328.8481      -3344.601          41.250    23059696.848    95974925.808       -2601.533          40.000    23059696.585    95974925.815       -2601.417          40.250  
R18  20603485.691   109982789.9331        131.965          50.000    20603488.800    85542357.047         102.541          48.500    20603489.024    85542357.050         102.517          48.750  
R19  21965642.399   117500807.6991       4016.076          46.500    21965643.770    91389618.4901       3123.492          44.250    21965643.739    91389620.4821       3123.550          44.250  
E11  28606907.086   150331128.510       -2533.567          34.000    28606906.704   112259171.491       -1892.082          37.750    28606902.867   115187671.384       -1941.336          37.500    28606904.003   114310743.139       -1926.638          40.500  
E19  26138674.010   137360260.1561       1691.255          37.500    26138676.210   102574117.1301       1263.029          38.000    26138672.543   105250070.287        1296.014          38.500    26138673.831   104448765.116        1286.165          41.250  
E20  39789074.494   209092855.0231       -455.637          44.500    39789076.426   156140560.7661       -340.228          44.000    39789073.108   160213595.892        -349.127          44.750    39789074.252   158993884.004        -346.460          47.500  
> 2012 12 15 00 36 30.0000000  0 21
G09  20144089.295   105858062.5051      -1540.945          51.750    20144088.786          44.750                                                                    20144087.505    82486731.019       -1200.739          44.750                                                                  
G12  20974724.369   110223160.917        2059.164          50.500    20974724.267          43.000    20974722.694    85888550.021        1604.504          46.250    20974722.317    85888154.017        1604.544          43.000                                                                  
G14  23506520.218   123528309.397        3090.274          40.250    23506519.803          22.750                                                                    23506517.511    96255824.423        2408.010          22.750                                                                  
G15  22839097.063   120020385.599       -3361.370          45.750    22839097.050          33.500    22839095.527    93522032.716       -2619.340          41.000    22839095.212    93522666.713       -2619.250          33.500                                                                  
G17  22745242.177   119526717.9171      -1516.183          46.000    22745242.106          34.250    22745239.487    93138116.132       -1181.386          41.250    22745239.555    93137608.138       -1181.435          34.250                                                                  
G18  24114171.025   126720175.1631      -2422.495          38.000    24114170.332          16.500                                                                    24114168.601    98742988.588       -1887.672          16.500                                                                  
G22  23933114.314   125769334.321       -1025.151          40.250    23933113.313          24.000                                                                    23933109.722    98002548.262        -798.817          24.000                                                                  
G24  20226500.272   106290551.006        -299.550          52.250    20226500.361          48.000    20226500.929    82823797.971        -233.437          51.500    20226500.898    82824128.961        -233.415          48.000    20226502.374    79373359.024        -223.723          57.750  
G25  23781950.746   124975233.7071       3410.299          40.750    23781950.201          23.750    23781953.365    97383044.7151       2657.323          37.750    23781952.244    97383007.7111       2657.360          23.750    23781954.892    93325662.314        2546.670          46.500  
R01  24365781.958   130249478.3881       3504.541          35.500    24365784.033   101305150.0081       2725.843          33.000    24365785.517   101305150.0001       2725.850          32.750  
R07  21839355.029   116907779.896       -3200.295          46.500    21839355.351    90928248.956       -2489.028          44.000    21839355.217    90928257.954       -2489.163          44.500  
R08  21915359.961   117355197.6951        318.114          45.500    21915358.879    91276092.2661        247.287          40.750    21915356.077    91276104.2681        247.355          41.000  
R09  19513618.781   104202077.5991        823.375          52.250    19513619.990    81046064.735         640.387          50.500    19513620.729    81046064.749         640.340          50.750  
R10  22490407.056   119886500.6011       3263.957          44.250    22490411.815    93245059.5941       2538.676          37.250    22490411.001    93245059.5911       2538.521          37.750  
R16  20701111.658   110581762.021       -2393.959          49.750    20701114.295    86007619.591       -1862.016          47.500    20701114.760    86007791.596       -1861.961          47.500  
R17  23078493.250   123496916.5171      -3361.074          41.000    23078494.219    96053160.658       -2614.169          39.500    23078493.722    96053160.665       -2614.300          39.500  
R18  20602824.081   109979259.3461        103.489          50.000    20602827.397    85539611.041          80.462          48.250    20602827.340    85539611.045          80.462          48.500  
R19  21943153.365   117380506.7221       4003.992          46.500    21943154.590    91296051.066        3114.182          43.750    21943154.317    91296053.069        3114.213          44.000  
E11  28621391.504   150407246.562       -2540.819          33.750    28621391.345   112316012.839       -1897.693          37.000    28621387.356   115245995.576       -1947.143          37.250    28621388.867   114368623.294       -1932.274          40.250  
E19  26129052.130   137309698.0341       1679.429          38.250    26129054.145   102536359.7341       1254.146          37.250    26129051.033   105211327.889        1286.894          39.000    26129052.164   104410317.683        1277.041          41.250  
E20  39791717.926   209106747.376        -470.392          44.500    39791720.178   156150934.895        -351.238          44.250    39791716.507   160224240.647        -360.518          44.500    39791717.893   159004447.722        -357.729          47.250  
> 2012 12 15 00 37  0.0000000  0 21
G09  20152929.470   105904518.0601      -1556.044          51.750    20152928.961          44.750                                                                    20152927.787    82522930.139       -1212.500          44.750                                                                  
G12  20963008.747   110161594.1001       2045.355          50.500    20963008.649          43.250    20963006.729    85840575.8761       1593.781          46.500    20963006.496    85840179.8841       1593.781          43.250                                                                  
G14  23488904.786   123435739.9381       3081.119          40.500    23488904.389          24.250                                                                    23488902.086    96183692.3541       2400.879          24.250                                                                  
G15  22858309.826   120121350.223       -3369.532          45.750    22858309.800          33.500    22858308.497    93600706.436       -2625.635          41.500    22858308.187    93601340.433       -2625.612          33.500                                                                  
G17  22753946.747   119572461.6691      -1533.442          46.250    22753946.685          34.750    22753944.737    93173760.613       -1194.787          41.250    22753944.517    93173252.617       -1194.895          34.750                                                                  
G18  24128025.378   126792980.3931      -2431.189          37.500    24128024.681          16.500                                                                    24128022.582    98799719.928       -1894.427          16.500                                                                  
G22  23939012.832   125800332.177       -1041.433          40.750    23939011.817          24.250                                                                    23939008.279    98026702.440        -811.508          24.250                                                                  
G24  20228249.915   106299746.257        -313.397          52.250    20228250.004          48.500    20228250.743    82830963.088        -244.179          51.750    20228250.707    82831294.080        -244.208          48.500    20228252.173    79380225.591        -233.982          57.750  
G25  23762498.102   124873009.377        3404.716          41.000    23762497.494          23.750    23762499.930    97303389.412        2652.998          39.500    23762499.399    97303352.402        2653.025          23.750    23762501.058    93249325.995        2542.589          45.750  
R01  24346153.563   130144551.8201       3490.518          38.000    24346157.085   101223540.5181       2715.063          33.500    24346156.681   101223540.5341       2715.158          33.250  
R07  21857337.168   117004046.294       -3217.488          46.500    21857338.559    91003122.810       -2502.438          44.750    21857338.831    91003131.806       -2502.490          44.750  
R08  21913653.988   117346058.806         291.188          46.000    21913651.472    91268984.220         226.468          40.750    21913649.862    91268996.226         226.489          40.750  
R09  19509031.237   104177580.5971        809.795          52.000    19509032.615    81027011.507         629.834          50.500    19509033.390    81027011.521         629.843          50.750  
R10  22472048.331   119788641.214        3260.203          44.250    22472054.393    93168946.740        2535.631          38.250    22472053.707    93168946.732        2535.800          38.750  
R16  20714585.081   110653735.334       -2404.166          50.000    20714587.963    86063598.802       -1869.885          47.250    20714588.045    86063770.811       -1869.918          47.000  
R17  23097383.127   123597999.2421      -3377.711          41.500    23097384.413    96131780.545       -2626.934          38.500    23097383.161    96131780.578       -2627.181          39.500  
R18  20602322.512   109976581.5071         75.003          50.250    20602325.675    85537528.275          58.421          48.000    20602325.602    85537528.282          58.418          48.500  
R19  21920732.829   117260571.2091       3991.637          47.250    21920734.078    91202767.9121       3104.626          44.250    21920734.017    91202769.9071       3104.605          44.500  
E11  28635917.520   150483582.025       -2548.347          32.500    28635916.771   112373016.533       -1902.903          35.750    28635914.191   115304486.292       -1952.478          36.500    28635914.786   114426668.737       -1937.653          39.000  
E19  26119499.336   137259495.5921       1667.491          38.500    26119501.633   102498870.9001       1245.211          38.250    26119497.917   105172861.108        1277.569          38.750    26119498.896   104372143.742        1267.909          41.500  
E20  39794445.824   209121081.683        -485.150          44.750    39794447.636   156161639.047        -362.201          43.750    39794444.117   160235224.044        -371.780          44.250    39794445.610   159015347.501        -368.900          47.000  
> 2012 12 15 00 37 30.0000000  0 21
G09  20161855.545   105951425.0681      -1571.108          51.750    20161855.036          44.500                                                                    20161853.861    82559481.032       -1224.239          44.500                                                                  
G12  20951371.518   110100439.934        2031.492          50.500    20951371.425          42.750    20951369.567    85792923.295        1583.001          46.000    20951369.313    85792527.299        1582.978          42.750                                                                  
G14  23471341.586   123343442.847        3071.951          40.000    23471341.211          22.750                                                                    23471338.586    96111772.517        2393.734          22.750                                                                  
G15  22877569.035   120222558.045       -3377.624          45.750    22877569.000          33.000    22877566.865    93679569.659       -2631.853          40.250    22877567.322    93680203.660       -2631.918          33.000                                                                  
G17  22762749.332   119618719.9761      -1550.571          45.500    22762749.248          34.250    22762747.368    93209806.050       -1208.234          41.250    22762746.959    93209298.051       -1208.238          34.250                                                                  
G18  24141928.217   126866040.8141      -2439.667          38.500    24141927.489          16.750                                                                    24141925.786    98856650.124       -1901.019          16.750                                                                  
G22  23945002.880   125831810.305       -1057.291          41.250    23945001.830          24.500                                                                    23944998.850    98051230.850        -823.870          24.500                                                                  
G24  20230078.404   106309354.228        -327.228          52.000    20230078.488          48.000    20230079.092    82838449.808        -254.881          51.250    20230079.059    82838780.804        -254.983          48.000    20230080.495    79387400.367        -244.271          57.750  
G25  23743077.116   124770950.7961       3399.111          40.750    23743076.486          23.750    23743078.772    97223863.2561       2648.719          38.000    23743079.075    97223826.2651       2648.672          23.750    23743080.541    93173113.4101       2538.401          46.250  
R01  24326602.329   130040043.1701       3476.834          35.500    24326604.130   101142256.1831       2703.875          30.000    24326605.053   101142256.1971       2703.899          30.750  
R07  21875416.428   117100825.450       -3234.513          47.500    21875418.084    91078395.467       -2515.779          44.000    21875417.775    91078404.485       -2515.706          44.250  
R08  21912097.676   117337725.761         264.301          45.500    21912095.708    91262502.969         205.658          40.250    21912093.300    91262514.985         205.519          41.000  
R09  19504519.554   104153489.4361        796.279          52.000    19504520.950    81008273.948         619.293          50.250    19504521.867    81008273.960         619.326          50.750  
R10  22453711.002   119690891.256        3256.357          45.000    22453716.125    93092918.974        2532.881          37.000    22453715.283    93092918.994        2532.672          37.500  
R16  20728115.884   110726011.996       -2414.367          50.000    20728117.923    86119813.966       -1877.751          47.500    20728118.724    86119985.975       -1877.830          47.500  
R17  23116365.252   123699573.0111      -3394.037          42.000    23116365.386    96210782.3551      -2639.679          39.750    23116365.132    96210782.3591      -2639.762          40.250  
R18  20601980.621   109974756.5411         46.563          50.000    20601983.764    85536108.872          36.244          48.500    20601983.760    85536108.874          36.250          48.250  
R19  21898381.877   117141005.4881       3979.268          47.500    21898382.235    91109772.367        3095.034          44.250    21898382.219    91109774.370        3095.025          44.250  
E11  28650485.023   150560133.030       -2555.363          35.000    28650484.624   112430181.155       -1908.122          38.000    28650481.038   115363142.207       -1957.962          38.250    28650482.375   114484878.077       -1943.018          41.000  
E19  26110014.521   137209654.0411       1655.309          39.000    26110016.825   102461651.5311       1236.117          38.500    26110012.997   105134670.809        1268.220          38.250    26110014.517   104334244.177        1258.644          41.250  
E20  39797257.536   209135857.425        -499.994          45.000    39797259.633   156172672.851        -373.265          44.250    39797256.007   160246545.681        -383.056          44.500    39797257.371   159026582.947        -380.110          47.500  
> 2012 12 15 00 38  0.0000000  0 21
G09  20170867.509   105998782.7471      -1586.054          52.250    20170867.000          44.750                                                                    20170865.692    82596383.106       -1235.885          44.750                                                                  
G12  20939812.906   110039699.853        2017.831          50.500    20939812.817          43.000    20939810.944    85745593.369        1572.294          46.250    20939810.822    85745197.367        1572.332          43.000                                                                  
G14  23453830.040   123251420.1941       3062.867          40.750    23453829.692          23.500                                                                    23453827.524    96040066.5081       2386.653          23.500                                                                  
G15  22896874.042   120324006.705       -3385.638          45.750    22896873.998          33.250    22896872.765    93758620.555       -2638.232          40.250    22896872.359    93759254.560       -2638.157          33.250                                                                  
G17  22771649.530   119665491.326       -1567.520          46.500    22771649.446          34.750    22771647.355    93246251.245       -1221.496          41.250    22771647.662    93245743.256       -1221.448          34.750                                                                  
G18  24155878.884   126939353.2851      -2447.949          38.000    24155878.200          17.000                                                                    24155877.047    98913776.708       -1907.497          17.000                                                                  
G22  23951084.199   125863767.0131      -1073.118          41.500    23951083.108          24.500                                                                    23951079.800    98076132.1511       -836.198          24.500                                                                  
G24  20231985.316   106319375.458        -340.867          52.250    20231985.400          48.000    20231985.966    82846258.565        -265.671          51.250    20231986.041    82846589.553        -265.608          48.000    20231987.494    79394883.755        -254.574          57.750  
G25  23723687.687   124669059.213        3393.676          40.250    23723687.026          23.000    23723689.360    97144467.238        2644.231          38.250    23723688.729    97144430.224        2644.414          23.000    23723691.622    93097025.563        2534.274          46.750  
R01  24307133.403   129935956.2111       3462.553          37.500    24307134.426   101061299.7401       2692.516          31.250    24307134.410   101061299.7271       2693.058          31.000  
R07  21893591.498   117198113.033       -3251.332          46.750    21893591.556    91154063.575       -2528.755          45.000    21893592.502    91154072.557       -2528.847          45.250  
R08  21910692.006   117330199.248         237.440          45.000    21910690.195    91256649.021         184.828          40.500    21910687.913    91256661.040         184.592          41.000  
R09  19500084.334   104129804.8711        782.739          52.250    19500085.695    80989852.617         608.732          50.250    19500086.384    80989852.625         608.720          50.750  
R10  22435394.156   119593251.9231       3252.841          45.000    22435399.460    93016977.2651       2530.168          38.000    22435398.833    93016977.3051       2529.866          38.500  
R16  20741702.623   110798591.035       -2424.348          49.750    20741705.116    86176264.324       -1885.605          47.500    20741705.422    86176436.335       -1885.622          47.500  
R17  23135437.029   123801633.918       -3410.123          41.500    23135438.080    96290163.053       -2652.138          39.750    23135437.747    96290163.050       -2652.373          40.250  
R18  20601798.523   109973784.4251         18.249          50.250    20601801.763    85535352.7981         14.176          48.000    20601801.461    85535352.7911         14.193          48.250  
R19  21876099.781   117021813.9581       3966.860          47.000    21876100.506    91017067.8781       3085.188          44.500    21876101.018    91017069.8661       3085.311          44.500  
E11  28665092.697   150636897.740       -2562.204          36.000    28665092.141   112487505.413       -1913.292          35.500    28665088.519   115421961.875       -1963.499          35.250    28665090.017   114543249.949       -1948.354          38.250  
E19  26100599.239   137160174.7591       1643.346          38.750    26100601.452   102424702.6901       1227.069          38.750    26100597.455   105096758.091        1258.991          37.500    26100599.024   104296620.085        1249.499          41.250  
E20  39800153.440   209151074.092        -514.432          44.750    39800155.582   156184035.926        -384.287          44.500    39800151.593   160258205.195        -394.267          44.750    39800153.100   159038153.691        -391.283          47.750  
> 2012 12 15 00 38 30.0000000  0 22
G01  25597129.203   134513528.9901      -1337.555          36.000    25597128.680          15.250    25597131.055   104815450.4221      -1042.164          35.000    25597131.393   104815450.4311      -1042.249          15.250    25597131.831   100448407.1991       -998.829          41.500  
G09  20179964.939   106046590.4421      -1601.123          51.750    20179964.430          44.750                                                                    20179963.266    82633635.842       -1247.628          44.750                                                                  
G12  20928333.596   109979374.781        2003.889          51.000    20928333.503          43.000    20928331.733    85698586.824        1561.522          46.000    20928331.353    85698190.824        1561.470          43.000                                                                  
G14  23436371.502   123159675.402        3053.483          40.750    23436371.154          23.000                                                                    23436368.659    95968577.031        2379.335          23.000                                                                  
G15  22916224.745   120425693.506       -3393.564          45.500    22916224.719          33.000    22916222.810    93837857.013       -2644.334          40.000    22916222.778    93838491.017       -2644.332          33.000                                                                  
G17  22780647.393   119712774.071       -1584.635          46.250    22780647.313          34.500    22780645.435    93283094.936       -1234.796          40.750    22780645.058    93282586.944       -1234.773          34.500                                                                  
G18  24169876.999   127012915.2661      -2456.067          37.250    24169876.338          16.000                                                                    24169875.605    98971097.719       -1913.805          16.000                                                                  
G22  23957255.641   125896201.018       -1089.074          40.500    23957254.595          24.000                                                                    23957251.377    98101405.360        -848.626          24.000                                                                  
G24  20233970.901   106329809.707        -354.762          52.500    20233970.990          48.000    20233971.506    82854389.140        -276.393          51.500    20233971.634    82854720.134        -276.436          48.000    20233973.091    79402675.557        -264.877          57.750  
G25  23704330.441   124567335.960        3387.791          40.000    23704329.789          24.500    23704331.923    97065202.363        2639.886          39.500    23704332.023    97065165.362        2639.837          24.500    23704332.845    93021063.4131       2529.948          45.500  
R01  24287738.357   129832294.5161       3448.006          36.250    24287741.221   100980673.9591       2681.765          33.500    24287742.771   100980673.9601       2682.291          33.000  
R07  21911858.687   117295905.178       -3268.167          45.500    21911861.258    91230124.143       -2541.780          43.250    21911859.782    91230133.163       -2541.895          43.500  
R08  21909436.916   117323478.899         210.613          45.500    21909435.841    91251422.085         163.769          41.750    21909433.176    91251434.079         163.831          41.250  
R09  19495725.031   104106527.3741        769.125          52.250    19495726.523    80971747.892         598.232          50.500    19495727.330    80971747.909         598.216          50.750  
R10  22417097.976   119495723.883        3248.983          44.500    22417103.820    92941122.177        2527.023          38.750    22417103.225    92941122.180        2526.895          38.750  
R16  20755345.840   110871471.2311      -2434.418          50.000    20755348.538    86232948.9031      -1893.405          47.750    20755348.946    86233120.9051      -1893.404          47.250  
R17  23154600.162   123904177.848       -3426.071          42.250    23154600.721    96369919.459       -2664.739          39.750    23154600.572    96369919.460       -2664.873          39.750  
R18  20601776.115   109973665.1791        -10.264          50.000    20601779.312    85535260.059          -8.023          48.500    20601779.299    85535260.063          -7.995          48.250  
R19  21853888.832   116903001.1661       3954.074          47.250    21853889.912    90924657.941        3075.365          44.250    21853889.641    90924659.947        3075.368          44.500  
E11  28679741.498   150713874.589       -2569.519          35.250    28679740.537   112544988.066       -1918.711          35.250    28679736.821   115480944.064       -1968.663          34.250    28679738.381   114601783.119       -1953.758          37.750  
E19  26091252.797   137111059.1481       1631.002          38.750    26091254.862   102388025.4241       1218.139          38.000    26091251.200   105059124.027        1249.764          38.000    26091252.542   104259272.534        1240.351          41.000  
E20  39803132.711   209166731.1691       -529.254          44.750    39803135.270   156195727.8891       -395.282          44.250    39803131.057   160270202.157        -405.505          44.250    39803132.537   159050059.325        -402.465          47.250  
> 2012 12 15 00 39  0.0000000  0 22
G01  25604813.111   134553903.8501      -1354.007          37.750    25604812.409          18.000    25604814.785   104846911.3611      -1055.111          36.000    25604814.136   104846911.3481      -1055.088          18.000    25604814.485   100478557.2311      -1011.221          41.000  
G09  20189147.936   106094847.6911      -1616.030          52.000    20189147.422          44.500                                                                    20189146.315    82671238.878       -1259.247          44.500                                                                  
G12  20916932.826   109919464.952        1990.075          50.500    20916932.733          42.750    20916930.932    85651903.876        1550.741          46.250    20916930.831    85651507.875        1550.705          42.750                                                                  
G14  23418966.070   123068210.7501       3044.112          41.250    23418965.695          23.500                                                                    23418963.521    95897305.8771       2372.031          23.500                                                                  
G15  22935619.731   120527616.104       -3401.282          45.250    22935619.700          32.750    22935618.080    93917277.213       -2650.330          40.500    22935618.119    93917911.218       -2650.345          32.750                                                                  
G17  22789741.963   119760566.3561      -1601.598          46.000    22789741.874          34.250    22789739.903    93320335.6761      -1248.047          41.250    22789739.820    93319827.6761      -1247.998          34.250                                                                  
G18  24183923.263   127086724.0041      -2464.316          37.500    24183922.646          16.000                                                                    24183920.730    99028611.023       -1920.229          16.000                                                                  
G22  23963518.581   125929110.463       -1104.925          41.250    23963517.553          24.000                                                                    23963514.260    98127049.056        -860.984          24.000                                                                  
G24  20236035.200   106340657.408        -368.476          52.250    20236035.284          47.750    20236035.782    82862841.889        -287.119          51.250    20236035.842    82863172.883        -287.123          47.750    20236037.322    79410776.110        -275.168          57.750  
G25  23685005.480   124465782.2671       3382.493          39.750    23685004.944          23.000    23685007.387    96986069.6281       2635.619          37.000    23685006.877    96986032.6221       2635.708          23.000    23685008.585    92945227.863        2525.792          46.250  
R01  24268426.392   129729062.8801       3433.917          36.750    24268428.671   100900382.7111       2670.529          31.000    24268429.605   100900382.7661       2670.487          30.500  
R07  21930221.544   117394197.2591      -3284.613          47.250    21930222.200    91306573.5301      -2554.762          45.750    21930223.193    91306582.5141      -2554.669          45.500  
R08  21908332.360   117317565.7881        183.696          45.250    21908331.216    91246822.9991        142.862          41.000    21908328.788    91246835.0051        142.857          41.250  
R09  19491442.280   104083657.8991        755.518          52.250    19491443.706    80953960.534         587.595          50.000    19491444.477    80953960.540         587.627          50.500  
R10  22398823.204   119398308.2211       3245.302          44.000    22398828.342    92865354.4501       2524.191          37.250    22398827.270    92865354.4531       2524.230          37.750  
R16  20769045.599   110944652.213       -2444.404          50.000    20769048.293    86289867.427       -1901.216          47.000    20769048.491    86290039.425       -1901.179          47.000  
R17  23173851.260   124007200.7851      -3441.919          41.250    23173852.210    96450048.434       -2677.139          39.250    23173852.651    96450048.458       -2677.219          39.500  
R18  20601913.575   109974398.8211        -38.664          50.250    20601916.885    85535830.672         -30.066          48.500    20601916.846    85535830.679         -30.092          48.500  
R19  21831749.966   116784571.4531       3941.229          47.250    21831750.725    90832545.9631       3065.353          45.000    21831750.777    90832547.9581       3065.355          44.750  
E11  28694430.092   150791062.0331      -2576.334          36.750    28694428.560   112602628.0261      -1923.804          36.000    28694425.095   115540087.683       -1974.206          36.000    28694426.696   114660476.465       -1959.102          39.000  
E19  26081975.419   137062308.5581       1618.938          38.250    26081978.008   102351620.818        1208.843          37.750    26081974.050   105021769.709        1240.337          38.250    26081975.427   104222202.609        1230.899          41.000  
E20  39806195.833   209182828.107        -543.840          44.500    39806198.318   156207748.304        -406.107          44.500    39806194.159   160282536.164        -416.736          44.500    39806195.693   159062299.427        -413.552          47.500  
> 2012 12 15 00 39 30.0000000  0 22
G01  25612590.276   134594773.3941      -1370.293          36.750    25612589.512          17.250    25612591.925   104878757.7591      -1068.066          36.000    25612591.182   104878757.7371      -1067.750          17.250    25612592.041   100509076.7011      -1023.370          42.250  
G09  20198416.405   106143553.5361      -1630.956          52.000    20198415.891          44.500                                                                    20198414.764    82709191.4661      -1270.878          44.500                                                                  
G12  20905611.865   109859971.3821       1976.180          50.750    20905611.781          43.000    20905609.726    85605545.2661       1539.911          46.250    20905609.532    85605149.2661       1539.879          43.000                                                                  
G14  23401614.793   122977028.387        3034.599          40.750    23401614.351          24.000                                                                    23401612.293    95826254.682        2364.618          24.000                                                                  
G15  22955059.668   120629771.955       -3409.061          45.250    22955059.628          32.750    22955057.678    93996879.172       -2656.499          40.250    22955057.635    93997513.179       -2656.418          32.750                                                                  
G17  22798933.490   119808867.3551      -1618.457          45.750    22798933.423          34.250    22798931.474    93357972.811       -1261.296          40.750    22798931.056    93357464.805       -1261.138          34.250                                                                  
G18  24198015.389   127160776.5441      -2472.404          38.000    24198014.705          15.750                                                                    24198012.463    99086314.281       -1926.546          15.750                                                                  
G22  23969871.086   125962493.569       -1120.586          40.250    23969870.067          24.250                                                                    23969866.853    98153061.790        -873.186          24.250                                                                  
G24  20238178.212   106351918.602        -382.308          52.250    20238178.296          47.750    20238178.694    82871616.845        -297.887          51.250    20238178.760    82871947.840        -297.904          47.750    20238180.298    79419185.440        -285.462          57.750  
G25  23665713.044   124364399.415        3376.541          39.750    23665712.553          24.250    23665714.367    96907070.016        2631.071          39.250    23665713.945    96907032.993        2631.069          24.250    23665716.432    92869519.9291       2521.525          46.500  
R01  24249197.164   129626264.6411       3419.238          37.250    24249198.181   100820428.4861       2659.464          31.250    24249199.871   100820428.4771       2659.230          31.500  
R07  21948676.020   117492984.991       -3301.112          46.000    21948677.274    91383408.414       -2567.687          42.000    21948675.299    91383417.419       -2567.572          43.250  
R08  21907379.192   117312458.131         156.788          46.000    21907377.582    91242850.377         121.952          40.750    21907374.906    91242862.368         122.006          41.250  
R09  19487236.308   104061197.1701        741.869          52.250    19487237.536    80936491.080         576.969          50.250    19487238.407    80936491.092         576.970          50.500  
R10  22380569.531   119301006.306        3241.503          44.750    22380574.163    92789675.140        2521.341          38.750    22380574.500    92789675.162        2521.059          39.000  
R16  20782801.202   111018133.084       -2454.290          49.750    20782803.904    86347019.195       -1908.937          47.500    20782804.494    86347191.206       -1908.925          47.250  
R17  23193193.824   124110698.8321      -3457.830          40.500    23193194.316    96530546.903       -2689.457          40.250    23193193.939    96530546.900       -2689.461          40.500  
R18  20602210.747   109975985.2951        -67.082          50.500    20602213.980    85537064.611         -52.173          48.500    20602214.133    85537064.612         -52.215          48.750  
R19  21809683.769   116666529.4201       3928.261          48.000    21809684.483    90740735.508        3055.354          44.750    21809684.419    90740737.512        3055.244          45.000  
E11  28709157.771   150868458.196       -2583.254          35.500    28709157.370   112660423.795       -1929.082          38.000    28709153.640   115599391.205       -1979.386          36.500    28709155.013   114719328.489       -1964.337          40.250  
E19  26072768.774   137013924.1031       1606.706          38.500    26072770.659   102315489.5481       1199.536          37.500    26072766.961   104984695.882        1231.069          38.250    26072768.285   104185411.028        1221.562          40.750  
E20  39809342.649   209199364.320        -558.429          44.750    39809345.065   156220096.764        -417.089          44.250    39809340.987   160295206.759        -427.948          44.500    39809342.481   159074873.556        -424.695          47.250  
> 2012 12 15 00 40  0.0000000  0 22
G01  25620461.775   134636136.4761      -1387.670          32.250    25620461.069           9.750    25620462.899   104910988.7761      -1080.945          32.750    25620462.678   104910988.7881      -1081.327           9.750    25620463.063   100539964.7821      -1035.714          40.750  
G09  20207770.209   106192707.3141      -1645.942          51.750    20207769.695          44.500                                                                    20207768.459    82747493.098       -1282.555          44.500                                                                  
G12  20894369.857   109800894.616        1962.274          50.500    20894369.777          43.250    20894367.556    85559511.436        1529.066          46.250    20894367.578    85559115.435        1529.045          43.250                                                                  
G14  23384317.405   122886131.3741       3025.073          41.500    23384316.945          23.750                                                                    23384315.154    95755425.8621       2357.202          23.750                                                                  
G15  22974543.397   120732159.8801      -3416.795          45.000    22974543.401          32.500    22974541.590    94076661.9531      -2662.357          40.250    22974541.514    94077295.9651      -2662.437          32.500                                                                  
G17  22808220.926   119857674.8231      -1635.371          46.000    22808220.842          34.000    22808218.741    93396004.598       -1274.346          41.000    22808218.558    93395496.598       -1274.316          34.000                                                                  
G18  24212152.027   127235070.2661      -2480.439          37.000    24212151.388          15.750                                                                    24212150.588    99144205.4741      -1932.817          15.750                                                                  
G22  23976313.757   125996348.799       -1136.402          41.000    23976312.765          23.750                                                                    23976309.039    98179442.395        -885.519          23.750                                                                  
G24  20240399.730   106363593.536        -396.063          52.250    20240399.814          48.000    20240400.345    82880714.211        -308.628          51.250    20240400.427    82881045.201        -308.620          48.000    20240401.943    79427903.7491       -295.756          57.750  
G25  23646453.200   124263188.6471       3370.844          40.500    23646452.744          24.000    23646454.816    96828204.5081       2626.787          38.750    23646454.801    96828167.5161       2626.648          24.000    23646455.365    92793940.478        2517.185          45.500  
R01  24230049.618   129523904.4161       3404.723          37.500    24230050.673   100740815.0781       2648.124          30.750    24230050.563   100740815.1091       2647.222          31.000  
R07  21967220.625   117592264.020       -3317.317          45.750    21967222.824    91460625.435       -2580.223          45.250    21967223.652    91460634.437       -2580.276          45.250  
R08  21906575.221   117308157.616         129.881          45.000    21906573.865    91239505.561         101.065          41.000    21906572.067    91239517.565         101.055          41.250  
R09  19483106.658   104039145.4101        728.194          52.000    19483108.167    80919339.7181        566.357          50.250    19483108.774    80919339.7301        566.366          50.750  
R10  22362337.010   119203819.0141       3237.608          45.000    22362343.468    92714085.0491       2518.176          39.000    22362342.564    92714085.0751       2518.020          39.250  
R16  20796613.009   111091912.686       -2464.290          49.750    20796615.356    86404403.319       -1916.688          47.750    20796616.214    86404575.327       -1916.692          47.250  
R17  23212621.736   124214667.8601      -3473.423          40.250    23212623.414    96611411.706       -2701.576          40.250    23212623.085    96611411.702       -2701.459          40.500  
R18  20602667.657   109978424.4471        -95.544          50.500    20602670.708    85538961.7371        -74.272          48.250    20602670.986    85538961.7301        -74.283          48.750  
R19  21787689.442   116548879.1431       3915.073          47.750    21787690.465    90649229.7591       3045.037          44.250    21787690.364    90649231.7661       3045.036          45.000  
E11  28723924.959   150946061.244       -2590.251          33.750    28723925.234   112718374.029       -1934.266          37.500    28723921.312   115658853.171       -1984.528          36.750    28723922.399   114778337.780       -1969.564          40.250  
E19  26063631.121   136965907.2161       1594.240          38.500    26063633.024   102279632.7531       1190.635          38.000    26063630.028   104947903.707        1221.683          38.750    26063630.985   104148898.945        1212.363          41.500  
E20  39812572.712   209216339.293        -573.225          44.500    39812575.419   156232772.845        -427.911          44.250    39812571.180   160308213.528        -439.182          44.500    39812572.727   159087781.303        -435.793          47.250  
> 2012 12 15 00 40 30.0000000  0 22
G01  25628425.707   134677991.2151      -1403.096          36.250    25628425.019          15.250    25628428.429   104943602.8901      -1093.324          34.000    25628427.313   104943602.8991      -1093.286          15.250    25628427.903   100571219.9921      -1047.951          41.250  
G09  20217208.937   106242308.3451      -1660.830          52.250    20217208.437          44.500                                                                    20217207.137    82786143.241       -1294.155          44.500                                                                  
G12  20883207.427   109742235.640        1948.258          51.000    20883207.360          43.250    20883205.284    85513803.147        1518.115          46.250    20883205.133    85513407.144        1518.121          43.250                                                                  
G14  23367075.106   122795521.744        3015.530          41.250    23367074.637          24.000                                                                    23367072.720    95684820.942        2349.760          24.000                                                                  
G15  22994070.671   120834776.770       -3424.432          45.250    22994070.697          32.250    22994069.097    94156623.155       -2668.291          40.000    22994068.768    94157257.171       -2668.389          32.250                                                                  
G17  22817604.945   119906987.0161      -1652.115          46.250    22817604.852          34.250    22817602.866    93434429.674       -1287.274          41.000    22817602.706    93433921.677       -1287.361          34.250                                                                  
G18  24226336.249   127309602.1901      -2488.391          38.250    24226335.628          15.750                                                                    24226333.413    99202282.265       -1938.995          15.750                                                                  
G22  23982845.718   126030674.7431      -1152.067          41.750    23982844.668          24.000                                                                    23982841.364    98206189.8361       -897.722          24.000                                                                  
G24  20242700.320   106375682.8761       -409.869          52.250    20242700.404          48.000    20242700.696    82890134.4791       -319.374          51.000    20242700.903    82890465.4681       -319.379          48.000    20242702.428    79436931.510        -306.079          57.750  
G25  23627226.163   124162151.209        3364.794          39.750    23627225.676          23.750    23627227.814    96749474.029        2621.940          38.500    23627227.173    96749437.026        2621.917          23.750    23627230.021    92718490.4371       2512.789          46.750  
R01  24210982.030   129421985.5771       3390.134          36.250    24210984.190   100661544.9331       2636.542          33.250    24210985.751   100661544.9591       2636.686          33.250  
R07  21985858.968   117692029.962       -3333.628          46.250    21985859.764    91538221.146       -2592.786          43.750    21985859.581    91538230.142       -2592.685          44.000  
R08  21905923.065   117304663.177         103.033          45.500    21905921.482    91236787.669          80.093          41.000    21905919.308    91236799.677          80.143          41.250  
R09  19479054.045   104017503.6731        714.532          52.000    19479055.155    80902507.260         555.729          50.250    19479056.093    80902507.270         555.768          50.500  
R10  22344126.764   119106747.302        3233.790          45.250    22344131.600    92638584.844        2515.009          38.500    22344131.707    92638584.830        2515.332          38.250  
R16  20810480.458   111165990.617       -2474.264          50.000    20810482.924    86462019.467       -1924.463          47.250    20810483.597    86462191.468       -1924.466          47.250  
R17  23232139.643   124319103.8931      -3489.027          42.000    23232139.608    96692639.722       -2713.578          41.000    23232140.354    96692639.722       -2713.676          40.250  
R18  20603284.161   109981716.2161       -123.949          50.000    20603287.215    85541522.006         -96.464          48.250    20603287.551    85541522.005         -96.336          48.750  
R19  21765770.636   116431625.1791       3901.847          47.500    21765771.065    90558032.256        3034.724          45.000    21765771.051    90558034.263        3034.743          45.000  
E11  28738731.883   151023869.693       -2596.984          33.500    28738731.393   112776477.662       -1939.358          36.000    28738727.847   115718472.585       -1989.932          35.750    28738728.853   114837503.289       -1974.774          38.750  
E19  26054563.921   136918259.1481       1582.196          38.750    26054566.246   102244051.3811       1181.488          38.250    26054562.785   104911394.130        1212.307          39.000    26054563.938   104112667.317        1203.003          41.500  
E20  39815886.164   209233752.4491       -587.744          44.750    39815888.945   156245776.1781       -438.965          44.250    39815885.162   160321556.076        -450.391          44.750    39815886.370   159101022.274        -446.980          47.500  
> 2012 12 15 00 41  0.0000000  0 22
G01  25636483.912   134720336.3141      -1419.470          33.750    25636483.224          13.000    25636484.775   104976599.1111      -1106.032          32.750    25636485.378   104976599.1241      -1106.140          13.000    25636486.161   100602841.3951      -1060.123          40.500  
G09  20226732.719   106292355.8381      -1675.621          52.000    20226732.210          44.250                                                                    20226730.960    82825141.273       -1305.677          44.250                                                                  
G12  20872124.543   109683995.181        1934.456          51.000    20872124.463          43.500    20872122.715    85468420.982        1507.318          46.500    20872122.364    85468024.975        1507.370          43.500                                                                  
G14  23349887.779   122705202.0021       3005.805          41.000    23349887.319          24.250                                                                    23349885.628    95614441.9341       2342.181          24.250                                                                  
G15  23013641.015   120937619.819       -3431.829          45.000    23013641.019          32.250    23013639.365    94236760.596       -2674.158          39.750    23013639.195    94237394.603       -2674.151          32.250                                                                  
G17  22827084.493   119956802.2721      -1668.838          46.000    22827084.400          34.000    22827081.837    93473246.742       -1300.415          41.250    22827082.143    93472738.753       -1300.387          34.000                                                                  
G18  24240562.731   127384369.0951      -2496.029          38.750    24240562.007          16.000                                                                    24240560.859    99260542.226       -1944.945          16.000                                                                  
G22  23989467.001   126065469.414       -1167.482          40.750    23989465.888          23.750                                                                    23989462.782    98233302.532        -909.731          23.750                                                                  
G24  20245079.793   106388186.431        -423.629          52.250    20245079.877          48.000    20245080.278    82899877.511        -330.124          51.500    20245080.249    82900208.499        -330.102          48.000    20245081.787    79446268.584        -316.370          57.750  
G25  23608032.745   124061288.3091       3359.189          40.500    23608032.330          25.000    23608034.064    96670879.5991       2617.463          39.250    23608034.097    96670842.5821       2617.549          25.000    23608035.930    92643170.781        2508.545          46.500  
R01  24191999.785   129320512.4771       3374.879          38.250    24192002.075   100582621.5571       2625.093          34.500    24192002.985   100582621.5571       2625.084          33.750  
R07  22004585.452   117792278.719       -3349.552          46.000    22004587.267    91616192.396       -2605.275          43.750    22004587.135    91616201.389       -2605.137          44.750  
R08  21905420.798   117301974.9041         76.254          45.000    21905419.324    91234696.8161         59.193          40.750    21905417.234    91234708.8191         59.208          41.000  
R09  19475077.974   103996272.2931        700.929          51.750    19475079.430    80885993.973         545.158          50.500    19475080.052    80885993.988         545.118          50.500  
R10  22325938.503   119009792.3501       3229.938          45.000    22325943.470    92563175.4441       2512.068          38.750    22325943.306    92563175.4321       2512.124          38.500  
R16  20824403.726   111240365.919       -2484.123          50.000    20824406.331    86519866.913       -1932.123          47.250    20824406.762    86520038.921       -1932.198          46.750  
R17  23251741.179   124424002.8241      -3504.332          40.500    23251741.487    96774227.801       -2725.676          38.250    23251741.367    96774227.812       -2725.715          38.750  
R18  20604060.693   109985860.4351       -152.313          50.250    20604063.711    85544745.288        -118.452          48.250    20604063.851    85544745.297        -118.502          48.750  
R19  21743926.149   116314771.9241       3888.370          47.250    21743926.767    90467146.4141       3024.302          44.750    21743926.947    90467148.4231       3024.231          45.250  
E11  28753576.989   151101881.809       -2603.986          35.000    28753576.152   112834733.406       -1944.318          35.500    28753572.382   115778248.036       -1995.182          35.750    28753573.876   114896823.676       -1979.964          38.500  
E19  26045567.501   136870981.1791       1569.835          38.750    26045569.976   102208746.3991       1172.360          39.000    26045565.920   104875168.155        1202.823          38.750    26045567.302   104076717.127        1193.699          42.000  
E20  39819283.408   209251603.154        -602.274          44.250    39819286.041   156259106.237        -449.915          44.500    39819281.892   160335233.877        -461.450          44.750    39819283.273   159114595.943        -457.996          47.750  
> 2012 12 15 00 41 30.0000000  0 22
G01  25644634.898   134763170.1451      -1435.792          34.000    25644634.134          14.000    25644637.083   105009976.1231      -1118.528          33.750    25644636.408   105009976.1301      -1118.791          14.000    25644636.762   100634827.6771      -1072.180          41.250  
G09  20236341.181   106342848.8301      -1690.513          52.000    20236340.672          44.500                                                                    20236339.484    82864486.435       -1317.279          44.500                                                                  
G12  20861121.415   109626173.6501       1920.356          50.750    20861121.326          43.750    20861119.479    85423365.2761       1496.345          46.250    20861119.307    85422969.2721       1496.380          43.750                                                                  
G14  23332756.532   122615174.931        2996.065          41.250    23332756.072          24.250                                                                    23332753.625    95544290.959        2334.592          24.250                                                                  
G15  23033254.093   121040687.309       -3439.234          45.250    23033254.101          32.500    23033252.197    94317072.928       -2680.097          40.500    23033252.246    94317706.922       -2679.922          32.500                                                                  
G17  22836659.440   120007119.0161      -1685.565          46.250    22836659.342          34.250    22836657.148    93512454.598       -1313.384          41.250    22836657.099    93511946.597       -1313.424          34.250                                                                  
G18  24254834.907   127459368.7041      -2503.964          36.750    24254834.183          15.000                                                                    24254832.628    99318983.492       -1951.166          15.000                                                                  
G22  23996177.198   126100730.922       -1183.101          40.750    23996176.125          24.250                                                                    23996172.523    98260778.964        -921.890          24.250                                                                  
G24  20247537.868   106401104.558        -437.578          52.000    20247537.952          48.000    20247538.440    82909943.579        -340.916          51.000    20247538.519    82910274.571        -340.970          48.000    20247540.026    79455915.233        -326.701          57.750  
G25  23588872.857   123960601.273        3353.225          40.500    23588872.455          24.000    23588873.992    96592422.174        2612.999          38.000    23588873.878    96592385.185        2612.905          24.000    23588875.198    92567982.4191       2504.081          46.000  
R01  24173101.540   129219488.5431       3359.898          37.000    24173103.412   100504047.3971       2613.423          30.250    24173103.131   100504047.4051       2613.594          30.250  
R07  22023402.715   117893005.541       -3365.540          46.250    22023404.292    91694535.471       -2617.586          43.500    22023403.709    91694544.491       -2617.738          44.000  
R08  21905069.719   117300093.096          49.293          45.250    21905068.479    91233233.188          38.307          40.750    21905065.604    91233245.190          38.332          40.500  
R09  19471178.937   103975452.2111        687.133          51.500    19471180.067    80869800.577         534.427          50.250    19471180.913    80869800.590         534.411          50.500  
R10  22307772.315   118912955.131        3225.971          45.750    22307777.455    92487857.592        2509.177          38.500    22307777.107    92487857.602        2508.956          39.250  
R16  20838382.255   111315037.757       -2494.000          49.500    20838385.569    86577944.990       -1939.832          47.250    20838385.707    86578116.996       -1939.814          47.000  
R17  23271430.328   124529360.8451      -3519.531          40.750    23271430.029    96856172.942       -2737.373          39.250    23271430.561    96856172.933       -2737.212          39.500  
R18  20604996.697   109990856.5811       -180.742          49.750    20604999.775    85548631.187        -140.563          48.250    20605000.017    85548631.194        -140.607          49.000  
R19  21722156.861   116198323.7731       3874.800          47.250    21722157.569    90376575.661        3013.759          44.750    21722157.885    90376577.662        3013.696          45.250  
E11  28768460.019   151180095.915       -2610.386          34.000    28768460.269   112893140.045       -1949.488          36.250    28768456.451   115838178.307       -2000.198          36.750    28768457.537   114956297.705       -1985.115          39.750  
E19  26036641.415   136824074.5161       1557.310          38.750    26036643.576   102173718.7181       1162.850          39.000    26036639.480   104839226.686        1193.376          38.750    26036641.197   104041049.293        1184.213          42.000  
E20  39822763.542   209269890.822        -616.872          44.500    39822765.831   156272762.592        -460.638          44.500    39822761.838   160349246.481        -472.568          44.500    39822763.233   159128501.872        -469.016          47.500  
> 2012 12 15 00 42  0.0000000  0 22
G01  25652878.906   134806491.2501      -1452.447          33.000    25652878.231          10.750    25652881.012   105043732.8351      -1131.946          30.750    25652880.028   105043732.8951      -1131.741          10.750    25652880.502   100667177.8771      -1084.194          37.250  
G09  20246034.249   106393786.8881      -1705.326          52.000    20246033.740          44.750                                                                    20246032.670    82904178.405       -1328.825          44.750                                                                  
G12  20850198.363   109568772.187        1906.347          51.000    20850198.270          43.750    20850196.287    85378636.868        1485.538          46.500    20850196.134    85378240.867        1485.466          43.750                                                                  
G14  23315680.599   122525442.891        2986.101          41.750    23315680.085          24.750                                                                    23315678.203    95474369.895        2326.834          24.750                                                                  
G15  23052909.297   121143977.053       -3446.674          45.000    23052909.297          32.250    23052908.070    94397558.431       -2685.734          40.250    23052907.688    94398192.428       -2685.724          32.250                                                                  
G17  22846329.457   120057935.5001      -1702.180          45.750    22846329.346          34.000    22846326.965    93552051.853       -1326.333          40.750    22846327.090    93551543.850       -1326.368          34.000                                                                  
G18  24269150.852   127534598.3701      -2511.452          37.250    24269150.173          16.250                                                                    24269148.492    99377604.010       -1956.975          16.250                                                                  
G22  24002975.477   126136457.442       -1198.677          40.500    24002974.449          24.000                                                                    24002971.518    98288617.746        -934.017          24.000                                                                  
G24  20250075.116   106414437.302        -451.316          52.500    20250075.200          48.250    20250075.510    82920332.727        -351.699          51.000    20250075.668    82920663.719        -351.674          48.250    20250077.153    79465871.500        -337.046          57.500  
G25  23569746.389   123860091.3211       3347.355          40.250    23569745.992          24.750    23569748.223    96514102.7451       2608.343          38.500    23569747.126    96514065.7361       2608.320          24.750    23569750.068    92492926.314        2499.652          47.000  
R01  24154287.681   129118917.8911       3344.718          38.250    24154290.155   100425825.8151       2601.238          32.250    24154290.161   100425825.8101       2601.511          31.250  
R07  22042307.953   117994206.304       -3381.262          46.500    22042308.197    91773247.166       -2629.852          44.250    22042309.184    91773256.151       -2629.920          44.500  
R08  21904868.361   117299017.800          22.464          44.750    21904867.529    91232396.857          17.390          40.750    21904864.985    91232408.881          17.300          41.000  
R09  19467357.064   103955043.8431        673.398          52.000    19467358.835    80853927.394         523.734          50.500    19467359.178    80853927.409         523.737          50.500  
R10  22289628.078   118816236.7961       3221.983          45.500    22289633.453    92412632.2421       2505.974          38.500    22289632.595    92412632.2301       2505.934          38.500  
R16  20852416.416   111390005.189       -2503.808          49.750    20852419.434    86636252.957       -1947.339          47.500    20852419.975    86636424.969       -1947.446          47.000  
R17  23291203.727   124635173.6491      -3534.663          41.750    23291204.840    96938471.7911      -2749.174          39.750    23291204.845    96938471.7901      -2749.171          40.500  
R18  20606092.123   109996704.4161       -209.129          50.000    20606095.177    85553179.515        -162.632          48.250    20606095.466    85553179.515        -162.648          48.750  
R19  21700464.702   116082285.1281       3861.073          47.750    21700465.711    90286323.400        3003.060          44.750    21700465.553    90286325.414        3003.060          45.250  
E11  28783382.079   151258510.121       -2617.134          36.000    28783382.266   112951696.022       -1954.416          37.000    28783377.880   115898261.858       -2005.309          36.750    28783379.547   115015923.819       -1990.067          40.000  
E19  26027786.341   136777540.5581       1544.907          39.000    26027788.050   102138969.3021       1153.725          38.250    26027784.831   104803570.757        1183.957          39.000    26027786.034   104005664.816        1174.876          41.750  
E20  39826326.537   209288614.817        -631.363          44.750    39826328.780   156286744.778        -471.468          44.500    39826325.243   160363593.425        -483.844          44.750    39826326.312   159142739.589        -480.131          47.500  
> 2012 12 15 00 42 30.0000000  0 22
G01  25661213.820   134850298.0141      -1469.507          30.250    25661213.033           7.250    25661216.513   105077868.1151      -1143.998          31.750    25661216.340   105077868.1341      -1145.108           7.250    25661216.827   100699890.8591      -1096.406          39.500  
G09  20255811.951   106445169.1131      -1720.158          52.250    20255811.437          44.750                                                                    20255810.481    82944216.484       -1340.383          44.750                                                                  
G12  20839355.124   109511791.398        1892.331          51.000    20839355.017          44.000    20839352.995    85334236.254        1474.565          46.750    20839353.053    85333840.258        1474.544          44.000                                                                  
G14  23298662.567   122436008.6981       2976.088          41.000    23298662.080          24.750                                                                    23298659.896    95404680.9071       2319.033          24.750                                                                  
G15  23072606.757   121247486.053       -3453.869          44.750    23072606.749          32.250    23072604.934    94478214.774       -2691.419          40.250    23072604.796    94478848.784       -2691.334          32.250                                                                  
G17  22856094.184   120109250.007       -1718.737          46.000    22856094.059          33.750    22856092.123    93592037.168       -1339.268          40.250    22856092.009    93591529.169       -1339.286          33.750                                                                  
G18  24283509.909   127610054.8561      -2519.116          37.250    24283509.279          15.250                                                                    24283507.539    99436401.215       -1962.942          15.250                                                                  
G22  24009862.513   126172647.3981      -1213.944          41.000    24009861.463          24.000                                                                    24009858.286    98316817.5971       -945.925          24.000                                                                  
G24  20252691.179   106428185.115        -465.151          52.250    20252691.263          48.250    20252691.795    82931045.295        -362.480          51.250    20252691.827    82931376.289        -362.453          48.250    20252693.280    79476137.709        -347.355          57.500  
G25  23550653.973   123759759.679        3341.478          40.500    23550653.611          26.000    23550655.413    96435922.274        2603.711          40.500    23550655.529    96435885.273        2603.755          26.000    23550655.909    92418003.360        2495.154          45.500  
R01  24135559.862   129018804.8551       3329.398          38.500    24135560.234   100347960.0931       2589.942          31.250    24135561.691   100347960.0861       2589.714          31.750  
R07  22061300.780   118095876.445       -3396.716          45.750    22061302.808    91852323.947       -2641.941          41.750    22061300.876    91852332.959       -2641.869          43.250  
R08  21904818.487   117298747.834          -4.385          45.750    21904816.631    91232186.916          -3.537          40.750    21904814.536    91232198.905          -3.512          40.750  
R09  19463612.428   103935047.8141        659.666          52.000    19463613.757    80838374.932         513.022          50.500    19463614.682    80838374.946         513.041          50.500  
R10  22271506.390   118719638.752        3217.979          44.750    22271511.224    92337500.405        2502.958          38.500    22271511.447    92337500.407        2502.991          38.500  
R16  20866505.511   111465267.515       -2513.611          49.500    20866508.415    86694790.324       -1955.040          47.000    20866509.021    86694962.331       -1955.105          46.750  
R17  23311062.105   124741437.286       -3549.615          41.500    23311062.076    97021121.307       -2761.023          38.750    23311062.534    97021121.288       -2760.882          39.000  
R18  20607347.052   110003403.7591       -237.477          50.250    20607350.384    85558390.1231       -184.706          48.500    20607350.610    85558390.1221       -184.714          48.750  
R19  21678850.069   115966660.3211       3847.264          47.500    21678850.953    90196393.0291       2992.208          44.750    21678850.735    90196395.0261       2992.318          45.250  
E11  28798341.656   151337122.877       -2623.678          33.750    28798341.708   113010400.235       -1959.038          36.250    28798337.523   115958497.509       -2010.236          36.000    28798339.236   115075700.887       -1994.925          39.000  
E19  26019001.995   136731380.4811       1532.386          38.750    26019004.402   102104499.1061       1144.506          38.250    26019000.910   104768201.365        1174.163          39.000    26019002.054   103970564.681        1165.311          41.750  
E20  39829972.483   209307774.5451       -645.898          44.500    39829974.758   156301052.3501       -482.357          44.000    39829971.314   160378274.258        -495.019          44.750    39829972.406   159157308.646        -491.203          47.500  
> 2012 12 15 00 43  0.0000000  0 22
G01  25669642.511   134894588.6981      -1484.084          30.250    25669641.662           3.500    25669644.497   105112380.3821      -1156.371          28.500    25669644.539   105112380.2921      -1156.603           3.500    25669644.074   100732965.1051      -1108.414          35.000  
G09  20265674.014   106496994.7171      -1734.931          52.250    20265673.496          44.500                                                                    20265672.591    82984600.064       -1351.894          44.500                                                                  
G12  20828592.283   109455231.595        1878.317          51.250    20828592.167          44.000    20828590.401    85290163.704        1463.614          46.250    20828590.046    85289767.706        1463.621          44.000                                                                  
G14  23281700.663   122346875.047        2966.050          42.250    23281700.073          24.500                                                                    23281697.963    95335226.100        2311.220          24.500                                                                  
G15  23092345.107   121351212.106       -3461.172          44.500    23092345.094          32.000    23092343.474    94559040.253       -2697.065          39.500    23092343.052    94559674.267       -2697.019          32.000                                                                  
G17  22865953.372   120161060.566       -1735.244          45.750    22865953.256          33.500    22865951.032    93632409.025       -1352.183          40.500    22865951.007    93631901.014       -1352.142          33.500                                                                  
G18  24297912.238   127685735.2711      -2526.394          35.500    24297911.639          13.750                                                                    24297908.654    99495373.038       -1968.620          13.750                                                                  
G22  24016837.447   126209299.380       -1229.337          41.000    24016836.410          23.250                                                                    24016832.841    98345377.486        -957.923          23.250                                                                  
G24  20255386.262   106442348.102        -478.996          52.250    20255386.346          48.250    20255386.848    82942081.386        -373.252          51.250    20255386.954    82942412.376        -373.244          48.250    20255388.394    79486713.959        -357.702          57.500  
G25  23531595.271   123659607.5671       3335.333          41.000    23531594.887          24.750    23531597.017    96357881.6671       2599.033          38.500    23531596.190    96357844.6741       2598.965          24.750    23531598.569    92343214.4511       2490.720          46.500  
R01  24116916.908   128919152.9131       3314.030          37.500    24116918.458   100270453.0491       2577.411          32.000    24116919.948   100270453.0461       2577.639          32.250  
R07  22080380.414   118198011.456       -3412.198          46.000    22080381.445    91931762.263       -2653.901          44.500    22080381.960    91931771.263       -2653.949          44.750  
R08  21904918.813   117299283.3081        -31.314          46.250    21904916.351    91232603.3701        -24.365          40.250    21904914.226    91232615.3711        -24.413          40.750  
R09  19459945.290   103915465.1581        645.859          51.750    19459946.679    80823143.972         502.330          50.250    19459947.437    80823143.992         502.331          50.500  
R10  22253407.973   118623161.8581       3213.821          45.750    22253413.057    92262462.8401       2499.661          39.500    22253413.127    92262462.8481       2499.686          39.250  
R16  20880650.215   111540823.8791      -2523.466          49.250    20880652.716    86753556.3631      -1962.575          46.750    20880653.299    86753728.3661      -1962.655          47.000  
R17  23331003.217   124848147.917       -3564.412          41.250    23331003.241    97104118.460       -2772.327          39.500    23331004.276    97104118.474       -2772.437          40.000  
R18  20608761.573   110010954.1191       -265.875          50.500    20608764.912    85564262.627        -206.791          48.250    20608764.962    85564262.625        -206.765          48.750  
R19  21657313.677   115851453.8491       3833.195          47.250    21657313.973    90106788.019        2981.327          44.500    21657314.024    90106790.021        2981.394          45.250  
E11  28813338.554   151415932.451       -2630.328          31.750    28813338.650   113069251.492       -1963.964          34.250    28813334.616   116018884.002       -2015.265          34.500    28813336.074   115135627.662       -1999.903          37.250  
E19  26010290.346   136685595.4921       1519.843          38.750    26010292.514   102070309.0261       1134.983          38.750    26010288.101   104733119.360        1164.612          39.250    26010289.455   103935749.757        1155.735          42.000  
E20  39833701.018   209327369.333        -660.337          45.000    39833703.308   156315684.844        -493.210          44.000    39833699.847   160393288.440        -505.965          44.500    39833701.108   159172208.540        -502.142          47.250  
> 2012 12 15 00 43 30.0000000  0 22
G01  25678162.271   134939361.9511      -1500.561          30.250    25678161.476           7.750    25678163.624   105147268.6341      -1169.532          30.500    25678164.442   105147268.6371      -1169.208           7.750    25678165.229   100766399.6851      -1120.484          36.250  
G09  20275620.559   106549263.0801      -1749.650          52.000    20275620.041          44.500                                                                    20275618.865    83025328.648       -1363.361          44.500                                                                  
G12  20817909.506   109399093.594        1864.209          51.000    20817909.390          43.750    20817907.339    85246419.829        1452.698          46.750    20817907.304    85246023.829        1452.634          43.750                                                                  
G14  23264796.534   122258044.4131       2955.973          41.500    23264795.904          25.000                                                                    23264793.955    95266007.4201       2303.353          25.000                                                                  
G15  23112124.411   121455152.978       -3468.268          44.500    23112124.385          32.000    23112122.194    94640033.137       -2702.557          40.000    23112122.479    94640667.137       -2702.545          32.000                                                                  
G17  22875906.774   120213365.5171      -1751.803          46.250    22875906.667          33.500    22875904.671    93673166.1391      -1365.007          40.500    22875904.186    93672658.1371      -1365.036          33.500                                                                  
G18  24312353.750   127761636.8121      -2533.535          36.500    24312353.205          14.250                                                                    24312352.227    99554517.058       -1974.200          14.250                                                                  
G22  24023899.567   126246411.321       -1244.647          41.000    24023898.535          23.750                                                                    24023894.826    98374295.791        -969.862          23.750                                                                  
G24  20258160.413   106456926.290        -492.845          52.250    20258160.502          47.750    20258161.071    82953441.001        -384.020          51.500    20258161.099    82953771.992        -384.039          47.750    20258162.602    79497600.256        -368.021          57.250  
G25  23512571.490   123559636.239        3329.334          40.500    23512571.124          25.750    23512573.159    96279981.968        2594.301          39.750    23512572.776    96279944.955        2594.275          25.750    23512575.119    92268560.592        2486.184          46.750  
R01  24098361.771   128819966.2591       3298.466          38.750    24098364.581   100193307.9011       2565.310          32.000    24098364.033   100193307.8661       2566.118          32.000  
R07  22099546.774   118300607.0471      -3427.447          46.000    22099548.381    92011558.8081      -2665.799          40.750    22099545.568    92011567.8261      -2665.848          42.250  
R08  21905168.937   117300623.753         -58.064          46.000    21905167.710    91233645.927         -45.232          40.750    21905164.941    91233657.934         -45.264          41.000  
R09  19456355.561   103896296.0761        632.065          52.000    19456356.881    80808234.697         491.617          50.250    19456357.623    80808234.708         491.624          50.750  
R10  22235331.923   118526807.117        3209.762          45.750    22235335.724    92187520.291        2496.584          37.750    22235336.218    92187520.295        2496.377          38.500  
R16  20894849.451   111616673.477       -2533.219          49.250    20894852.471    86812550.482       -1970.262          46.750    20894852.409    86812722.487       -1970.173          46.750  
R17  23351027.258   124955301.1271      -3579.090          41.250    23351027.930    97187459.882       -2783.776          39.000    23351027.857    97187459.882       -2783.719          39.250  
R18  20610335.127   110019355.0371       -294.249          50.250    20610338.256    85570796.690        -228.809          48.250    20610338.441    85570796.694        -228.875          48.500  
R19  21635855.504   115736669.9581       3819.130          48.000    21635856.412    90017511.6811       2970.271          44.250    21635856.098    90017513.6761       2970.280          45.250  
E11  28828372.629   151494937.2101      -2636.828          31.500    28828372.428   113128248.4231      -1968.936          34.250    28828369.043   116079419.993       -2020.279          34.250    28828370.241   115195702.775       -2004.881          37.250  
E19  26001648.603   136640186.8961       1507.373          38.250    26001650.835   102036400.014        1125.592          38.500    26001647.388   104698325.767        1155.052          39.250    26001648.559   103901221.049        1146.197          42.000  
E20  39837512.691   209347398.547        -674.878          44.750    39837514.580   156330641.725        -503.997          44.000    39837511.396   160408635.502        -517.134          44.750    39837512.456   159187438.760        -513.170          47.500  
> 2012 12 15 00 44  0.0000000  0 21
G09  20285650.852   106601973.0861      -1764.301          52.000    20285650.329          44.500                                                                    20285649.296    83066401.3691      -1374.780          44.500                                                                  
G12  20807307.354   109343378.2651       1850.188          51.000    20807307.229          44.000    20807305.356    85203005.3041       1441.726          46.750    20807305.042    85202609.3041       1441.703          44.000                                                                  
G14  23247950.778   122169518.991        2945.872          42.000    23247950.157          25.250                                                                    23247948.628    95197026.589        2295.485          25.250                                                                  
G15  23131944.457   121559306.642       -3475.299          44.500    23131944.440          31.500    23131942.851    94721191.812       -2707.812          40.000    23131942.127    94721825.824       -2708.025          31.500                                                                  
G17  22885953.954   120266163.3671      -1768.082          46.000    22885953.856          33.750    22885951.307    93714307.316       -1377.628          40.500    22885951.524    93713799.314       -1377.718          33.750                                                                  
G18  24326840.217   127837756.8091      -2540.811          37.500    24326839.757          16.750                                                                    24326837.677    99613831.295       -1979.842          16.750                                                                  
G22  24031048.899   126283981.375       -1259.868          40.500    24031047.880          24.000                                                                    24031044.668    98403571.104        -981.713          24.000                                                                  
G24  20261013.786   106471919.901        -506.678          52.250    20261013.875          48.000    20261014.246    82965124.327        -394.829          51.250    20261014.290    82965455.316        -394.814          48.000    20261015.757    79508796.772        -378.338          57.250  
G25  23493581.681   123459846.938        3323.378          41.250    23493581.310          25.250    23493584.224    96202224.069        2589.585          38.250    23493583.700    96202187.076        2589.659          25.250    23493584.138    92194042.5851       2481.630          45.250  
R01  24079893.584   128721249.0041       3282.865          35.750    24079895.888   100116527.8681       2553.157          33.250    24079898.124   100116527.8951       2553.097          32.750  
R07  22118796.179   118403659.168       -3442.493          45.750    22118798.560    92091710.469       -2677.548          44.750    22118799.217    92091719.472       -2677.545          45.250  
R08  21905569.182   117302769.175         -84.831          45.250    21905568.393    91235314.599         -65.949          41.000    21905565.943    91235326.597         -66.053          41.500  
R09  19452843.369   103877541.1451        618.246          52.000    19452844.671    80793647.526         480.838          50.250    19452845.450    80793647.540         480.866          50.750  
R10  22217278.970   118430575.534        3205.696          46.000    22217284.309    92112673.516        2493.287          39.000    22217283.767    92112673.499        2493.399          39.250  
R16  20909103.240   111692815.545       -2542.922          49.000    20909106.103    86871772.072       -1977.809          47.000    20909106.614    86871944.082       -1977.864          46.750  
R17  23371133.754   125062892.8891      -3593.687          41.000    23371134.739    97271142.350       -2794.868          39.500    23371134.285    97271142.359       -2794.922          40.250  
R18  20612068.322   110028606.0871       -322.538          50.250    20612071.388    85577991.957        -250.819          48.250    20612071.450    85577991.957        -250.846          48.500  
R19  21614478.088   115622313.1291       3804.724          47.750    21614478.332    89928567.497        2959.201          44.750    21614478.442    89928569.501        2959.280          45.500  
E11  28843443.819   151574135.725       -2643.019          32.250    28843443.759   113187390.047       -1973.725          36.750    28843440.316   116140104.457       -2025.243          36.500    28843441.376   115255925.247       -2009.859          39.750  
E19  25993079.456   136595155.8961       1494.734          38.000    25993081.999   102002772.9501       1116.246          39.000    25993078.037   104663821.481        1145.239          39.000    25993079.352   103866979.445        1136.570          42.000  
E20  39841406.477   209367861.441        -689.279          45.250    39841408.129   156345922.445        -514.817          43.750    39841405.450   160424314.854        -528.155          44.750    39841406.416   159202998.744        -524.168          47.250  
> 2012 12 15 00 44 30.0000000  0 21
G09  20295765.338   106655123.9961      -1779.031          52.000    20295764.820          44.250                                                                    20295763.574    83107817.650       -1386.258          44.250                                                                  
G12  20796785.509   109288085.921        1836.002          51.250    20796785.380          44.000    20796783.651    85159920.370        1430.672          46.750    20796783.256    85159524.367        1430.652          44.000                                                                  
G14  23231163.201   122081301.2171       2935.441          42.250    23231162.544          25.250                                                                    23231160.968    95128285.4831       2287.362          25.250                                                                  
G15  23151804.022   121663670.205       -3482.291          45.000    23151803.973          31.250    23151801.851    94802514.061       -2713.372          39.750    23151802.038    94803148.065       -2713.473          31.250                                                                  
G17  22896094.359   120319451.9661      -1784.397          45.750    22896094.243          33.500    22896092.231    93755830.908       -1390.484          40.250    22896091.871    93755322.902       -1390.433          33.500                                                                  
G18  24341365.417   127914092.0141      -2548.221          38.000    24341364.881          15.500                                                                    24341364.360    99673313.2631      -1985.647          15.500                                                                  
G22  24038284.746   126322007.718       -1275.208          40.750    24038283.785          24.000                                                                    24038281.167    98433201.943        -993.670          24.000                                                                  
G24  20263945.892   106487328.878        -520.583          52.500    20263945.981          48.000    20263946.401    82977131.307        -405.612          51.250    20263946.521    82977462.302        -405.650          48.000    20263947.992    79520303.4631       -388.730          57.250  
G25  23474627.173   123360240.8411       3317.141          41.250    23474626.749          25.250    23474629.343    96124608.9421       2584.690          40.250    23474628.698    96124571.9091       2584.781          25.250    23474631.895    92119661.422        2477.084          47.500  
R01  24061516.018   128623004.7631       3266.853          38.000    24061516.889   100040115.7941       2540.978          31.750    24061518.315   100040115.8191       2541.015          32.000  
R07  22138133.425   118507162.924       -3457.675          46.000    22138133.222    92172213.349       -2689.254          41.500    22138131.959    92172222.351       -2689.309          42.250  
R08  21906119.714   117305718.928        -111.683          45.250    21906118.160    91237608.810         -86.849          40.250    21906116.404    91237620.825         -86.863          41.500  
R09  19449409.000   103859201.4241        604.375          51.750    19449410.461    80779383.2971        470.079          50.250    19449411.060    80779383.3101        470.034          50.750  
R10  22199249.331   118334468.7481       3201.389          45.250    22199254.805    92037923.8001       2490.135          39.000    22199254.091    92037923.8131       2490.031          39.000  
R16  20923411.625   111769249.046       -2552.623          49.250    20923414.338    86931220.328       -1985.320          46.750    20923414.947    86931392.333       -1985.311          46.500  
R17  23391320.898   125170919.2521      -3608.073          41.750    23391321.261    97355162.877       -2806.282          40.000    23391321.970    97355162.870       -2806.223          40.000  
R18  20613960.196   110038706.6921       -350.888          50.250    20613963.558    85585847.9891       -272.873          48.250    20613963.787    85585847.9881       -272.926          48.750  
R19  21593180.705   115508387.6011       3790.255          47.500    21593181.412    89839958.7681       2948.014          44.500    21593181.114    89839960.7841       2948.083          45.250  
E11  28858551.500   151653525.908       -2649.418          33.250    28858551.717   113246674.846       -1978.443          36.000    28858547.639   116200935.829       -2030.267          34.250    28858548.757   115316293.496       -2014.627          38.000  
E19  25984582.291   136550503.6421       1482.217          38.500    25984584.959   101969428.751        1106.899          39.250    25984581.082   104629607.427        1135.628          39.500    25984582.312   103833025.867        1127.042          42.250  
E20  39845382.938   209388757.377        -703.744          44.500    39845385.279   156361526.536        -525.446          44.250    39845381.460   160440326.015        -539.227          44.750    39845382.802   159218888.011        -535.084          47.500  
