     3.01           Observation data    Mixed               RINEX VERSION / TYPE
BNC 2.8             Weber               20130126 130649 UTC PGM / RUN BY / DATE
BRUX                                                        MARKER NAME
13101M010                                                   MARKER NUMBER
Carine Bruyninx     ROB                                     OBSERVER / AGENCY
3001376             SEPT POLARX4TR      2.3.4               REC # / TYPE / VERS
00464               JAVRINGANT_DM   NONE                    ANT # / TYPE
  4027881.6287   306998.5366  4919498.9839                  APPROX POSITION XYZ
        0.4689        0.0000        0.0010                  ANTENNA: DELTA H/E/N
E   16 C1C L1C D1C S1C C5Q L5Q D5Q S5Q C7Q L7Q D7Q S7Q C8Q  SYS / # / OBS TYPES
       L8Q D8Q S8Q                                          SYS / # / OBS TYPES
G   18 C1C L1C D1C S1C C1W S1W C2L L2L D2L S2L C2W L2W D2W  SYS / # / OBS TYPES
       S2W C5Q L5Q D5Q S5Q                                  SYS / # / OBS TYPES
R   12 C1C L1C D1C S1C C2C L2C D2C S2C C2P L2P D2P S2P      SYS / # / OBS TYPES
    30.000                                                  INTERVAL
  2012    12    15     0     0    0.0000000     GPS         TIME OF FIRST OBS
                                                            END OF HEADER
> 2012 12 15 00 00  0.0000000  0 24
G01  25304752.078   132976697.088          29.359          35.750    25304751.399          16.250    25304753.575   103618406.194          22.893          34.750    25304752.785   103618205.173          22.872          16.250    25304753.161    99301532.951          21.781          41.000  
G09  19737438.508   103721100.7601       -400.467          52.000    19737437.985          45.750                                                                    19737436.646    80821566.578        -312.052          45.750                                                                  
G12  22029744.696   115767326.170        2969.697          47.250    22029744.580          37.000    22029742.652    90208678.304        2314.082          42.500    22029742.375    90208282.310        2314.045          37.000                                                                  
G14  24900652.935   130854526.5471       3529.654          35.500    24900652.122          13.500                                                                    24900649.898   101964565.3711       2750.371          13.500                                                                  
G15  21590337.551   113458112.8061      -2568.455          50.250    21590337.595          41.250    21590335.857    88408573.938       -2001.315          44.750    21590335.877    88409207.940       -2001.393          41.250                                                                  
G17  22390436.206   117662199.5511       -160.558          48.250    22390436.095          37.250    22390433.825    91685244.525        -125.148          42.250    22390433.819    91684736.527        -125.105          37.250                                                                  
G18  23268396.991   122275607.9021      -1562.060          42.500    23268396.120          24.250                                                                    23268395.038    95279690.528       -1217.205          24.250                                                                  
G22  23765295.478   124887446.600         244.859          41.250    23765294.481          25.500                                                                    23765290.777    97315364.799         190.806          25.500                                                                  
G24  20306188.809   106709317.614         668.257          51.750    20306188.893          47.750    20306189.141    83150109.883         520.735          50.750    20306189.253    83150440.873         520.721          47.750    20306190.702    79686074.605         498.997          57.500  
G25  25270233.820   132796207.300        3691.859          34.500    25270233.078          14.000    25270234.873   103477309.241        2876.920          32.750    25270234.864   103477272.243        2876.759          14.000    25270236.595    99165998.982        2756.756          41.500  
G26  24410158.509   128276316.648       -4053.846          40.500    24410158.116          21.750                                                                    24410158.357    99954989.038       -3158.854          21.750                                                                  
G28  24799680.676   130323506.534       -3166.693          38.250    24799679.992          17.750                                                                    24799678.678   101551147.763       -2467.578          17.750                                                                  
R06  22836172.308   121857788.843       -4339.409          44.250    22836172.153    94778000.150       -3375.031          40.750    22836173.263    94778000.156       -3375.128          40.750  
R07  20835381.134   111533439.996       -1603.218          49.500    20835381.863    86748208.479       -1246.964          47.250    20835381.720    86748217.484       -1246.938          48.000  
R08  22434882.103   120137219.083        2173.794          42.750    22434879.378    93439887.713        1690.640          39.000    22434877.944    93439899.711        1690.787          39.250  
R09  20045188.877   107040631.8571       1748.260          51.750    20045190.195    83253829.059        1359.756          49.500    20045191.152    83253829.063        1359.816          49.750  
R10  23874225.271   127263020.743        3448.269          41.750    23874230.050    98982350.363        2681.760          33.250    23874230.642    98982350.380        2681.891          33.250  
R15  23503435.706   125595877.9771      -3407.075          38.750    23503439.646    97685685.627       -2650.101          38.000    23503439.548    97685685.624       -2650.048          37.750  
R16  19881183.919   106201861.566       -1581.421          52.000    19881187.014    82601031.330       -1230.005          49.500    19881187.208    82601203.330       -1229.946          50.000  
R17  21994808.640   117697902.2661      -1833.318          45.500    21994808.314    91542817.123       -1425.963          42.500    21994808.088    91542817.120       -1425.819          43.500  
R18  21059398.858   112416481.0761       2071.114          49.000    21059402.361    87435226.914        1610.779          47.250    21059402.243    87435226.909        1610.894          47.250  
R19  23710886.965   126836680.626        4502.988          42.500    23710886.982    98650852.501        3502.348          38.000    23710887.134    98650854.527        3502.336          39.000  
E11  27693470.189   145530987.991       -1863.943          37.250    27693469.788   108674651.308       -1391.888          40.000    27693465.522   111509641.930       -1428.355          39.000    27693467.087   110660714.676       -1417.364          42.500  
E20  39822606.185   209269071.713         617.975          45.000    39822608.143   156272152.890         461.513          44.250    39822604.458   160348620.648         473.511          44.500    39822605.594   159127880.913         469.929          47.250  
> 2012 12 15 00 00 30.0000000  0 24
G01  25304637.137   132976092.4441         10.911          37.000    25304636.516          17.000    25304638.714   103617935.0501          8.634          35.000    25304637.587   103617734.0611          8.518          17.000    25304638.396    99301081.468           8.250          41.000  
G09  19739770.346   103733354.4911       -416.397          51.750    19739769.828          45.750                                                                    19739768.418    80831114.939        -324.465          45.750                                                                  
G12  22012822.137   115678399.506        2958.718          47.500    22012822.039          36.750    22012820.700    90139384.818        2305.451          42.250    22012820.083    90138988.822        2305.496          36.750                                                                  
G14  24880510.430   130748681.1421       3526.566          36.250    24880509.630          14.500                                                                    24880508.315   101882088.4191       2747.949          14.500                                                                  
G15  21605038.621   113535367.3661      -2581.773          50.000    21605038.652          41.000    21605037.286    88468772.2881      -2011.768          44.500    21605036.819    88469406.2921      -2011.770          41.000                                                                  
G17  22391408.068   117667307.6381       -179.922          48.000    22391407.952          37.250    22391405.984    91689224.862        -140.219          42.750    22391405.838    91688716.862        -140.200          37.250                                                                  
G18  23277356.587   122322689.6711      -1576.647          42.000    23277355.729          23.750                                                                    23277353.634    95316377.5831      -1228.546          23.750                                                                  
G22  23763949.233   124880373.956         226.836          40.750    23763948.245          25.250                                                                    23763944.425    97309853.640         176.757          25.250                                                                  
G24  20302410.014   106689460.186         655.616          52.000    20302410.098          47.500    20302410.381    83134636.553         510.837          51.000    20302410.509    83134967.547         510.872          47.500    20302412.007    79671245.9971        489.570          57.750  
G25  25249163.126   132685487.0431       3689.753          35.250    25249162.416          14.250    25249164.914   103391033.7431       2874.954          33.750    25249165.379   103390996.7191       2875.128          14.250    25249166.975    99083318.2851       2755.190          41.000  
G26  24433309.488   128397972.0441      -4056.501          39.000    24433309.122          18.500                                                                    24433307.294   100049785.4861      -3160.898          18.500                                                                  
G28  24817763.387   130418529.062       -3168.143          37.250    24817762.703          16.250                                                                    24817760.958   101625191.278       -2468.681          16.250                                                                  
R06  22860584.927   121988065.009       -4345.548          42.250    22860586.696    94879326.033       -3379.935          41.500    22860587.557    94879326.032       -3379.942          41.250  
R07  20844438.050   111581923.182       -1628.920          49.500    20844438.788    86785917.608       -1266.902          47.250    20844438.727    86785926.614       -1267.035          47.750  
R08  22422768.649   120072349.1721       2150.902          44.250    22422766.369    93389433.3531       1672.734          39.250    22422764.171    93389445.3361       1672.902          39.250  
R09  20035400.300   106988361.8031       1736.402          51.500    20035401.568    83213174.5471       1350.528          49.500    20035402.390    83213174.5561       1350.608          49.500  
R10  23854823.527   127159598.5941       3446.563          40.750    23854830.405    98901910.9061       2680.749          34.500    23854828.929    98901910.9101       2680.754          33.750  
R15  23522568.622   125698120.7281      -3409.035          38.500    23522572.831    97765207.7721      -2651.457          37.750    23522572.704    97765207.7721      -2651.524          37.250  
R16  19890099.945   106249486.737       -1593.523          52.000    19890102.549    82638073.126       -1239.389          49.750    19890103.019    82638245.128       -1239.417          50.000  
R17  22005155.966   117753272.9261      -1858.015          45.500    22005156.502    91585883.1771      -1445.096          43.250    22005155.821    91585883.1991      -1445.145          43.750  
R18  21047827.509   112354713.4431       2046.818          48.250    21047830.774    87387185.427        1591.869          47.000    21047830.869    87387185.425        1591.909          47.000  
R19  23685637.329   126701617.5351       4501.277          40.250    23685639.293    98545803.4491       3500.908          39.250    23685638.546    98545805.4421       3500.934          39.750  
E11  27704143.867   145587077.929       -1875.133          37.750    27704143.707   108716536.670       -1400.337          40.750    27704139.137   111552619.938       -1436.790          39.000    27704140.671   110703365.500       -1425.894          42.750  
E20  39819119.884   209250752.326         603.279          44.750    39819121.905   156258472.803         450.528          44.000    39819118.614   160334583.695         462.229          44.750    39819119.620   159113950.820         458.742          47.500  
> 2012 12 15 00 01  0.0000000  0 24
G01  25304626.288   132976035.056          -7.266          34.750    25304625.698          14.000    25304627.437   103617890.352          -5.358          34.500    25304626.833   103617689.365          -5.648          14.000    25304626.712    99301038.631          -5.465          40.500  
G09  19742192.888   103746085.0211       -432.255          52.000    19742192.370          46.000                                                                    19742190.982    80841034.825        -336.822          46.000                                                                  
G12  21995962.613   115589802.148        2947.736          47.750    21995962.502          37.000    21995960.696    90070347.913        2296.932          42.500    21995960.577    90069951.916        2296.940          37.000                                                                  
G14  24860388.110   130642934.0031       3523.340          36.000    24860387.422          15.250                                                                    24860385.396   101799688.0061       2745.455          15.250                                                                  
G15  21619815.575   113613019.9891      -2595.020          50.250    21619815.597          41.500    21619813.906    88529280.811       -2021.973          44.750    21619813.636    88529914.821       -2022.092          41.500                                                                  
G17  22392490.355   117672995.4191       -199.258          48.250    22392490.248          37.500    22392488.271    91693656.902        -155.199          42.750    22392488.261    91693148.906        -155.267          37.500                                                                  
G18  23286399.404   122370209.8031      -1591.421          41.750    23286398.586          24.000                                                                    23286396.659    95353406.214       -1240.057          24.000                                                                  
G22  23762706.467   124873844.3141        208.649          41.000    23762705.475          25.750                                                                    23762701.944    97304765.5961        162.577          25.750                                                                  
G24  20298703.364   106669981.8391        642.962          52.000    20298703.444          47.500    20298703.887    83119458.6171        500.971          51.250    20298703.927    83119789.6081        501.009          47.500    20298705.407    79656700.472         480.135          57.500  
G25  25228107.471   132574833.2091       3687.542          34.750    25228106.756          13.500    25228108.435   103304810.0061       2873.058          33.500    25228108.665   103304773.0071       2873.429          13.500    25228110.065    99000687.1981       2753.477          41.000  
G26  24456474.342   128519709.280       -4059.214          40.500    24456473.967          23.000                                                                    24456474.270   100144645.632       -3163.015          23.000                                                                  
G28  24835855.060   130513602.485       -3169.951          38.000    24835854.394          16.500                                                                    24835852.245   101699274.472       -2470.088          16.500                                                                  
R06  22885033.746   122118527.274       -4351.810          43.250    22885035.150    94980796.653       -3384.660          41.750    22885036.069    94980796.636       -3384.647          40.750  
R07  20853638.576   111631176.643       -1654.578          49.250    20853639.805    86824225.854       -1286.898          47.750    20853639.873    86824234.854       -1286.894          48.000  
R08  22410782.872   120008169.472        2127.950          43.750    22410781.609    93339515.797        1655.091          39.250    22410779.395    93339527.816        1654.819          39.000  
R09  20025678.275   106936447.0341       1724.638          51.750    20025680.014    83172796.394        1341.357          49.750    20025680.756    83172796.405        1341.347          49.750  
R10  23835430.762   127056224.7351       3444.960          40.250    23835435.052    98821509.0611       2679.284          33.750    23835435.981    98821509.0341       2679.414          33.750  
R15  23541712.673   125800419.1641      -3410.994          37.750    23541717.217    97844773.190       -2652.720          38.250    23541716.539    97844773.199       -2652.995          37.750  
R16  19899083.373   106297475.173       -1605.584          52.000    19899085.915    82675397.448       -1248.738          49.750    19899086.348    82675569.450       -1248.761          49.750  
R17  22015640.826   117809383.8011      -1882.530          44.250    22015642.216    91629525.002       -1464.199          44.750    22015642.607    91629525.012       -1464.375          44.500  
R18  21036393.253   112293676.7841       2022.389          48.500    21036396.941    87339712.4861       1572.905          48.000    21036396.970    87339712.4871       1572.921          47.500  
R19  23660397.690   126566607.0061       4499.446          39.750    23660399.580    98440795.2261       3499.546          37.750    23660399.349    98440797.2581       3499.690          38.250  
E11  27714881.331   145643502.085       -1886.307          38.000    27714880.574   108758671.574       -1408.687          40.750    27714876.120   111595854.040       -1445.248          38.500    27714878.163   110746270.449       -1434.353          42.750  
E20  39815717.988   209232873.7481        588.619          44.250    39815719.720   156245121.9211        439.436          43.750    39815715.959   160320884.514         451.039          44.250    39815717.480   159100355.939         447.550          47.000  
> 2012 12 15 00 01 30.0000000  0 24
G01  25304718.717   132976525.2011        -25.472          35.500    25304718.159          14.000    25304720.427   103618272.2981        -19.699          33.750    25304720.290   103618071.2891        -19.824          14.000    25304720.768    99301404.6631        -19.126          41.500  
G09  19744706.090   103759292.5161       -448.150          52.000    19744705.567          45.750                                                                    19744704.271    80851326.380        -349.209          45.750                                                                  
G12  21979166.217   115501535.555        2936.679          47.750    21979166.115          37.000    21979164.104    90001568.763        2288.232          42.750    21979164.098    90001172.755        2288.322          37.000                                                                  
G14  24840283.645   130537287.2281       3519.916          36.250    24840282.930          14.000                                                                    24840281.442   101717365.7861       2742.816          14.000                                                                  
G15  21634667.672   113691068.9071      -2608.229          49.750    21634667.694          41.000    21634665.891    88590098.140       -2032.358          44.750    21634665.933    88590732.149       -2032.384          41.000                                                                  
G17  22393683.079   117679262.5981       -218.541          48.000    22393682.963          37.000    22393680.807    91698540.422        -170.344          43.000    22393680.866    91698032.427        -170.291          37.000                                                                  
G18  23295525.506   122418165.9371      -1605.904          41.750    23295524.679          23.750                                                                    23295523.066    95390774.590       -1251.347          23.750                                                                  
G22  23761567.272   124867857.567         190.590          41.250    23761566.298          25.750                                                                    23761563.053    97300100.590         148.522          25.750                                                                  
G24  20295069.104   106650883.366         630.321          52.000    20295069.184          47.500    20295069.660    83104576.690         491.157          50.750    20295069.616    83104907.681         491.161          47.500    20295071.065    79642438.626         470.697          57.750  
G25  25207062.919   132464247.2111       3684.936          36.250    25207062.137          14.000    25207064.717   103218639.0961       2871.431          34.000    25207064.932   103218602.0921       2871.368          14.000    25207066.457    98918106.7631       2751.834          41.000  
G26  24479656.364   128641526.576       -4061.923          38.500    24479656.083          17.750                                                                    24479655.049   100239568.196       -3165.130          17.750                                                                  
G28  24853955.971   130608725.219       -3171.677          38.000    24853955.292          16.250                                                                    24853953.167   101773396.089       -2471.424          16.250                                                                  
R06  22909516.081   122249170.981       -4357.647          42.250    22909518.166    95082408.409       -3389.464          41.250    22909518.766    95082408.417       -3389.384          41.250  
R07  20862983.554   111681198.180       -1680.152          50.000    20862983.993    86863131.471       -1306.788          47.250    20862984.518    86863140.463       -1306.844          48.000  
R08  22398926.571   119944681.9991       2104.663          43.750    22398925.409    93290136.6451       1636.874          38.750    22398923.089    93290148.6601       1636.976          39.000  
R09  20016023.063   106884887.9571       1712.655          51.500    20016024.350    83132694.882        1332.043          49.250    20016025.097    83132694.894        1332.073          49.750  
R10  23816046.451   126952899.7601       3443.361          38.750    23816053.301    98741145.2211       2678.089          33.750    23816052.601    98741145.1741       2678.245          34.000  
R15  23560866.241   125902772.7741      -3412.799          38.750    23560870.926    97924381.563       -2654.233          38.750    23560870.806    97924381.590       -2654.249          37.250  
R16  19908134.790   106345826.126       -1617.713          52.000    19908137.160    82713003.733       -1258.243          49.500    19908137.780    82713175.742       -1258.260          49.750  
R17  22026265.371   117866232.5831      -1907.197          45.500    22026265.570    91673740.694       -1483.429          45.000    22026266.212    91673740.687       -1483.456          44.750  
R18  21025096.215   112233373.8111       1997.856          48.750    21025099.928    87292810.184        1553.938          47.250    21025099.881    87292810.188        1553.850          47.500  
R19  23635170.231   126431653.7651       4497.496          39.750    23635171.686    98335831.6001       3498.009          40.250    23635172.436    98335833.6011       3498.042          40.250  
E11  27725681.100   145700259.021       -1897.312          39.000    27725681.335   108801055.001       -1416.891          41.250    27725676.779   111639343.149       -1453.912          39.000    27725678.849   110789428.461       -1442.822          43.250  
E20  39812399.604   209215436.471         573.892          44.500    39812401.427   156232100.548         428.591          43.750    39812397.778   160307523.463         439.709          44.250    39812399.173   159087096.602         436.402          47.000  
> 2012 12 15 00 02  0.0000000  0 24
G01  25304916.708   132977563.080         -43.816          32.500    25304916.105          13.500    25304917.796   103619081.067         -34.277          35.750    25304917.757   103618880.074         -34.150          13.500    25304917.604    99302179.732         -32.546          40.250  
G09  19747310.191   103772976.9941       -464.072          51.750    19747309.664          46.000                                                                    19747308.334    80861989.609        -361.612          46.000                                                                  
G12  21962432.834   115413601.333        2925.579          48.000    21962432.727          37.250    21962431.362    89933048.600        2279.677          43.000    21962430.723    89932652.591        2279.671          37.250                                                                  
G14  24820199.539   130431743.0231       3516.544          35.500    24820198.726          14.500                                                                    24820196.863   101635123.5151       2740.165          14.500                                                                  
G15  21649595.138   113769512.9191      -2621.330          49.500    21649595.155          41.000    21649593.399    88651223.343       -2042.670          45.000    21649593.291    88651857.342       -2042.596          41.000                                                                  
G17  22394985.804   117686108.8881       -237.836          48.000    22394985.693          37.250    22394983.856    91703875.205        -185.400          42.500    22394983.588    91703367.202        -185.329          37.250                                                                  
G18  23304733.774   122466556.0061      -1620.151          42.500    23304733.001          24.500                                                                    23304731.501    95428481.108       -1262.461          24.500                                                                  
G22  23760531.186   124862413.557         172.429          41.250    23760530.221          26.000                                                                    23760527.157    97295858.469         134.363          26.000                                                                  
G24  20291507.018   106632165.089         617.639          51.750    20291507.102          47.500    20291507.578    83089991.015         481.219          51.000    20291507.633    83090322.006         481.276          47.500    20291509.113    79628460.687         461.192          57.750  
G25  25186032.244   132353730.3551       3682.744          34.750    25186031.511          13.750    25186034.322   103132522.1021       2869.541          34.000    25186034.466   103132485.0991       2869.675          13.750    25186035.522    98835577.9631       2750.140          40.250  
G26  24502852.187   128763421.616       -4064.479          38.500    24502851.946          21.250                                                                    24502851.122   100334551.356       -3167.103          21.250                                                                  
G28  24872066.471   130703896.216       -3173.029          36.750    24872065.792          15.250                                                                    24872063.690   101847555.304       -2472.468          15.250                                                                  
R06  22934032.791   122379992.039       -4363.504          43.000    22934033.193    95184158.108       -3393.905          41.000    22934034.213    95184158.109       -3394.022          40.000  
R07  20872470.936   111731984.989       -1705.571          49.750    20872471.655    86902632.284       -1326.539          47.000    20872471.683    86902641.296       -1326.697          47.750  
R08  22387202.074   119881890.186        2081.478          44.250    22387199.396    93241298.549        1618.974          38.750    22387197.131    93241310.559        1619.030          38.500  
R09  20006434.233   106833685.3841       1700.776          51.500    20006436.009    83092870.670        1322.817          49.500    20006436.708    83092870.684        1322.790          49.750  
R10  23796673.011   126849623.9321       3441.824          41.000    23796679.169    98660819.6231       2677.066          34.250    23796678.170    98660819.6231       2676.762          35.250  
R15  23580031.171   126005180.9791      -3414.497          38.000    23580036.078    98004032.460       -2655.637          38.000    23580034.677    98004032.452       -2655.749          38.000  
R16  19917253.744   106394538.558       -1629.780          51.750    19917256.259    82750891.172       -1267.577          49.250    19917256.773    82751063.180       -1267.642          49.500  
R17  22037025.610   117923816.4511      -1931.688          45.500    22037026.327    91718528.130       -1502.356          43.250    22037025.759    91718528.123       -1502.355          43.250  
R18  21013937.524   112173807.7321       1973.271          48.750    21013941.260    87246481.031        1534.749          47.750    21013941.421    87246481.034        1534.637          47.500  
R19  23609953.833   126296761.4811       4495.376          40.750    23609954.658    98230915.3751       3496.403          39.000    23609954.430    98230917.3861       3496.426          39.000  
E11  27736544.659   145757347.245       -1908.329          37.500    27736545.147   108843685.799       -1425.002          41.000    27736541.019   111683086.086       -1462.237          40.000    27736542.638   110832838.367       -1451.119          43.500  
E20  39809165.683   209198440.950         559.152          44.500    39809167.384   156219409.084         417.476          44.250    39809164.160   160294500.918         428.456          44.250    39809165.090   159074173.196         425.149          47.250  
> 2012 12 15 00 02 30.0000000  0 24
G01  25305218.012   132979148.687         -62.031          35.000    25305217.351          15.000    25305219.674   103620316.604         -48.176          36.000    25305219.631   103620115.578         -48.351          15.000    25305219.757    99303363.7831        -46.184          40.750  
G09  19750005.019   103787138.4991       -480.023          52.000    19750004.496          46.000                                                                    19750003.184    80873024.545        -374.044          46.000                                                                  
G12  21945763.057   115326000.7211       2914.476          47.750    21945762.928          37.000    21945761.091    89864788.4011       2271.015          43.250    21945760.840    89864392.3931       2271.023          37.000                                                                  
G14  24800135.039   130326303.8531       3512.611          36.250    24800134.176          13.500                                                                    24800132.375   101552963.1271       2737.060          13.500                                                                  
G15  21664597.446   113848350.0651      -2634.455          50.000    21664597.454          41.000    21664595.740    88712654.870       -2052.860          44.750    21664595.482    88713288.872       -2052.820          41.000                                                                  
G17  22396398.920   117693534.3071       -257.188          48.250    22396398.809          37.250    22396396.766    91709661.249        -200.384          42.750    22396396.612    91709153.248        -200.408          37.250                                                                  
G18  23314023.994   122515378.1431      -1634.651          41.750    23314023.234          23.250                                                                    23314021.628    95466524.277       -1273.760          23.250                                                                  
G22  23759598.752   124857512.650         154.262          41.250    23759597.773          26.000                                                                    23759594.506    97292039.527         120.203          26.000                                                                  
G24  20288017.598   106613828.183         604.874          52.000    20288017.678          47.500    20288018.065    83075702.515         471.334          51.000    20288018.256    83076033.507         471.325          47.500    20288019.710    79614767.544         451.713          57.500  
G25  25165014.675   132243284.1991       3680.216          35.250    25165013.956          15.250    25165017.568   103046460.1511       2868.086          34.000    25165016.941   103046423.1711       2867.731          15.250    25165018.498    98753101.9441       2748.334          41.000  
G26  24526062.294   128885392.471       -4066.921          40.250    24526062.062          20.250                                                                    24526061.830   100429593.529       -3169.026          20.250                                                                  
G28  24890185.954   130799113.348       -3174.692          36.750    24890185.351          17.250                                                                    24890183.161   101921750.479       -2473.786          17.250                                                                  
R06  22958580.278   122510985.801       -4369.394          42.500    22958581.753    95286042.135       -3398.287          41.500    22958582.848    95286042.141       -3398.385          41.000  
R07  20882100.628   111783534.720       -1731.060          49.750    20882101.839    86942726.494       -1346.391          47.250    20882101.492    86942735.494       -1346.354          47.500  
R08  22375605.693   119819796.195        2058.102          43.500    22375603.887    93193003.226        1600.783          39.000    22375601.637    93193015.220        1600.802          39.000  
R09  19996912.780   106782839.8951       1688.906          51.500    19996913.898    83053324.188        1313.620          49.500    19996914.746    83053324.203        1313.634          49.500  
R10  23777308.505   126746398.3881       3439.907          40.250    23777313.304    98580533.1071       2675.438          33.750    23777313.531    98580533.1201       2675.375          33.750  
R15  23599205.376   126107642.7631      -3416.238          38.500    23599210.685    98083724.964       -2657.124          38.250    23599209.380    98083724.978       -2657.255          37.250  
R16  19926440.652   106443611.844       -1641.830          51.750    19926442.995    82789059.269       -1276.985          49.500    19926443.413    82789231.272       -1276.966          49.500  
R17  22047922.643   117982132.9981      -1956.078          43.750    22047924.285    91763885.4471      -1521.334          42.750    22047923.725    91763885.4641      -1521.418          43.000  
R18  21002917.434   112114981.4831       1948.459          49.000    21002920.730    87200727.287        1515.476          46.750    21002920.857    87200727.289        1515.512          47.250  
R19  23584749.460   126161934.4081       4493.088          42.250    23584749.650    98126049.8641       3494.612          38.000    23584750.004    98126051.8581       3494.703          38.250  
E11  27747471.470   145814765.252       -1919.329          37.500    27747471.235   108886562.876       -1433.434          40.250    27747467.554   111727081.692       -1470.795          40.750    27747468.887   110876499.034       -1459.625          43.500  
E20  39806015.634   209181887.685         544.319          44.750    39806017.220   156207047.858         406.506          44.000    39806013.951   160281817.220         417.174          44.000    39806015.069   159061586.062         413.959          47.000  
> 2012 12 15 00 03  0.0000000  0 24
G01  25305624.387   132981282.2621        -80.277          34.750    25305623.699          15.750    25305626.268   103621979.1571        -62.348          35.000    25305625.306   103621778.1471        -62.571          15.750    25305625.489    99304957.091         -59.966          40.250  
G09  19752790.671   103801776.8021       -495.877          51.750    19752790.153          45.750                                                                    19752788.754    80884431.012        -386.399          45.750                                                                  
G12  21929156.935   115238735.077        2903.252          48.250    21929156.792          37.500    21929155.068    89796789.211        2262.281          42.750    21929154.853    89796393.212        2262.271          37.500                                                                  
G14  24780091.586   130220971.6161       3509.285          36.500    24780090.670          14.000                                                                    24780088.448   101470886.0661       2734.564          14.000                                                                  
G15  21679673.894   113927577.7891      -2647.296          49.750    21679673.911          40.750    21679672.105    88774390.741       -2062.988          44.750    21679672.135    88775024.747       -2062.826          40.750                                                                  
G17  22397922.187   117701538.934        -276.433          47.500    22397922.058          37.000    22397919.957    91715898.625        -215.446          42.500    22397919.834    91715390.622        -215.405          37.000                                                                  
G18  23323396.474   122564630.2791      -1649.363          41.000    23323395.741          23.000                                                                    23323393.648    95504902.524       -1285.201          23.000                                                                  
G22  23758769.466   124853154.1961        136.158          41.250    23758768.527          26.250                                                                    23758765.342    97288643.3161        106.101          26.250                                                                  
G24  20284600.966   106595872.895         592.158          52.250    20284601.046          47.500    20284601.469    83061711.376         461.416          51.000    20284601.440    83062042.369         461.423          47.500    20284602.979    79601359.370         442.190          57.500  
G25  25144011.502   132132910.1451       3677.963          35.000    25144010.809          15.000    25144013.882   102960454.4251       2865.785          34.500    25144013.350   102960417.4211       2865.929          15.000    25144014.951    98670679.7601       2746.450          41.250  
G26  24549286.014   129007437.080       -4069.462          37.500    24549285.755          18.750                                                                    24549284.987   100524693.287       -3171.022          18.750                                                                  
G28  24908313.212   130894375.576       -3176.171          36.500    24908312.582          15.500                                                                    24908311.078   101995980.805       -2474.950          15.500                                                                  
R06  22983161.136   122642148.5971      -4374.846          44.000    22983161.989    95388057.6241      -3402.613          40.500    22983161.766    95388057.6461      -3402.643          40.250  
R07  20891873.108   111835844.717       -1756.207          49.750    20891873.771    86983412.043       -1366.034          47.750    20891873.852    86983421.039       -1365.973          47.750  
R08  22364141.253   119758403.5231       2034.754          44.250    22364139.800    93145253.3631       1582.543          39.750    22364137.202    93145265.3681       1582.644          39.000  
R09  19987457.916   106732352.3051       1676.932          51.500    19987459.247    83014056.0691       1304.317          49.500    19987460.121    83014056.0801       1304.322          49.750  
R10  23757952.664   126643223.9961       3438.427          40.250    23757957.657    98500286.3801       2674.472          33.500    23757958.332    98500286.4081       2674.103          34.500  
R15  23618387.991   126210157.4611      -3417.882          37.750    23618394.095    98163458.619       -2658.530          37.500    23618393.119    98163458.625       -2658.586          36.750  
R16  19935694.947   106493045.372       -1653.773          51.750    19935697.115    82827507.560       -1286.291          49.250    19935697.400    82827679.564       -1286.295          49.500  
R17  22058959.302   118041179.417       -1980.313          45.750    22058958.450    91809810.416       -1540.266          43.750    22058958.611    91809810.412       -1540.325          43.750  
R18  20992036.621   112056898.2551       1923.686          48.750    20992040.282    87155551.4711       1496.145          47.000    20992039.937    87155551.4681       1496.196          47.250  
R19  23559558.730   126027176.6461       4490.755          41.250    23559559.690    98021238.2961       3492.718          40.000    23559559.208    98021240.3121       3492.634          40.000  
E11  27758460.112   145872511.624       -1930.505          38.000    27758459.080   108929685.201       -1441.533          39.000    27758456.401   111771328.921       -1479.180          40.750    27758457.372   110920409.414       -1467.845          43.000  
E20  39802950.191   209165777.152         529.589          44.750    39802951.355   156195017.240         395.559          44.000    39802947.979   160269472.773         405.729          44.000    39802949.361   159049335.589         402.710          47.000  
> 2012 12 15 00 03 30.0000000  0 24
G01  25306134.640   132983963.741         -98.494          34.750    25306134.010          14.000    25306135.929   103624068.632         -76.685          34.250    25306135.451   103623867.670         -76.756          14.000    25306136.721    99306959.5211        -73.595          41.750  
G09  19755666.904   103816891.8851       -511.804          51.750    19755666.390          45.750                                                                    19755665.050    80896209.002        -398.812          45.750                                                                  
G12  21912614.856   115151806.255        2891.965          48.250    21912614.718          37.500    21912612.887    89729052.473        2253.480          43.000    21912612.693    89728656.476        2253.479          37.500                                                                  
G14  24760068.389   130115748.4591       3505.720          37.000    24760067.388          14.000                                                                    24760065.041   101388894.0001       2731.722          14.000                                                                  
G15  21694824.580   114007194.5311      -2660.359          49.500    21694824.593          40.500    21694822.842    88836429.748       -2072.996          44.500    21694822.654    88837063.753       -2073.012          40.500                                                                  
G17  22399555.060   117710121.611        -295.761          47.750    22399554.931          37.250    22399553.165    91722586.416        -230.295          42.500    22399553.014    91722078.426        -230.465          37.250                                                                  
G18  23332850.436   122614310.0171      -1663.343          41.250    23332849.743          23.750                                                                    23332847.901    95543613.994       -1296.112          23.750                                                                  
G22  23758043.577   124849338.070         118.193          42.000    23758042.643          26.500                                                                    23758039.272    97285669.663          92.101          26.500                                                                  
G24  20281256.896   106578300.176         579.389          52.250    20281256.976          47.750    20281257.350    83048018.345         451.496          51.000    20281257.498    83048349.338         451.470          47.750    20281258.974    79588236.883         432.658          57.500  
G25  25123022.373   132022609.5831       3675.538          35.500    25123021.739          14.500    25123023.706   102874505.9341       2863.779          34.500    25123024.059   102874468.9281       2864.048          14.500    25123025.821    98588312.4661       2744.690          42.000  
G26  24572524.571   129129553.319       -4071.743          40.000    24572524.294          21.250                                                                    24572524.000   100619848.739       -3172.786          21.250                                                                  
G28  24926449.764   130989681.205       -3177.464          37.500    24926449.147          16.000                                                                    24926446.978   102070244.930       -2475.944          16.000                                                                  
R06  23007770.881   122773475.551       -4380.271          42.250    23007772.538    95490200.781       -3406.934          41.000    23007773.187    95490200.783       -3406.858          40.750  
R07  20901786.438   111888912.152       -1781.537          49.500    20901786.873    87024686.694       -1385.687          47.250    20901786.996    87024695.699       -1385.657          47.500  
R08  22352807.898   119697714.397        2011.218          44.500    22352806.468    93098050.714        1564.235          39.250    22352803.677    93098062.721        1564.200          39.500  
R09  19978070.342   106682223.1221       1664.964          51.750    19978071.804    82975066.715        1294.982          49.750    19978072.580    82975066.727        1294.976          49.750  
R10  23738606.814   126540101.2331       3436.592          39.500    23738613.248    98420079.8381       2672.924          34.500    23738612.966    98420079.8251       2672.925          34.500  
R15  23637582.921   126312724.5311      -3419.750          38.000    23637587.981    98243233.016       -2659.663          36.750    23637587.174    98243233.024       -2659.839          37.250  
R16  19945015.572   106542837.8531      -1665.701          51.500    19945018.735    82866235.0391      -1295.533          49.250    19945018.779    82866407.0481      -1295.546          49.500  
R17  22070127.495   118100953.001       -2004.482          45.000    22070128.200    91856300.957       -1559.089          42.750    22070127.808    91856300.964       -1559.063          42.750  
R18  20981295.377   111999560.7141       1898.819          48.750    20981299.032    87110955.616        1476.848          47.250    20981298.733    87110955.618        1476.812          47.250  
R19  23534379.885   125892492.2731       4488.257          40.750    23534381.069    97916483.7951       3490.666          38.250    23534380.310    97916485.7721       3490.770          38.000  
E11  27769510.628   145930584.835       -1941.093          37.500    27769510.132   108973051.608       -1449.464          39.250    27769507.207   111815826.613       -1487.482          40.250    27769508.110   110964568.352       -1476.061          42.750  
E20  39799968.434   209150109.8261        514.808          44.750    39799970.053   156183317.6101        384.366          43.750    39799966.931   160257467.928         394.539          44.750    39799967.978   159037422.141         391.461          47.250  
> 2012 12 15 00 04  0.0000000  0 24
G01  25306749.818   132987193.2311       -116.578          35.250    25306749.242          14.750    25306750.153   103626585.1241        -90.763          34.500    25306749.825   103626384.1221        -90.851          14.750    25306750.979    99309371.135         -87.085          40.750  
G09  19758634.024   103832483.7821       -527.666          52.000    19758633.510          45.500                                                                    19758632.097    80908358.530        -411.170          45.500                                                                  
G12  21896137.165   115065215.336        2880.716          48.500    21896137.000          37.750    21896134.867    89661579.073        2244.676          43.250    21896135.019    89661183.064        2244.705          37.750                                                                  
G14  24740066.346   130010636.6501       3501.743          36.000    24740065.394          13.500                                                                    24740063.106   101306988.6771       2728.639          13.500                                                                  
G15  21710048.640   114087198.5491      -2673.226          49.500    21710048.657          40.500    21710047.374    88898770.540       -2083.048          44.250    21710046.838    88899404.542       -2083.035          40.500                                                                  
G17  22401298.663   117719283.1681       -315.040          47.750    22401298.547          37.000    22401296.401    91729725.3171       -245.565          42.500    22401296.423    91729217.3141       -245.493          37.000                                                                  
G18  23342384.939   122664415.1351      -1677.140          41.250    23342384.313          24.000                                                                    23342382.854    95582656.906       -1306.872          24.000                                                                  
G22  23757420.563   124846064.273         100.162          41.750    23757419.611          26.000                                                                    23757415.968    97283118.649          78.050          26.000                                                                  
G24  20277985.836   106561110.078         566.637          52.250    20277985.916          47.750    20277986.171    83034623.464         441.527          51.000    20277986.359    83034954.454         441.539          47.750    20277987.799    79575400.120         423.139          57.500  
G25  25102047.453   131912383.9151       3672.844          36.250    25102046.877          15.000    25102049.168   102788615.8111       2861.948          32.250    25102048.773   102788578.8241       2861.959          15.000    25102050.401    98506001.1381       2742.694          41.750  
G26  24595774.681   129251739.124       -4073.976          37.500    24595774.310          17.000                                                                    24595773.799   100715058.523       -3174.516          17.000                                                                  
G28  24944593.626   131085028.716       -3178.812          37.500    24944592.996          16.250                                                                    24944590.908   102144541.700       -2476.982          16.250                                                                  
R06  23032412.182   122904962.643       -4385.527          43.000    23032413.080    95592468.538       -3411.024          40.250    23032413.089    95592468.517       -3411.030          39.500  
R07  20911840.539   111942734.7311      -1806.638          49.500    20911841.426    87066548.6841      -1405.160          47.000    20911841.533    87066557.6851      -1405.160          47.250  
R08  22341607.329   119637731.2931       1987.627          43.250    22341605.096    93051397.2131       1545.784          39.250    22341602.040    93051409.1981       1546.199          38.500  
R09  19968749.907   106632453.2521       1653.032          52.000    19968751.539    82936356.811        1285.686          50.000    19968752.543    82936356.826        1285.707          50.000  
R10  23719270.838   126437030.4951       3434.759          39.250    23719277.839    98339913.7361       2671.560          34.500    23719276.480    98339913.7651       2671.229          34.500  
R15  23656786.371   126415343.1401      -3421.496          38.250    23656792.479    98323047.525       -2661.281          36.000    23656790.785    98323047.547       -2661.162          36.500  
R16  19954404.235   106592988.845       -1677.609          51.250    19954406.700    82905241.366       -1304.852          49.250    19954407.076    82905413.376       -1304.810          49.250  
R17  22081433.439   118161451.0081      -2028.567          44.000    22081433.901    91903354.982       -1577.930          43.000    22081433.827    91903355.002       -1577.815          43.250  
R18  20970694.355   111942971.8241       1873.829          49.000    20970697.997    87066942.050        1457.335          46.750    20970697.562    87066942.046        1457.350          47.250  
R19  23509216.452   125757885.7791       4485.498          41.500    23509217.925    97811789.8571       3488.638          39.750    23509217.958    97811791.8911       3488.587          40.000  
E11  27780623.871   145988983.4301      -1952.151          36.500    27780623.366   109016660.9331      -1457.765          39.000    27780620.084   111860573.561       -1495.704          40.250    27780620.897   111008974.649       -1484.365          42.750  
E20  39797071.623   209134886.117         500.006          44.500    39797073.058   156171949.277         373.396          44.000    39797069.995   160245803.038         383.175          44.500    39797071.051   159025846.051         380.272          47.250  
> 2012 12 15 00 04 30.0000000  0 24
G01  25307467.860   132990970.765        -134.981          34.750    25307467.288          15.000    25307470.251   103629528.607        -105.137          34.000    25307468.410   103629327.610        -105.182          15.000    25307469.336    99312191.9711       -100.761          40.750  
G09  19761691.682   103848552.4601       -543.499          52.000    19761691.164          45.500                                                                    19761689.868    80920879.5731       -423.506          45.500                                                                  
G12  21879724.165   114978963.9741       2869.388          48.250    21879724.000          37.500    21879722.064    89594370.2591       2235.892          43.250    21879721.942    89593974.2581       2235.887          37.500                                                                  
G14  24720085.045   129905638.4401       3498.082          36.500    24720084.142          13.750                                                                    24720082.815   101225171.9081       2725.763          13.750                                                                  
G15  21725346.350   114167587.9531      -2686.046          49.500    21725346.367          40.500    21725344.768    88961411.628       -2093.001          44.500    21725344.500    88962045.631       -2093.021          40.500                                                                  
G17  22403152.285   117729023.3311       -334.279          48.000    22403152.156          37.000    22403149.476    91737315.064        -260.487          42.750    22403149.889    91736807.061        -260.477          37.000                                                                  
G18  23352000.414   122714943.5961      -1691.230          41.250    23351999.838          22.750                                                                    23351997.978    95622029.701       -1317.855          22.750                                                                  
G22  23756900.818   124843332.710          82.017          42.000    23756899.853          26.000                                                                    23756896.110    97280990.183          63.904          26.000                                                                  
G24  20274787.591   106544303.278         553.864          52.250    20274787.675          47.500    20274787.975    83021527.247         431.594          51.250    20274788.138    83021858.239         431.581          47.500    20274789.551    79562849.580         413.598          57.500  
G25  25081086.042   131802234.6411       3670.484          35.750    25081085.358          15.250    25081087.553   102702785.2231       2860.102          34.750    25081087.819   102702748.2071       2860.090          15.250    25081089.545    98423746.8141       2740.881          41.250  
G26  24619039.690   129373992.478       -4076.171          40.500    24619039.301          22.000                                                                    24619038.869   100810320.840       -3176.240          22.000                                                                  
G28  24962745.308   131180416.667       -3180.134          36.500    24962744.696          14.500                                                                    24962742.521   102218869.979       -2477.993          14.500                                                                  
R06  23057080.912   123036605.420       -4390.498          41.750    23057082.552    95694857.319       -3414.963          41.250    23057083.902    95694857.333       -3414.898          41.000  
R07  20922036.230   111997309.517       -1831.637          49.250    20922036.797    87108995.715       -1424.692          47.250    20922036.743    87109004.713       -1424.625          47.500  
R08  22330537.175   119578457.530        1963.948          43.500    22330534.445    93005295.381        1527.634          39.000    22330532.958    93005307.394        1527.419          38.500  
R09  19959497.190   106583043.3211       1640.970          51.750    19959498.603    82897926.877        1276.310          49.750    19959499.311    82897926.892        1276.326          50.000  
R10  23699945.818   126334013.0861       3433.096          40.250    23699951.715    98259789.1521       2669.892          33.000    23699950.306    98259789.1581       2670.116          34.000  
R15  23675999.457   126518012.4601      -3423.052          37.750    23676003.951    98402901.491       -2662.614          37.250    23676004.037    98402901.472       -2662.370          37.250  
R16  19963859.394   106643497.321       -1689.493          51.750    19963862.036    82944525.741       -1314.122          49.250    19963862.447    82944697.748       -1314.119          49.250  
R17  22092873.998   118222671.0061      -2052.645          45.000    22092874.733    91950970.521       -1596.458          45.000    22092875.659    91950970.523       -1596.513          44.500  
R18  20960234.150   111887134.6811       1848.723          49.250    20960237.630    87023513.175        1437.907          47.250    20960237.677    87023513.187        1437.884          47.500  
R19  23484067.246   125623361.0781       4482.827          39.500    23484070.318    97707159.5231       3486.680          36.750    23484068.198    97707161.5571       3486.558          38.000  
E11  27791797.826   146047705.867       -1962.818          37.750    27791797.222   109060512.119       -1465.737          38.750    27791794.360   111905568.671       -1504.048          40.000    27791795.344   111053627.215       -1492.537          42.250  
E20  39794259.069   209120106.476         485.177          44.750    39794260.663   156160912.508         362.328          44.000    39794257.425   160234478.366         371.798          44.500    39794258.615   159014607.589         368.963          47.250  
> 2012 12 15 00 05  0.0000000  0 24
G01  25308291.067   132995296.3321       -153.375          35.500    25308290.522          15.250    25308292.574   103632899.1461       -119.549          34.750    25308291.533   103632698.1441       -119.496          15.250    25308292.606    99315422.061        -114.496          40.500  
G09  19764840.404   103865097.7661       -559.502          51.750    19764839.886          45.500                                                                    19764838.329    80933772.015        -435.978          45.500                                                                  
G12  21863375.916   114893053.570        2857.917          48.500    21863375.764          38.000    21863373.974    89527427.106        2226.936          43.250    21863373.574    89527031.114        2226.950          38.000                                                                  
G14  24700126.515   129800756.0751       3493.961          36.750    24700125.760          14.500                                                                    24700124.224   101143445.3871       2722.540          14.500                                                                  
G15  21740716.816   114248360.5911      -2698.794          49.500    21740716.829          40.250    21740715.336    89024351.3331      -2102.939          44.750    21740715.019    89024985.3411      -2102.955          40.250                                                                  
G17  22405115.551   117739341.2681       -353.540          47.750    22405115.426          37.000    22405113.404    91745355.014        -275.423          42.750    22405113.302    91744847.024        -275.488          37.000                                                                  
G18  23361695.946   122765893.2421      -1705.346          41.250    23361695.388          23.000                                                                    23361692.764    95661730.6971      -1328.833          23.000                                                                  
G22  23756483.775   124841143.019          63.922          40.500    23756482.805          25.500                                                                    23756479.690    97279283.900          49.800          25.500                                                                  
G24  20271662.523   106527880.871         541.002          52.000    20271662.607          47.750    20271663.051    83008730.561         421.595          51.250    20271663.051    83009061.552         421.559          47.750    20271664.500    79550586.0861        404.035          57.500  
G25  25060140.653   131692163.1211       3667.791          36.750    25060139.947          17.000    25060142.824   102617015.2071       2857.988          34.500    25060142.037   102616978.2071       2858.021          17.000    25060143.808    98341550.5511       2738.983          41.500  
G26  24642315.719   129496311.359       -4078.364          35.500    24642315.357          15.500                                                                    24642315.395   100905634.273       -3177.940          15.500                                                                  
G28  24980904.669   131275844.005       -3181.539          37.500    24980903.941          15.750                                                                    24980901.919   102293228.996       -2479.126          15.750                                                                  
R06  23081778.988   123168399.776       -4395.670          41.750    23081781.359    95797364.010       -3418.736          41.250    23081782.458    95797364.013       -3418.846          41.000  
R07  20932370.705   112052633.691       -1856.646          49.500    20932371.733    87152025.594       -1444.077          47.250    20932371.790    87152034.598       -1444.046          47.500  
R08  22319600.873   119519895.1741       1940.173          44.000    22319599.114    92959746.9031       1508.942          39.250    22319597.252    92959758.8991       1509.010          39.000  
R09  19950311.637   106533994.3331       1628.951          51.750    19950313.126    82859777.6691       1266.955          49.750    19950314.093    82859777.6841       1266.949          50.250  
R10  23680629.407   126231049.0991       3431.158          40.750    23680633.558    98179706.1041       2668.640          33.500    23680634.887    98179706.0901       2668.587          34.500  
R15  23695221.888   126620731.6591      -3424.750          37.500    23695227.560    98482794.215       -2663.769          38.250    23695226.407    98482794.220       -2663.878          37.250  
R16  19973381.400   106694362.227       -1701.459          51.500    19973383.747    82984087.321       -1323.354          49.250    19973384.445    82984259.323       -1323.317          49.000  
R17  22104447.890   118284609.9191      -2076.709          44.000    22104448.672    91999145.207       -1615.053          43.750    22104449.076    91999145.196       -1615.171          43.500  
R18  20949915.263   111832052.0081       1823.454          49.000    20949918.965    86980671.1131       1418.222          47.750    20949918.934    86980671.1131       1418.310          47.750  
R19  23458938.835   125488922.5161       4479.736          43.250    23458938.402    97602596.2051       3484.273          40.500    23458938.632    97602598.2041       3484.290          40.750  
E11  27803034.257   146106750.665       -1973.463          38.000    27803033.077   109104604.009       -1473.657          38.250    27803030.005   111950810.791       -1512.184          39.250    27803031.185   111098524.904       -1500.646          41.750  
E20  39791531.171   209105771.275         470.422          44.750    39791532.946   156150207.659         351.279          44.500    39791529.440   160223494.250         360.507          44.500    39791530.706   159003707.102         357.734          47.500  
> 2012 12 15 00 05 30.0000000  0 24
G01  25309218.217   133000170.054        -171.621          33.750    25309217.659          14.500    25309219.929   103636696.842        -133.494          34.750    25309219.444   103636495.851        -133.738          14.500    25309220.066    99319061.4901       -128.015          40.750  
G09  19768079.377   103882119.7541       -575.365          51.750    19768078.859          45.500                                                                    19768077.545    80947035.898        -448.334          45.500                                                                  
G12  21847092.831   114807484.997        2846.513          48.250    21847092.662          38.000    21847090.914    89460750.306        2218.076          43.250    21847090.482    89460354.312        2218.066          38.000                                                                  
G14  24680190.872   129695991.9031       3489.976          36.500    24680190.099          14.750                                                                    24680188.192   101061810.9701       2719.490          14.750                                                                  
G15  21756159.858   114329514.6871      -2711.444          49.250    21756159.862          40.250    21756158.560    89087588.293       -2112.873          44.500    21756158.107    89088222.292       -2112.813          40.250                                                                  
G17  22407188.769   117750236.7001       -372.849          47.250    22407188.658          36.750    22407186.684    91753844.966        -290.503          42.750    22407186.726    91753336.978        -290.536          36.750                                                                  
G18  23371470.558   122817261.7261      -1719.261          41.250    23371470.053          23.000                                                                    23371467.941    95701758.054       -1339.690          23.000                                                                  
G22  23756170.338   124839494.8331         45.947          41.250    23756169.382          25.250                                                                    23756165.859    97277999.6001         35.803          25.250                                                                  
G24  20268610.431   106511843.0411        528.221          51.750    20268610.515          47.500    20268611.086    82996233.5471        411.586          51.250    20268611.110    82996564.5361        411.599          47.500    20268612.595    79538609.782         394.439          57.250  
G25  25039209.227   131582170.7501       3665.051          35.000    25039208.503          14.250    25039211.761   102531306.8541       2855.974          34.250    25039211.306   102531269.8291       2855.909          14.250    25039212.786    98259413.3991       2737.013          41.500  
G26  24665604.549   129618693.686       -4080.455          40.500    24665604.241          21.500                                                                    24665604.048   101000997.152       -3179.568          21.500                                                                  
G28  24999070.876   131371309.123       -3182.840          36.250    24999070.197          14.750                                                                    24999068.503   102367617.376       -2480.115          14.750                                                                  
R06  23106505.358   123300340.980       -4400.469          42.250    23106507.229    95899984.970       -3422.645          41.250    23106508.380    95899984.978       -3422.554          40.750  
R07  20942845.809   112108704.874       -1881.491          50.000    20942846.292    87195636.488       -1463.373          47.250    20942846.405    87195645.485       -1463.331          47.250  
R08  22308798.528   119462046.529        1916.320          44.000    22308796.939    92914753.520        1490.368          39.500    22308794.787    92914765.518        1490.415          39.500  
R09  19941194.339   106485306.6351       1616.885          52.000    19941195.392    82821909.460        1257.563          49.750    19941196.281    82821909.475        1257.567          50.000  
R10  23661323.694   126128139.5841       3429.633          40.250    23661329.553    98099665.4331       2667.411          34.000    23661329.341    98099665.4441       2667.607          34.500  
R15  23714454.962   126723500.5101      -3426.370          37.750    23714458.598    98562725.524       -2664.903          38.000    23714458.502    98562725.522       -2664.966          37.750  
R16  19982970.062   106745583.179       -1713.345          51.500    19982972.730    83023925.825       -1332.569          49.000    19982973.245    83024097.837       -1332.545          49.250  
R17  22116159.298   118347265.0181      -2100.398          46.250    22116157.615    92047876.922       -1633.787          41.000    22116156.352    92047876.943       -1633.750          42.000  
R18  20939738.004   111777726.5281       1798.221          49.000    20939741.598    86938417.978        1398.569          47.500    20939742.026    86938417.979        1398.602          48.000  
R19  23433820.735   125354574.1321       4476.698          40.000    23433823.117    97498102.9981       3481.963          38.500    23433821.930    97498105.0091       3481.948          39.000  
E11  27814331.164   146166116.349       -1984.318          37.000    27814329.683   109148935.547       -1481.717          38.250    27814327.313   111996298.793       -1520.319          39.250    27814328.046   111143666.607       -1508.725          41.750  
E20  39788888.100   209091880.8671        455.637          44.750    39788889.779   156139834.9221        340.173          44.250    39788886.707   160212850.919         349.147          45.000    39788887.449   158993144.799         346.420          47.500  
> 2012 12 15 00 06  0.0000000  0 24
G01  25310250.240   133005591.6471       -189.939          34.250    25310249.682          12.750    25310251.444   103640921.4011       -147.993          35.500    25310251.200   103640720.4011       -147.984          12.750    25310251.759    99323110.018        -141.815          41.000  
G09  19771409.429   103899618.0501       -591.240          52.000    19771408.911          45.750                                                                    19771407.384    80960670.933        -460.706          45.750                                                                  
G12  21830874.883   114722260.162        2835.060          48.250    21830874.714          38.000    21830873.177    89394341.325        2209.139          43.000    21830872.752    89393945.339        2209.140          38.000                                                                  
G14  24660277.918   129591348.0291       3485.958          36.500    24660277.158          15.250                                                                    24660275.158   100980270.2921       2716.338          15.250                                                                  
G15  21771675.234   114411048.4411      -2724.116          49.500    21771675.251          40.250    21771673.914    89151121.071       -2122.713          44.250    21771673.506    89151755.080       -2122.688          40.250                                                                  
G17  22409372.050   117761709.4841       -392.088          48.000    22409371.970          37.000    22409369.705    91762784.815        -305.538          42.500    22409369.853    91762276.818        -305.522          37.000                                                                  
G18  23381325.273   122869046.9181      -1733.263          41.500    23381324.759          23.750                                                                    23381323.393    95742110.093       -1350.588          23.750                                                                  
G22  23755959.418   124838387.871          27.905          41.000    23755958.484          25.000                                                                    23755954.829    97277137.049          21.745          25.000                                                                  
G24  20265632.072   106496190.493         515.316          52.000    20265632.156          47.750    20265632.530    82984036.752         401.536          51.000    20265632.527    82984367.745         401.546          47.750    20265633.998    79526921.191         384.798          57.500  
G25  25018294.127   131472258.9771       3662.336          36.250    25018293.448          15.500    25018295.502   102445661.3701       2853.820          34.250    25018295.640   102445624.3651       2853.720          15.500    25018297.545    98177336.4521       2734.899          42.000  
G26  24688904.100   129741137.494       -4082.453          36.000    24688903.779          18.000                                                                    24688905.123   101096407.872       -3181.151          18.000                                                                  
G28  25017244.505   131466810.633       -3183.991          37.250    25017243.848          15.000                                                                    25017241.919   102442034.143       -2481.061          15.000                                                                  
R06  23131258.428   123432425.358       -4405.026          42.500    23131259.055    96002717.232       -3426.290          39.750    23131259.759    96002717.212       -3426.200          39.250  
R07  20953459.118   112165519.853       -1906.234          49.500    20953459.706    87239825.877       -1482.625          47.000    20953459.703    87239834.884       -1482.659          47.000  
R08  22298130.529   119404914.3801       1892.507          44.000    22298127.335    92870317.3771       1471.765          38.500    22298125.307    92870329.3631       1471.934          39.000  
R09  19932144.528   106436981.1811       1604.762          51.750    19932145.632    82784323.000        1248.198          49.750    19932146.651    82784323.014        1248.164          50.000  
R10  23642028.932   126025285.1151       3427.633          40.750    23642032.714    98019667.5531       2665.476          33.750    23642033.949    98019667.5281       2665.896          34.250  
R15  23733696.051   126826317.8711      -3428.046          37.750    23733699.940    98642694.557       -2666.297          38.000    23733699.590    98642694.563       -2666.150          37.500  
R16  19992625.223   106797158.951       -1725.118          51.750    19992627.653    83064040.312       -1341.759          49.000    19992628.194    83064212.317       -1341.734          49.000  
R17  22127998.406   118410633.4701      -2124.146          45.000    22127999.603    92097163.510       -1651.999          43.750    22128000.236    92097163.536       -1652.124          43.750  
R18  20929703.625   111724161.1601       1772.801          49.000    20929707.379    86896756.036        1378.844          47.750    20929707.115    86896756.038        1378.861          47.750  
R19  23408724.789   125220320.355        4473.290          42.250    23408725.605    97393683.347        3479.485          40.000    23408726.017    97393685.361        3479.429          41.000  
E11  27825688.784   146225801.370       -1994.863          36.750    27825687.877   109193505.575       -1489.703          39.250    27825683.897   112042031.497       -1528.371          38.000    27825685.758   111189051.162       -1516.848          41.500  
E20  39786329.483   209078435.715         440.721          44.750    39786331.170   156129794.678         329.038          44.250    39786328.286   160202548.764         337.658          44.750    39786328.970   158982921.069         335.062          47.500  
> 2012 12 15 00 06 30.0000000  0 24
G01  25311386.175   133011561.442        -208.155          33.500    25311385.630          14.250    25311387.837   103645573.257        -162.541          34.500    25311387.224   103645372.230        -162.189          14.250    25311387.680    99327568.0361       -155.391          40.750  
G09  19774829.639   103917592.4641       -607.144          51.500    19774829.121          45.750                                                                    19774827.808    80974676.959        -473.098          45.750                                                                  
G12  21814722.907   114637380.5041       2823.523          48.750    21814722.747          38.000    21814721.150    89328201.3291       2200.133          43.250    21814720.617    89327805.3291       2200.149          38.000                                                                  
G14  24640387.964   129486826.716        3482.294          36.250    24640387.258          16.250                                                                    24640385.488   100898825.128        2713.495          16.250                                                                  
G15  21787262.462   114492959.6171      -2736.649          49.250    21787262.488          40.250    21787260.828    89214947.959       -2132.485          44.250    21787260.728    89215581.963       -2132.449          40.250                                                                  
G17  22411665.065   117773759.2511       -411.257          47.750    22411664.981          37.000    22411662.945    91772174.254        -320.559          42.500    22411662.843    91771666.254        -320.461          37.000                                                                  
G18  23391258.641   122921246.9531      -1746.912          41.250    23391258.132          22.750                                                                    23391256.678    95782785.406       -1361.227          22.750                                                                  
G22  23755851.670   124837821.795           9.834          41.000    23755850.705          25.750                                                                    23755847.569    97276695.930           7.670          25.750                                                                  
G24  20262726.718   106480923.917         502.415          52.000    20262726.798          47.500    20262727.390    82972140.712         391.531          51.000    20262727.394    82972471.705         391.494          47.500    20262728.897    79515520.816         375.198          57.500  
G25  24997394.014   131362429.2731       3659.558          36.250    24997393.366          15.750    24997395.160   102360079.7691       2851.493          34.500    24997395.527   102360042.7861       2851.578          15.750    24997397.535    98095320.7771       2732.849          42.250  
G26  24712216.263   129863640.580       -4084.442          40.000    24712215.942          18.500                                                                    24712215.070   101191864.899       -3182.703          18.500                                                                  
G28  25035424.014   131562346.911       -3184.986          36.500    25035423.424          14.250                                                                    25035421.801   102516478.024       -2481.838          14.250                                                                  
R06  23156036.605   123564648.422       -4409.606          42.750    23156036.808    96105557.382       -3429.779          38.750    23156037.350    96105557.383       -3429.719          38.750  
R07  20964211.141   112223075.831       -1930.859          50.000    20964211.492    87284591.623       -1501.752          47.250    20964211.934    87284600.622       -1501.814          47.250  
R08  22287595.028   119348502.668        1868.379          43.500    22287592.228    92826441.595        1453.270          38.250    22287590.849    92826453.612        1453.286          38.750  
R09  19923162.581   106389018.7381       1592.708          52.000    19923163.845    82747018.873        1238.818          49.750    19923164.749    82747018.890        1238.759          50.000  
R10  23622744.009   125922486.7161       3425.653          41.000    23622748.469    97939713.2741       2664.573          33.750    23622749.205    97939713.2701       2664.517          34.250  
R15  23752945.447   126929183.5181      -3429.564          38.250    23752949.420    98722701.153       -2667.477          38.500    23752949.286    98722701.154       -2667.412          37.750  
R16  20002346.504   106849088.747       -1736.914          51.250    20002349.005    83104430.146       -1350.871          49.250    20002349.591    83104602.161       -1350.908          49.000  
R17  22139974.651   118474712.4271      -2147.781          43.750    22139974.305    92147002.711       -1670.539          44.500    22139975.416    92147002.697       -1670.471          44.250  
R18  20919811.845   111671358.4331       1747.332          49.500    20919815.146    86855687.267        1359.039          47.750    20919815.305    86855687.271        1358.975          47.750  
R19  23383645.190   125086165.0401       4470.216          41.750    23383647.065    97289340.3741       3476.607          38.750    23383645.831    97289342.3981       3476.787          38.250  
E11  27837106.936   146285804.266       -2005.489          35.750    27837106.411   109238312.931       -1497.497          40.000    27837103.406   112088007.781       -1536.574          39.250    27837104.140   111234677.402       -1524.870          42.750  
E20  39783855.743   209065436.201         425.841          44.750    39783857.388   156120087.259         318.035          44.250    39783854.298   160192588.105         326.319          44.750    39783855.309   158973036.242         323.837          47.750  
> 2012 12 15 00 07  0.0000000  0 24
G01  25312626.029   133018078.8221       -226.431          34.250    25312625.515          13.750    25312627.844   103650651.5991       -176.327          34.250    25312627.760   103650450.5831       -176.406          13.750    25312628.140    99332434.789        -169.080          39.750  
G09  19778340.736   103936042.8971       -622.955          51.750    19778340.218          45.750                                                                    19778338.841    80989053.917        -485.422          45.750                                                                  
G12  21798636.614   114552847.140        2812.009          48.250    21798636.454          38.000    21798634.746    89262331.184        2191.243          43.000    21798634.545    89261935.183        2191.172          38.000                                                                  
G14  24620522.525   129382430.2521       3477.333          37.000    24620521.895          16.000                                                                    24620519.531   100817477.2841       2709.584          16.000                                                                  
G15  21802921.233   114575246.5671      -2749.173          49.250    21802921.255          40.250    21802919.709    89279067.652       -2142.197          44.500    21802919.403    89279701.657       -2142.211          40.250                                                                  
G17  22414067.785   117786385.7341       -430.578          47.250    22414067.696          37.000    22414065.860    91782013.062        -335.382          42.500    22414065.531    91781505.078        -335.513          37.000                                                                  
G18  23401270.205   122973858.8651      -1760.640          42.250    23401269.624          22.250                                                                    23401267.706    95823781.696       -1371.927          22.250                                                                  
G22  23755846.953   124837796.685          -8.206          40.750    23755845.961          26.000                                                                    23755842.958    97276676.364          -6.398          26.000                                                                  
G24  20259895.333   106466043.917         489.537          52.000    20259895.422          47.500    20259895.631    82960545.900         381.462          51.000    20259895.864    82960876.896         381.456          47.500    20259897.304    79504409.123         365.565          57.500  
G25  24976509.993   131252682.9871       3656.565          35.750    24976509.359          14.000    24976511.500   102274563.1571       2849.471          34.250    24976511.216   102274526.1761       2849.263          14.000    24976512.924    98013367.3841       2730.768          40.750  
G26  24735538.645   129986200.909       -4086.329          38.000    24735538.382          19.500                                                                    24735538.271   101287366.412       -3184.134          19.500                                                                  
G28  25053610.263   131657916.635       -3186.438          36.500    25053609.754          14.000                                                                    25053608.087   102590947.963       -2482.946          14.000                                                                  
R06  23180839.445   123697005.511       -4414.164          41.500    23180841.747    96208501.754       -3433.240          40.000    23180841.995    96208501.726       -3433.042          40.250  
R07  20975100.991   112281370.185       -1955.445          49.500    20975101.817    87329931.647       -1520.814          47.250    20975101.873    87329940.648       -1520.814          47.250  
R08  22277195.539   119292812.3521       1844.230          44.500    22277192.809    92783126.9151       1434.430          39.500    22277190.928    92783138.9001       1434.468          39.750  
R09  19914248.983   106341419.5261       1580.479          52.000    19914250.254    82709997.258        1229.348          50.000    19914251.110    82709997.274        1229.319          50.000  
R10  23603469.639   125819744.6971       3423.767          40.500    23603475.412    97859802.8481       2662.932          34.000    23603474.683    97859802.8391       2663.267          34.750  
R15  23772204.675   127032096.4021      -3431.194          37.250    23772208.683    98802744.525       -2668.619          37.750    23772207.844    98802744.537       -2668.852          37.750  
R16  20012134.079   106901372.140       -1748.636          51.500    20012136.606    83145094.999       -1359.994          48.750    20012137.015    83145267.007       -1360.019          49.000  
R17  22152082.285   118539499.1131      -2171.335          46.250    22152081.057    92197392.2911      -1688.823          41.500    22152080.549    92197392.2931      -1688.950          42.250  
R18  20910063.492   111619321.1771       1721.752          49.750    20910066.716    86815213.845        1339.191          47.250    20910066.962    86815213.849        1339.206          47.500  
R19  23358586.558   124952112.7611       4466.607          42.000    23358587.510    97185077.4421       3474.174          40.500    23358587.623    97185079.4371       3474.157          41.000  
E11  27848585.530   146346123.434       -2015.904          36.250    27848585.223   109283356.494       -1505.328          40.250    27848581.525   112134226.377       -1544.715          40.000    27848582.388   111280544.140       -1532.894          43.000  
E20  39781467.023   209052882.647         410.922          44.750    39781468.790   156110712.829         306.959          44.250    39781465.343   160182969.139         314.875          44.750    39781466.434   158963490.499         312.541          47.500  
> 2012 12 15 00 07 30.0000000  0 24
G01  25313970.854   133025144.163        -244.673          35.250    25313970.211          14.250    25313972.101   103656157.019        -190.531          33.750    25313972.479   103655956.012        -190.666          14.250    25313972.497    99337710.802        -182.545          39.750  
G09  19781942.214   103954969.3971       -638.840          51.750    19781941.691          46.000                                                                    19781940.402    81003801.837        -497.798          46.000                                                                  
G12  21782616.672   114468661.533        2800.372          48.250    21782616.543          38.000    21782615.025    89196732.016        2182.071          42.750    21782614.452    89196336.018        2182.107          38.000                                                                  
G14  24600680.268   129278160.7981       3474.045          36.500    24600679.647          14.250                                                                    24600677.686   100736228.3761       2707.059          14.250                                                                  
G15  21818650.827   114657907.0071      -2761.577          49.250    21818650.853          40.500    21818649.379    89343478.371       -2151.818          44.250    21818649.189    89344112.378       -2151.878          40.500                                                                  
G17  22416580.341   117799588.673        -449.656          47.250    22416580.248          37.250    22416578.144    91792301.103        -350.471          43.000    22416577.997    91791793.093        -350.380          37.250                                                                  
G18  23411360.118   123026880.6441      -1774.221          40.500    23411359.528          22.750                                                                    23411357.695    95865097.344       -1382.512          22.750                                                                  
G22  23755944.905   124838311.6301        -26.166          42.000    23755943.935          26.750                                                                    23755940.690    97277077.6341        -20.392          26.750                                                                  
G24  20257137.460   106451551.051         476.629          52.000    20257137.544          47.500    20257137.911    82949252.755         371.417          51.250    20257137.978    82949583.751         371.397          47.500    20257139.400    79493586.528         355.924          57.500  
G25  24955642.654   131143021.5461       3653.930          35.250    24955642.046          16.500    24955643.594   102189112.7351       2847.083          35.250    24955643.307   102189075.7101       2847.209          16.500    24955645.203    97931477.3651       2728.526          41.750  
G26  24758871.980   130108816.534       -4088.100          39.250    24758871.690          19.250                                                                    24758870.862   101382911.046       -3185.549          19.250                                                                  
G28  25071803.222   131753518.318       -3187.183          35.500    25071802.766          14.750                                                                    25071800.579   102665442.794       -2483.542          14.750                                                                  
R06  23205668.061   123829492.8301      -4418.394          42.500    23205669.515    96311547.4221      -3436.475          40.250    23205670.550    96311547.4271      -3436.481          40.250  
R07  20986128.673   112340399.976       -1979.923          49.500    20986129.106    87375843.707       -1539.910          46.500    20986128.939    87375852.712       -1539.949          47.250  
R08  22266930.805   119237845.701        1820.100          44.000    22266928.280    92740375.104        1415.558          39.750    22266926.412    92740387.100        1415.634          39.750  
R09  19905403.268   106294184.8921       1568.418          51.750    19905404.714    82673259.2361       1219.836          50.000    19905405.499    82673259.2411       1219.874          50.000  
R10  23584206.194   125717060.0581       3421.836          41.500    23584211.585    97779937.0551       2661.338          33.250    23584211.376    97779937.0311       2661.193          33.750  
R15  23791471.778   127135055.7501      -3432.766          38.000    23791475.278    98882823.950       -2669.902          37.500    23791475.534    98882823.948       -2669.849          37.000  
R16  20021987.962   106954007.987       -1760.440          51.750    20021990.220    83186033.994       -1369.247          49.000    20021990.571    83186205.997       -1369.166          49.250  
R17  22164318.832   118604990.355       -2194.856          44.750    22164320.833    92248329.944       -1707.037          41.500    22164319.112    92248329.949       -1706.953          42.000  
R18  20900459.128   111568051.9811       1696.116          49.250    20900462.386    86775337.8241       1319.208          47.500    20900462.543    86775337.8241       1319.298          47.750  
R19  23333547.751   124818167.5791       4463.087          44.000    23333547.207    97080897.8401       3471.197          38.250    23333546.420    97080899.8691       3471.101          38.500  
E11  27860123.585   146406757.321       -2026.290          37.000    27860123.230   109328635.049       -1513.298          40.000    27860119.188   112180686.103       -1552.640          39.500    27860120.659   111326650.172       -1540.813          42.750  
E20  39779162.965   209040775.3761        396.113          45.000    39779165.055   156101671.6681        295.816          44.250    39779161.473   160173692.116         303.565          44.500    39779162.547   158954284.106         301.238          47.500  
> 2012 12 15 00 08  0.0000000  0 25
G01  25315420.230   133032757.2001       -262.855          35.000    25315419.622          15.000    25315421.580   103662089.2771       -204.796          35.250    25315421.200   103661888.3031       -204.810          15.000    25315421.173    99343395.9001       -196.233          40.000  
G09  19785634.370   103974371.9841       -654.744          52.000    19785633.843          46.000                                                                    19785632.626    81018920.719        -510.193          46.000                                                                  
G12  21766663.324   114384825.211        2788.673          48.000    21766663.208          38.250    21766661.087    89131405.024        2173.135          43.000    21766660.914    89131009.029        2172.992          38.250                                                                  
G14  24580863.631   129174020.5661       3468.982          36.500    24580862.934          15.000                                                                    24580860.371   100655080.1401       2703.097          15.000                                                                  
G15  21834451.471   114740939.1021      -2773.945          49.500    21834451.493          40.250    21834449.822    89408178.689       -2161.462          44.000    21834449.650    89408812.699       -2161.514          40.250                                                                  
G17  22419202.260   117813367.599        -468.951          47.750    22419202.171          37.250    22419200.267    91803037.922        -365.378          42.750    22419200.268    91802529.928        -365.417          37.250                                                                  
G18  23421526.957   123080310.2571      -1787.882          40.500    23421526.412          23.000                                                                    23421525.440    95906730.759       -1393.153          23.000                                                                  
G22  23756145.565   124839366.283         -44.147          41.500    23756144.541          26.750                                                                    23756141.734    97277899.424         -34.406          26.750                                                                  
G24  20254453.163   106437445.528         463.694          52.000    20254453.256          47.750    20254453.706    82938261.440         361.374          51.250    20254453.797    82938592.431         361.321          47.750    20254455.219    79483053.182         346.304          57.500  
G25  24934790.510   131033446.3751       3650.912          35.750    24934789.947          15.250    24934792.652   102103729.4861       2844.938          33.250    24934791.523   102103692.4981       2844.888          15.250    24934794.112    97849651.7601       2726.518          42.250  
G26  24782214.797   130231485.436       -4089.969          37.250    24782214.520          17.250                                                                    24782213.528   101478497.250       -3186.994          17.250                                                                  
G28  25090000.858   131849150.502       -3188.215          37.000    25090000.367          14.500                                                                    25089998.782   102739961.388       -2484.325          14.500                                                                  
R06  23230520.145   123962106.262       -4422.521          41.750    23230521.798    96414691.189       -3439.748          40.500    23230522.535    96414691.213       -3439.768          40.750  
R07  20997292.225   112400161.977       -2004.300          49.250    20997293.039    87422325.220       -1558.808          47.000    20997292.922    87422334.227       -1558.838          47.250  
R08  22256801.361   119183605.130        1795.856          44.250    22256799.711    92698188.014        1396.708          40.250    22256797.865    92698200.005        1396.801          40.000  
R09  19896625.878   106247315.2651       1556.210          51.750    19896627.348    82636805.091        1210.420          49.750    19896628.128    82636805.102        1210.462          50.250  
R10  23564954.155   125614433.4451       3419.869          40.500    23564959.643    97700116.3621       2659.998          34.750    23564959.140    97700116.3511       2659.956          34.500  
R15  23810748.063   127238060.9021      -3434.324          37.250    23810752.120    98962939.060       -2671.090          37.250    23810751.044    98962939.066       -2671.203          36.500  
R16  20031907.516   107006995.6641      -1772.145          51.500    20031909.876    83227246.6181      -1378.287          49.250    20031910.253    83227418.6281      -1378.320          49.250  
R17  22176690.149   118671183.274       -2218.175          44.250    22176689.889    92299813.304       -1725.183          43.500    22176690.281    92299813.316       -1725.207          44.000  
R18  20890999.337   111517553.6371       1670.402          49.750    20891002.474    86736061.344        1299.226          48.000    20891002.440    86736061.346        1299.219          48.000  
R19  23308526.062   124684333.7131       4459.212          41.250    23308528.749    96976804.8641       3468.254          40.500    23308529.145    96976806.8481       3468.418          41.250  
E11  27871721.308   146467704.457       -2036.906          38.500    27871720.723   109374147.502       -1520.848          39.250    27871716.681   112227385.841       -1560.541          38.500    27871718.398   111372994.385       -1548.665          42.000  
E19  26778196.787   140720974.1531       2282.538          34.750    26778199.386   105083740.3581       1704.655          34.000    26778196.077   107825162.029        1749.062          34.750    26778197.173   107004252.556        1735.758          37.250  
E20  39776944.150   209029114.753         381.283          44.500    39776946.107   156092964.032         284.730          44.250    39776942.377   160164757.341         292.193          44.500    39776943.692   158945417.344         289.962          47.250  
> 2012 12 15 00 08 30.0000000  0 25
G01  25316973.495   133040917.574        -281.082          36.000    25316972.869          14.750    25316973.705   103668447.982        -219.092          34.500    25316974.110   103668246.988        -219.026          14.750    25316973.560    99349489.648        -209.869          40.250  
G09  19789417.253   103994250.4171       -670.523          52.000    19789416.726          45.750                                                                    19789415.350    81034410.400        -522.486          45.750                                                                  
G12  21750776.492   114301339.353        2777.016          48.250    21750776.416          38.250    21750774.069    89066351.124        2163.838          43.750    21750774.169    89065955.129        2163.910          38.250                                                                  
G14  24561070.601   129070011.8211       3464.849          36.750    24561069.868          15.250                                                                    24561067.995   100574034.3961       2699.890          15.250                                                                  
G15  21850322.304   114824341.0571      -2786.208          49.500    21850322.296          40.000    21850320.545    89473167.224       -2171.107          44.250    21850320.480    89473801.226       -2171.068          40.000                                                                  
G17  22421933.639   117827721.6791       -488.069          47.500    22421933.546          37.000    22421931.754    91814222.9391       -380.327          42.500    22421931.728    91813714.9401       -380.315          37.000                                                                  
G18  23431772.106   123134145.3521      -1801.193          40.750    23431771.592          22.500                                                                    23431769.699    95948680.127       -1403.521          22.500                                                                  
G22  23756449.439   124840960.616         -61.991          42.250    23756448.483          26.500                                                                    23756444.995    97279141.740         -48.307          26.500                                                                  
G24  20251842.794   106423728.514         450.792          51.750    20251842.883          47.500    20251843.452    82927572.859         351.237          51.500    20251843.554    82927903.851         351.263          47.500    20251844.954    79472809.956         336.627          57.500  
G25  24913955.528   130923958.8361       3648.128          35.500    24913955.010          15.750    24913957.248   102018414.5751       2842.503          35.000    24913956.749   102018377.5331       2842.665          15.750    24913959.222    97767891.6201       2724.152          42.000  
G26  24805567.777   130354205.455       -4091.434          38.750    24805567.464          19.000                                                                    24805567.010   101574123.229       -3188.149          19.000                                                                  
G28  25108204.880   131944812.4051      -3189.484          37.250    25108204.415          14.750                                                                    25108202.149   102814503.1461      -2485.299          14.750                                                                  
R06  23255393.955   124094841.583       -4426.470          42.000    23255395.760    96517929.743       -3442.830          39.250    23255395.753    96517929.749       -3442.775          39.000  
R07  21008592.367   112460653.5051      -2028.458          49.000    21008593.348    87469374.1481      -1577.725          46.750    21008593.195    87469383.1541      -1577.726          47.250  
R08  22246808.324   119130093.9481       1771.445          43.750    22246806.497    92656568.1811       1377.986          39.250    22246804.607    92656580.2001       1377.738          39.250  
R09  19887917.473   106200811.4031       1544.076          52.000    19887918.763    82600635.434        1200.909          50.000    19887919.670    82600635.446        1200.918          50.000  
R10  23545712.384   125511865.2171       3417.868          41.500    23545717.954    97620341.0611       2658.539          34.500    23545717.422    97620341.0941       2658.629          35.250  
R15  23830032.852   127341111.3431      -3435.680          38.500    23830036.855    99043089.375       -2672.266          38.750    23830036.544    99043089.397       -2672.287          37.500  
R16  20041892.345   107060333.923       -1783.749          51.250    20041894.654    83268731.924       -1387.342          49.000    20041894.997    83268903.932       -1387.380          49.250  
R17  22189189.247   118738074.9621      -2241.269          45.000    22189189.490    92351840.173       -1743.271          43.750    22189190.407    92351840.171       -1743.362          43.250  
R18  20881683.609   111467828.6811       1644.574          49.000    20881687.248    86697386.396        1279.108          47.500    20881687.416    86697386.400        1279.108          47.750  
R19  23283530.453   124550615.3321       4455.484          41.750    23283531.480    96872801.6731       3465.262          39.000    23283530.602    96872803.7031       3465.280          39.500  
E11  27883378.502   146528963.2981      -2047.006          38.250    27883377.769   109419892.7851      -1528.757          38.750    27883374.214   112274324.478       -1568.648          38.750    27883375.493   111419575.676       -1556.694          41.750  
E19  26765192.184   140652633.4951       2273.694          36.000    26765194.329   105032706.8321       1697.571          34.250    26765191.132   107772797.173        1741.964          34.750    26765192.286   106952286.366        1728.699          37.750  
E20  39774810.089   209017901.126         366.312          44.750    39774812.360   156084590.207         273.666          44.500    39774808.125   160156165.066         280.654          44.500    39774809.744   158936890.486         278.595          47.500  
> 2012 12 15 00 09  0.0000000  0 25
G01  25318629.797   133049625.435        -299.583          36.500    25318629.122          15.500    25318631.330   103675233.341        -233.216          33.250    25318631.047   103675032.360        -233.463          15.500    25318631.754    99355992.2831       -223.628          41.250  
G09  19793290.455   104014604.2981       -686.410          51.750    19793289.928          45.500                                                                    19793288.526    81050270.5541       -534.866          45.500                                                                  
G12  21734956.589   114218205.3671       2765.192          48.000    21734956.522          38.250    21734954.199    89001571.4111       2154.827          43.250    21734954.262    89001175.4141       2154.692          38.250                                                                  
G14  24541304.194   128966136.9811       3459.978          36.750    24541303.524          16.500                                                                    24541301.201   100493092.9831       2696.073          16.500                                                                  
G15  21866262.997   114908110.6161      -2798.422          49.250    21866262.993          39.500    21866261.762    89538442.200       -2180.571          44.250    21866261.349    89539076.197       -2180.586          39.500                                                                  
G17  22424774.529   117842650.3361       -507.208          47.000    22424774.431          36.750    22424772.280    91825855.668        -395.105          42.750    22424772.509    91825347.668        -395.228          36.750                                                                  
G18  23442093.535   123188383.5861      -1814.666          40.500    23442093.066          22.000                                                                    23442090.419    95990943.661       -1414.031          22.000                                                                  
G22  23756855.088   124843093.866         -80.024          42.000    23756854.100          26.000                                                                    23756850.715    97280803.960         -62.361          26.000                                                                  
G24  20249306.648   106410399.930         437.788          51.750    20249306.741          47.750    20249306.993    82917186.949         341.129          51.500    20249307.210    82917517.938         341.133          47.750    20249308.681    79462856.799         326.965          57.500  
G25  24893137.884   130814560.4191       3645.124          36.750    24893137.366          16.000    24893139.432   101933169.0381       2840.405          32.750    24893138.999   101933132.0351       2840.361          16.000    24893141.208    97686198.0091       2721.932          42.000  
G26  24828929.462   130476974.732       -4093.164          37.000    24828929.105          15.750                                                                    24828928.685   101669787.625       -3189.505          15.750                                                                  
G28  25126413.817   132040502.116       -3190.210          37.250    25126413.388          15.250                                                                    25126411.365   102889066.582       -2485.888          15.250                                                                  
R06  23280291.174   124227694.432       -4430.260          41.000    23280292.277    96621259.738       -3445.862          40.500    23280293.206    96621259.727       -3445.669          40.000  
R07  21020028.616   112521871.633       -2052.625          49.250    21020029.293    87516988.209       -1596.468          47.000    21020029.374    87516997.216       -1596.566          47.250  
R08  22236952.686   119077314.232        1747.172          44.750    22236950.892    92615517.273        1358.776          39.000    22236947.926    92615529.288        1358.874          39.000  
R09  19879277.302   106154674.0641       1531.751          51.750    19879278.511    82564750.846        1191.403          49.750    19879279.431    82564750.863        1191.382          50.000  
R10  23526481.950   125409356.9381       3415.950          41.000    23526487.388    97540612.4551       2656.849          33.500    23526486.775    97540612.4521       2656.536          34.250  
R15  23849324.154   127444206.3591      -3437.230          37.250    23849329.145    99123274.355       -2673.502          36.750    23849328.836    99123274.367       -2673.420          36.250  
R16  20051943.072   107114022.378       -1795.422          51.500    20051945.316    83310489.613       -1396.413          49.000    20051945.810    83310661.611       -1396.360          49.250  
R17  22201820.070   118805662.5261      -2264.523          44.500    22201820.755    92404408.263       -1761.238          41.500    22201819.597    92404408.279       -1761.318          42.000  
R18  20872513.965   111418879.4861       1618.623          49.000    20872517.536    86659314.811        1259.023          47.500    20872517.415    86659314.811        1258.979          47.750  
R19  23258557.906   124417016.8421       4451.200          45.000    23258556.727    96768891.7051       3462.124          40.500    23258556.724    96768893.6891       3462.030          40.750  
E11  27895094.828   146590532.275       -2057.540          38.250    27895093.259   109465869.655       -1536.483          38.750    27895089.995   112321500.711       -1576.640          38.000    27895091.497   111466392.769       -1564.572          41.250  
E19  26752239.597   140584566.5241       2264.101          35.500    26752242.073   104981877.5981       1690.794          34.500    26752238.397   107720641.940        1735.129          35.250    26752239.489   106900528.203        1721.738          38.000  
E20  39772761.551   209007134.730         351.316          45.000    39772763.713   156076550.350         262.473          44.750    39772759.675   160147915.467         269.279          44.750    39772760.927   158928703.693         267.231          47.750  
> 2012 12 15 00 09 30.0000000  0 25
G01  25320390.789   133058880.3261       -317.833          34.750    25320390.195          14.250    25320392.878   103682444.9451       -247.502          34.500    25320391.887   103682243.9221       -247.660          14.250    25320392.473    99362903.376        -237.168          40.250  
G09  19797254.220   104035433.8091       -702.225          51.750    19797253.693          45.500                                                                    19797252.302    81066501.341        -547.189          45.500                                                                  
G12  21719203.653   114135424.067        2753.440          48.250    21719203.604          38.500    21719201.758    88937066.522        2145.569          43.250    21719201.420    88936670.525        2145.537          38.500                                                                  
G14  24521563.163   128862398.3151       3455.657          36.250    24521562.578          15.750                                                                    24521560.431   100412257.6801       2692.698          15.750                                                                  
G15  21882273.589   114992245.9751      -2810.561          49.000    21882273.589          39.500    21882271.969    89604002.208       -2190.036          44.500    21882271.815    89604636.205       -2190.050          39.500                                                                  
G17  22427724.869   117858153.8361       -526.356          47.750    22427724.780          36.750    22427722.719    91837936.323        -410.154          43.000    22427722.823    91837428.322        -410.149          36.750                                                                  
G18  23452490.763   123243022.7021      -1828.054          40.250    23452490.325          22.250                                                                    23452487.581    96033519.5701      -1424.463          22.250                                                                  
G22  23757363.203   124845765.748         -98.010          42.000    23757362.175          25.000                                                                    23757359.102    97282885.892         -76.368          25.000                                                                  
G24  20246844.210   106397460.649         424.797          51.750    20246844.303          47.750    20246844.829    82907104.386         331.013          51.250    20246844.929    82907435.380         331.011          47.750    20246846.400    79453194.3421        317.237          57.750  
G25  24872338.025   130705252.4881       3642.151          36.500    24872337.516          15.250    24872339.241   101847994.0621       2837.934          34.500    24872338.844   101847957.0691       2838.020          15.250    24872340.449    97604571.9601       2719.786          42.000  
G26  24852301.040   130599791.0271      -4094.684          39.500    24852300.754          19.500                                                                    24852300.465   101765488.6421      -3190.638          19.500                                                                  
G28  25144627.852   132136218.296       -3190.803          36.750    25144627.383          13.500                                                                    25144625.684   102963650.619       -2486.287          13.500                                                                  
R06  23305209.514   124360660.232       -4434.018          43.250    23305209.874    96724677.549       -3448.751          40.500    23305210.925    96724677.557       -3448.623          39.750  
R07  21031599.939   112583813.249       -2076.672          49.500    21031600.820    87565164.994       -1615.250          47.000    21031600.677    87565173.994       -1615.211          47.000  
R08  22227233.269   119025268.2671       1722.675          44.250    22227230.928    92575037.0801       1339.798          39.250    22227228.756    92575049.0841       1339.875          39.750  
R09  19870706.159   106108903.9921       1519.571          51.750    19870707.434    82529151.9191       1181.894          50.000    19870708.234    82529151.9351       1181.844          50.000  
R10  23507263.591   125306908.6761       3414.007          40.750    23507267.981    97460930.4911       2655.102          34.250    23507268.229    97460930.5231       2655.149          34.750  
R15  23868626.166   127547345.3001      -3438.687          37.000    23868629.412    99203493.5181      -2674.674          36.250    23868630.041    99203493.5311      -2674.817          36.250  
R16  20062058.752   107168060.006       -1807.052          51.500    20062060.922    83352518.874       -1405.486          49.000    20062061.684    83352690.876       -1405.516          49.250  
R17  22214580.047   118873942.8451      -2287.576          45.500    22214580.615    92457515.174       -1779.307          43.000    22214580.561    92457515.181       -1779.147          43.250  
R18  20863490.172   111370708.7381       1592.686          49.250    20863493.545    86621848.6751       1238.831          47.000    20863493.385    86621848.6811       1238.787          48.000  
R19  23233602.367   124283542.2201       4447.153          41.750    23233605.203    96665078.1641       3458.842          39.250    23233604.708    96665080.1971       3458.842          39.750  
E11  27906869.779   146652409.856       -2067.904          37.750    27906868.888   109512076.955       -1543.968          40.000    27906864.501   112368913.446       -1584.418          38.000    27906866.621   111513444.540       -1572.323          42.000  
E19  26739339.088   140516775.0721       2255.319          35.000    26739341.880   104931254.1441       1683.848          35.750    26739338.401   107668697.894        1727.964          35.750    26739339.322   106848979.601        1714.696          38.750  
E20  39770797.954   208996815.835         336.473          44.750    39770799.902   156068844.636         251.340          44.500    39770796.213   160140008.730         257.837          44.750    39770797.330   158920857.151         255.885          47.750  
> 2012 12 15 00 10  0.0000000  0 25
G01  25322256.876   133068681.936        -335.745          35.250    25322256.295          15.000    25322258.218   103690082.427        -261.420          35.000    25322257.260   103689881.444        -261.611          15.000    25322257.985    99370222.6431       -250.788          41.000  
G09  19801308.219   104056738.4291       -718.060          52.000    19801307.687          45.500                                                                    19801306.454    81083102.334        -559.529          45.500                                                                  
G12  21703518.467   114052997.490        2741.640          48.500    21703518.423          38.750    21703516.270    88872838.027        2136.356          43.250    21703516.238    88872442.033        2136.346          38.750                                                                  
G14  24501848.642   128758797.9951       3450.992          36.500    24501848.155          16.000                                                                    24501845.937   100331530.1931       2689.102          16.000                                                                  
G15  21898353.177   115076744.9171      -2822.676          49.250    21898353.190          39.500    21898351.689    89669845.533       -2199.513          44.500    21898351.403    89670479.528       -2199.486          39.500                                                                  
G17  22430784.305   117874231.3191       -545.442          48.000    22430784.212          36.750    22430782.191    91850464.238        -425.104          43.000    22430782.240    91849956.233        -425.019          36.750                                                                  
G18  23462964.127   123298059.9821      -1841.200          40.500    23462963.806          23.000                                                                    23462961.981    96076405.738       -1434.706          23.000                                                                  
G22  23757974.679   124848975.9011       -115.971          43.000    23757973.624          26.250                                                                    23757970.074    97285387.2751        -90.368          26.250                                                                  
G24  20244456.254   106384911.3281        411.825          52.000    20244456.347          47.750    20244456.910    82897325.6901        320.913          51.000    20244456.872    82897656.6811        320.900          47.750    20244458.357    79443823.092         307.525          57.750  
G25  24851553.990   130596036.4591       3638.947          36.500    24851553.414          14.500    24851556.092   101762890.6621       2835.381          34.250    24851555.811   101762853.6491       2835.589          14.500    24851557.729    97523014.5621       2717.479          42.250  
G26  24875681.383   130722652.427       -4096.090          37.500    24875681.003          16.250                                                                    24875680.263   101861224.781       -3191.744          16.250                                                                  
G28  25162847.178   132231959.651       -3191.661          36.000    25162846.646          14.000                                                                    25162844.706   103038254.263       -2486.958          14.000                                                                  
R06  23330147.053   124493735.643       -4437.544          41.750    23330147.810    96828180.634       -3451.472          39.000    23330148.949    96828180.657       -3451.517          38.250  
R07  21043305.890   112646475.079       -2100.718          49.000    21043306.618    87613901.953       -1633.876          47.000    21043306.602    87613910.955       -1633.817          47.000  
R08  22217652.083   118973957.991        1698.055          44.250    22217649.522    92535129.078        1320.738          40.000    22217647.419    92535141.071        1320.798          40.000  
R09  19862203.633   106063501.5341       1507.318          52.000    19862205.163    82493838.909        1172.341          50.250    19862205.779    82493838.916        1172.384          50.000  
R10  23488055.944   125204521.7911       3411.916          41.750    23488061.347    97381296.2961       2653.516          35.250    23488061.063    97381296.2831       2653.652          35.000  
R15  23887935.071   127650527.4231      -3439.928          36.750    23887939.919    99283746.257       -2675.522          37.500    23887939.285    99283746.236       -2675.459          36.500  
R16  20072239.975   107222446.011       -1818.682          51.500    20072242.436    83394819.088       -1414.528          49.000    20072242.746    83394991.096       -1414.581          49.000  
R17  22227468.014   118942912.8341      -2310.460          44.500    22227468.815    92511158.489       -1797.034          42.250    22227468.918    92511158.486       -1797.076          42.750  
R18  20854612.483   111323318.8051       1566.648          49.500    20854615.612    86584989.859        1218.447          47.500    20854615.618    86584989.859        1218.543          48.000  
R19  23208676.460   124150196.3201       4442.682          43.500    23208677.417    96561364.6461       3455.296          40.500    23208677.281    96561366.6301       3455.463          40.750  
E11  27918703.045   146714594.459       -2077.965          37.250    27918702.742   109558513.521       -1551.663          40.250    27918698.677   112416561.428       -1592.189          39.000    27918700.149   111560729.763       -1580.064          42.750  
E19  26726491.483   140449260.8521       2245.856          36.500    26726494.153   104880837.7871       1677.104          36.000    26726490.093   107616966.327        1720.860          36.000    26726491.756   106797641.866        1707.729          38.750  
E20  39768919.769   208986944.7911        321.642          44.750    39768921.565   156061473.3651        240.100          44.500    39768917.648   160132445.166         246.426          45.000    39768918.958   158913351.167         244.531          47.750  
> 2012 12 15 00 10 30.0000000  0 25
G01  25324225.526   133079030.2901       -353.996          35.250    25324224.923          15.250    25324226.551   103698146.0101       -275.932          35.250    25324226.514   103697945.0161       -275.800          15.250    25324226.773    99377950.209        -264.354          40.500  
G09  19805452.899   104078518.2121       -733.927          52.000    19805452.367          45.500                                                                    19805451.027    81100073.585        -571.893          45.500                                                                  
G12  21687900.881   113970926.916        2729.724          48.750    21687900.832          38.750    21687898.844    88808886.937        2126.972          43.500    21687898.694    88808490.932        2127.057          38.750                                                                  
G14  24482161.420   128655338.5521       3446.437          37.500    24482160.920          17.000                                                                    24482158.631   100250912.4401       2685.542          17.000                                                                  
G15  21914501.500   115161605.6421      -2834.718          49.250    21914501.508          39.500    21914499.966    89735970.759       -2208.784          44.000    21914499.859    89736604.762       -2208.867          39.500                                                                  
G17  22433952.784   117890881.9451       -564.592          47.500    22433952.673          37.000    22433950.414    91863438.759        -439.967          43.000    22433950.711    91862930.749        -439.945          37.000                                                                  
G18  23473512.074   123353493.6021      -1854.372          40.500    23473511.685          22.000                                                                    23473510.646    96119600.779       -1444.972          22.000                                                                  
G22  23758687.862   124852724.022        -133.918          42.000    23758686.825          25.750                                                                    23758683.074    97288307.871        -104.358          25.750                                                                  
G24  20242142.458   106372752.328         398.763          52.000    20242142.547          47.750    20242143.039    82887851.139         310.770          51.250    20242143.076    82888182.132         310.723          47.750    20242144.587    79434743.312         297.815          57.750  
G25  24830788.558   130486913.7551       3635.940          36.250    24830787.973          16.000    24830790.701   101677859.9971       2833.058          35.500    24830790.495   101677822.9801       2833.185          16.000    24830792.247    97441526.8371       2715.147          42.250  
G26  24899069.306   130845556.833       -4097.526          39.000    24899068.859          18.500                                                                    24899067.833   101956994.490       -3192.869          18.500                                                                  
G28  25181070.687   132327724.858       -3192.524          37.000    25181069.977          13.500                                                                    25181068.133   103112876.513       -2487.656          13.500                                                                  
R06  23355104.940   124626915.491       -4441.067          41.750    23355106.545    96931764.941       -3454.305          38.750    23355106.819    96931764.932       -3454.122          39.000  
R07  21055145.679   112709854.204       -2124.554          49.000    21055146.237    87663196.798       -1652.409          47.000    21055146.166    87663205.798       -1652.463          47.000  
R08  22208207.635   118923386.0841       1673.388          44.500    22208205.475    92495795.3601       1301.587          39.750    22208203.531    92495807.3621       1301.550          39.750  
R09  19853770.211   106018467.7391       1494.948          51.500    19853771.575    82458812.631        1162.782          50.000    19853772.295    82458812.641        1162.811          50.000  
R10  23468858.818   125102196.4441       3409.950          41.750    23468864.369    97301709.9051       2652.018          35.750    23468864.553    97301709.8861       2652.377          36.000  
R15  23907251.359   127753752.0411      -3441.411          37.500    23907256.527    99364032.022       -2676.621          37.500    23907255.934    99364032.012       -2676.765          36.750  
R16  20082486.377   107277179.552       -1830.244          51.500    20082488.647    83437389.615       -1423.473          49.000    20082489.071    83437561.625       -1423.495          49.000  
R17  22240485.786   119012569.4741      -2333.339          44.250    22240486.765    92565335.861       -1814.811          41.750    22240485.453    92565335.869       -1814.774          42.250  
R18  20845881.549   111276712.2161       1540.478          49.250    20845884.689    86548740.308        1198.146          47.750    20845884.932    86548740.307        1198.118          48.250  
R19  23183774.105   124016982.7051       4438.119          44.250    23183774.297    96457754.0851       3451.888          39.500    23183773.751    96457756.1141       3451.847          40.000  
E11  27930593.912   146777084.520       -2088.139          37.250    27930594.522   109605178.190       -1559.349          40.250    27930590.059   112464443.427       -1599.856          39.250    27930591.664   111608247.237       -1587.734          42.750  
E19  26713697.269   140382025.2651       2236.446          37.500    26713699.642   104830629.4521       1669.986          36.750    26713695.725   107565448.190        1713.753          37.000    26713697.035   106746515.946        1700.607          40.000  
E20  39767126.456   208977521.883         306.558          44.500    39767128.203   156054436.753         228.973          44.250    39767124.639   160125225.002         234.969          45.000    39767125.936   158906185.964         233.193          47.750  
> 2012 12 15 00 11  0.0000000  0 25
G01  25326298.273   133089925.053        -372.326          35.500    25326297.679          16.250    25326300.431   103706635.371        -290.046          35.750    25326299.634   103706434.379        -290.139          16.250    25326300.595    99386085.8301       -278.065          41.250  
G09  19809687.828   104100772.7881       -749.751          51.750    19809687.301          45.750                                                                    19809685.966    81117414.806        -584.224          45.750                                                                  
G12  21672351.142   113889213.2851       2717.783          48.500    21672351.071          39.000    21672349.269    88745213.9621       2117.863          43.500    21672349.069    88744817.9661       2117.756          39.000                                                                  
G14  24462500.412   128552022.1171       3441.505          37.750    24462499.871          16.250                                                                    24462497.850   100170406.1271       2681.710          16.250                                                                  
G15  21930718.490   115246826.1651      -2846.687          49.250    21930718.473          39.500    21930717.269    89802376.355       -2218.267          44.000    21930716.766    89803010.356       -2218.195          39.500                                                                  
G17  22437230.384   117908105.4931       -583.705          47.500    22437230.273          37.000    22437228.089    91876859.702        -454.879          42.750    22437228.218    91876351.696        -454.836          37.000                                                                  
G18  23484135.878   123409321.0521      -1867.558          41.000    23484135.387          21.750                                                                    23484133.558    96163102.673       -1455.241          21.750                                                                  
G22  23759503.284   124857009.265        -151.797          43.000    23759502.256          26.250                                                                    23759498.523    97291646.990        -118.290          26.250                                                                  
G24  20239903.035   106360984.428         385.721          51.750    20239903.124          47.750    20239903.538    82878681.342         300.559          51.000    20239903.710    82879012.333         300.559          47.750    20239905.176    79425955.588         288.060          57.750  
G25  24810041.654   130377885.7531       3632.724          36.750    24810041.055          17.000    24810043.338   101592903.1091       2830.939          34.500    24810043.230   101592866.1061       2830.723          17.000    24810044.648    97360109.8291       2712.634          42.250  
G26  24922464.147   130968502.268       -4098.897          36.500    24922463.741          16.000                                                                    24922463.635   102052796.121       -3193.957          16.000                                                                  
G28  25199298.273   132423512.577       -3193.452          36.750    25199297.594          12.750                                                                    25199295.960   103187516.352       -2488.421          12.750                                                                  
R06  23380081.877   124760196.163       -4444.352          41.750    23380083.502    97035427.652       -3456.718          39.250    23380083.728    97035427.646       -3456.799          39.250  
R07  21067118.489   112773947.277       -2148.376          48.750    21067119.453    87713046.934       -1670.856          46.750    21067119.320    87713055.936       -1670.907          47.000  
R08  22198901.163   118873555.334        1648.673          44.250    22198900.363    92457038.124        1282.115          39.750    22198897.942    92457050.114        1282.342          40.250  
R09  19845405.853   105973803.4591       1482.633          52.000    19845407.177    82424073.747        1153.129          50.000    19845408.312    82424073.756        1153.180          50.000  
R10  23449675.134   124999933.7001       3407.743          41.750    23449679.694    97222172.2041       2650.664          35.250    23449680.514    97222172.2251       2650.387          34.500  
R15  23926578.170   127857018.6971      -3442.874          38.000    23926582.195    99444350.495       -2677.879          37.750    23926581.325    99444350.498       -2677.763          37.500  
R16  20092797.546   107332259.748       -1841.773          51.750    20092799.761    83480229.761       -1432.428          49.000    20092800.145    83480401.771       -1432.497          49.250  
R17  22253629.581   119082909.4911      -2356.002          44.250    22253630.974    92620044.771       -1832.567          43.000    22253631.348    92620044.772       -1832.508          43.500  
R18  20837297.549   111230891.4711       1514.198          48.750    20837300.815    86513101.961        1177.783          48.000    20837300.990    86513101.961        1177.765          48.000  
R19  23158895.618   123883905.9871       4433.576          42.000    23158897.517    96354249.9811       3448.314          41.250    23158898.236    96354251.9691       3448.383          42.000  
E11  27942543.444   146839878.505       -2098.153          37.500    27942543.766   109652069.789       -1566.924          39.750    27942539.656   112512558.294       -1607.666          39.500    27942540.989   111655995.802       -1595.531          42.750  
E19  26700955.926   140315070.1381       2227.045          36.500    26700958.246   104780630.5741       1663.005          37.000    26700955.187   107514144.994        1706.577          38.500    26700955.997   106695603.325        1693.492          40.750  
E20  39765418.581   208968547.323         291.685          44.750    39765420.285   156047734.944         217.823          44.250    39765416.909   160118348.379         223.441          44.500    39765418.188   158899361.686         221.787          47.250  
> 2012 12 15 00 11 30.0000000  0 25
G01  25328476.192   133101366.0401       -390.383          35.000    25328475.616          16.000    25328477.115   103715550.4821       -304.247          35.000    25328477.046   103715349.4791       -304.184          16.000    25328476.961    99394629.481        -291.522          40.000  
G09  19814013.028   104123502.1181       -765.544          52.000    19814012.496          45.750                                                                    19814011.170    81135125.975        -596.532          45.750                                                                  
G12  21656870.051   113807857.784        2705.847          48.500    21656870.007          39.000    21656868.125    88681820.070        2108.431          43.500    21656867.744    88681424.071        2108.450          39.000                                                                  
G14  24442868.057   128448851.0511       3436.655          36.750    24442867.548          16.000                                                                    24442864.766   100090013.0551       2677.893          16.000                                                                  
G15  21947003.527   115332404.4881      -2858.563          48.750    21947003.496          39.500    21947002.457    89869060.754       -2227.510          43.500    21947001.816    89869694.749       -2227.447          39.500                                                                  
G17  22440616.780   117925901.8001       -602.732          47.750    22440616.655          37.000    22440614.825    91890726.955        -469.763          42.500    22440614.806    91890218.947        -469.658          37.000                                                                  
G18  23494834.011   123465539.7141      -1880.351          41.250    23494833.439          22.250                                                                    23494831.588    96206909.434       -1465.200          22.250                                                                  
G22  23760420.935   124861831.128        -169.672          42.500    23760419.885          25.750                                                                    23760415.729    97295404.234        -132.218          25.750                                                                  
G24  20237738.351   106349607.894         372.691          52.000    20237738.440          47.750    20237738.885    82869816.502         290.397          51.250    20237738.845    82870147.494         290.409          47.750    20237740.298    79417460.117         278.298          58.000  
G25  24789312.885   130268953.8431       3629.648          36.000    24789312.353          15.750    24789314.697   101508021.0821       2828.293          34.500    24789314.125   101507984.0831       2828.296          15.750    24789315.811    97278764.5711       2710.326          43.000  
G26  24945867.754   131091486.611       -4100.140          39.000    24945867.401          17.250                                                                    24945866.323   102148628.144       -3194.873          17.250                                                                  
G28  25217529.814   132519321.271       -3193.986          36.750    25217529.054          13.500                                                                    25217527.660   103262172.484       -2488.824          13.500                                                                  
R06  23405076.150   124893573.8291      -4447.538          41.500    23405076.900    97139165.8081      -3459.229          38.250    23405077.710    97139165.8331      -3459.255          37.500  
R07  21079224.906   112838751.364       -2171.894          49.000    21079225.477    87763450.102       -1689.363          46.500    21079225.402    87763459.093       -1689.253          47.250  
R08  22189735.245   118824466.812        1623.874          45.750    22189733.108    92418858.119        1263.139          40.000    22189730.727    92418870.120        1263.116          40.500  
R09  19837111.048   105929509.0491       1470.288          51.750    19837112.652    82389622.535        1143.511          49.750    19837112.965    82389622.547        1143.548          50.000  
R10  23430503.345   124897734.0501       3405.568          41.500    23430508.311    97142683.5691       2649.093          35.250    23430508.311    97142683.5981       2648.666          35.750  
R15  23945909.783   127960326.5431      -3444.308          36.250    23945914.628    99524701.028       -2678.845          37.000    23945913.715    99524701.036       -2678.779          36.500  
R16  20103173.329   107387685.830       -1853.223          51.500    20103175.787    83523338.928       -1441.378          49.250    20103176.206    83523510.933       -1441.439          49.250  
R17  22266902.363   119153929.9451      -2378.602          44.500    22266902.186    92675282.8701      -1850.069          42.500    22266902.556    92675282.8701      -1850.104          42.750  
R18  20828861.138   111185858.6551       1487.973          49.000    20828864.658    86478076.4571       1157.260          48.000    20828864.881    86478076.4601       1157.243          48.250  
R19  23134045.904   123750970.5521       4428.802          43.500    23134045.346    96250855.7611       3444.366          39.000    23134045.463    96250857.7811       3444.662          39.250  
E11  27954550.567   146902974.822       -2108.088          37.250    27954550.282   109699187.192       -1574.254          39.250    27954546.616   112560904.824       -1615.334          39.750    27954547.653   111703974.276       -1603.024          42.500  
E19  26688268.317   140248397.0221       2217.821          35.500    26688271.027   104730842.2051       1656.091          37.500    26688266.636   107463057.803        1699.336          36.750    26688268.501   106644905.060        1686.393          40.250  
E20  39763796.040   208960021.378         276.691          44.750    39763798.065   156041368.183         206.696          44.750    39763794.068   160111815.516         212.026          44.500    39763795.610   158892878.565         210.441          47.500  
> 2012 12 15 00 12  0.0000000  0 25
G01  25330757.465   133113352.643        -408.856          35.000    25330756.889          16.000    25330758.193   103724890.658        -318.808          34.000    25330758.065   103724689.641        -318.598          16.000    25330758.897    99403580.4681       -305.297          38.500  
G09  19818428.446   104146706.0111       -781.361          52.000    19818427.914          45.500                                                                    19818426.737    81153206.926        -608.852          45.500                                                                  
G12  21641456.940   113726862.235        2693.919          49.250    21641456.891          39.000    21641454.993    88618706.664        2099.126          43.750    21641454.664    88618310.661        2099.158          39.000                                                                  
G14  24423262.893   128345827.601        3431.791          37.500    24423262.420          16.750                                                                    24423260.140   100009735.069        2674.129          16.750                                                                  
G15  21963356.265   115418338.2681      -2870.363          48.750    21963356.248          39.000    21963354.769    89936022.120       -2236.632          43.750    21963354.544    89936656.128       -2236.649          39.000                                                                  
G17  22444111.975   117944269.873        -621.730          47.750    22444111.850          36.750    22444109.604    91905039.742        -484.563          42.250    22444109.996    91904531.729        -484.470          36.750                                                                  
G18  23505606.082   123522147.5211      -1893.254          40.500    23505605.448          22.000                                                                    23505604.049    96251019.418       -1475.277          22.000                                                                  
G22  23761440.754   124867189.1721       -187.504          42.500    23761439.744          25.000                                                                    23761435.112    97299579.3231       -146.105          25.000                                                                  
G24  20235647.940   106338623.433         359.665          52.000    20235648.024          47.750    20235648.561    82861257.182         280.198          51.250    20235648.608    82861588.167         280.256          47.750    20235650.016    79409257.434         268.547          57.750  
G25  24768602.310   130160119.4251       3626.330          36.500    24768601.859          17.250    24768603.955   101423215.0791       2825.710          36.000    24768603.573   101423178.0611       2825.674          17.250    24768605.267    97197492.1501       2707.869          42.500  
G26  24969278.493   131214507.961       -4101.279          37.000    24969278.257          16.750                                                                    24969276.761   102244488.899       -3195.798          16.750                                                                  
G28  25235766.212   132615149.604       -3194.594          36.500    25235765.524          14.250                                                                    25235763.232   103336843.950       -2489.339          14.250                                                                  
R06  23430089.358   125027043.270       -4450.485          42.250    23430090.984    97242975.346       -3461.422          40.500    23430091.480    97242975.346       -3461.501          39.500  
R07  21091462.968   112904263.450       -2195.498          48.750    21091463.451    87814403.920       -1707.665          46.750    21091463.969    87814412.910       -1707.613          47.250  
R08  22180707.408   118776123.173        1599.097          44.750    22180705.251    92381257.516        1243.654          39.750    22180703.138    92381269.533        1243.568          40.250  
R09  19828885.415   105885585.2381       1457.979          51.750    19828887.127    82355459.569        1133.969          50.000    19828887.809    82355459.584        1133.919          50.250  
R10  23411342.802   124795598.5821       3403.435          42.000    23411348.077    97063244.8671       2646.912          34.500    23411347.677    97063244.8531       2646.758          34.750  
R15  23965250.565   128063674.9311      -3445.593          37.250    23965255.089    99605083.103       -2679.912          37.500    23965254.193    99605083.080       -2679.717          36.750  
R16  20113614.072   107443457.030       -1864.744          51.750    20113616.108    83566716.512       -1450.384          49.250    20113616.653    83566888.523       -1450.477          49.250  
R17  22280301.288   119225627.621       -2401.121          45.250    22280300.798    92731047.715       -1867.586          41.750    22280300.213    92731047.714       -1867.597          42.000  
R18  20820573.137   111141616.2141       1461.571          49.000    20820576.690    86443665.680        1136.712          48.000    20820576.876    86443665.687        1136.755          48.250  
R19  23109221.810   123618180.5881       4423.926          44.000    23109223.022    96147574.682        3440.795          41.750    23109223.218    96147576.677        3440.768          41.500  
E11  27966614.267   146966371.872       -2118.059          37.500    27966614.049   109746529.206       -1581.707          38.250    27966610.405   112609481.840       -1623.002          38.750    27966611.514   111752181.474       -1610.567          41.500  
E19  26675635.561   140182007.6771       2208.198          36.000    26675637.312   104681265.7581       1649.092          36.750    26675633.448   107412188.051        1691.967          36.750    26675634.861   106594422.581        1679.158          39.750  
E20  39762259.130   208951944.1851        261.763          45.250    39762261.124   156035336.4991        195.461          44.500    39762257.189   160105626.480         200.559          44.500    39762258.606   158886736.649         199.048          47.500  
> 2012 12 15 00 12 30.0000000  0 25
G01  25333141.761   133125884.6131       -426.889          36.000    25333141.153          15.750    25333143.244   103734655.7761       -332.639          34.000    25333142.777   103734454.7611       -332.634          15.750    25333143.367    99412938.720        -318.794          39.250  
G09  19822934.347   104170384.1681       -797.205          51.500    19822933.815          45.500                                                                    19822932.509    81171657.439        -621.199          45.500                                                                  
G12  21626112.588   113646227.767        2681.764          48.500    21626112.521          39.000    21626110.524    88555874.625        2089.682          44.000    21626110.520    88555478.618        2089.683          39.000                                                                  
G14  24403687.385   128242954.3811       3426.500          37.500    24403686.818          17.250                                                                    24403684.190    99929574.1171       2669.984          17.250                                                                  
G15  21979776.301   115504625.7611      -2882.153          48.500    21979776.297          39.000    21979774.611    90003259.123       -2245.808          43.750    21979774.405    90003893.130       -2245.834          39.000                                                                  
G17  22447716.081   117963209.1331       -640.868          47.250    22447715.947          36.750    22447714.083    91919797.6001       -499.329          42.500    22447713.981    91919289.5981       -499.379          36.750                                                                  
G18  23516451.781   123579142.3261      -1906.195          41.000    23516451.088          21.250                                                                    23516449.750    96295430.922       -1485.355          21.250                                                                  
G22  23762562.080   124873082.994        -205.328          42.000    23762561.106          25.500                                                                    23762556.630    97304171.866        -159.989          25.500                                                                  
G24  20233632.329   106328031.608         346.502          52.000    20233632.413          47.750    20233633.061    82853003.803         270.001          51.500    20233633.082    82853334.796         270.001          47.750    20233634.477    79401347.951         258.762          57.750  
G25  24747910.351   130051383.9681       3622.862          35.250    24747909.882          16.250    24747911.202   101338486.1541       2823.196          35.000    24747912.114   101338449.1461       2823.005          16.250    24747913.599    97116293.5881       2705.435          42.750  
G26  24992694.780   131337564.219       -4102.372          37.250    24992694.521          17.250                                                                    24992693.396   102340376.899       -3196.650          17.250                                                                  
G28  25254004.497   132710996.423       -3195.053          35.250    25254003.934          13.000                                                                    25254002.368   103411529.770       -2489.619          13.000                                                                  
R06  23455118.420   125160601.170       -4453.266          41.750    23455118.155    97346853.730       -3463.598          40.250    23455120.184    97346853.750       -3463.773          39.000  
R07  21103833.065   112970480.290       -2218.951          48.500    21103833.270    87865905.852       -1725.803          46.750    21103833.640    87865914.851       -1725.825          47.000  
R08  22171818.634   118728525.9871       1574.083          44.750    22171816.555    92344237.5051       1224.322          39.500    22171814.656    92344249.4971       1224.420          40.000  
R09  19820729.861   105842032.9181       1445.538          51.750    19820731.036    82321585.533        1124.337          50.250    19820731.923    82321585.547        1124.336          50.250  
R10  23392194.115   124693527.9441       3401.287          41.500    23392199.742    96983856.5831       2645.373          35.000    23392199.599    96983856.5981       2645.494          35.500  
R15  23984597.667   128167063.2381      -3446.945          36.500    23984602.882    99685496.231       -2680.882          37.500    23984602.211    99685496.239       -2680.853          36.500  
R16  20124118.379   107499572.5351      -1876.216          51.250    20124120.957    83610361.9091      -1459.310          49.250    20124121.612    83610533.9091      -1459.270          49.000  
R17  22293824.526   119297999.3311      -2423.547          44.250    22293825.727    92787336.832       -1884.964          42.000    22293825.091    92787336.846       -1885.001          42.000  
R18  20812433.765   111098166.4991       1435.114          49.250    20812436.807    86409871.477        1116.197          47.750    20812437.222    86409871.478        1116.201          48.250  
R19  23084426.150   123485540.3251       4418.721          42.000    23084427.234    96044410.0631       3436.853          39.750    23084426.756    96044412.0901       3436.920          40.250  
E11  27978735.426   147030068.091       -2128.134          35.750    27978735.295   109794094.587       -1588.948          39.250    27978731.002   112658288.056       -1630.631          38.000    27978732.446   111800616.134       -1618.150          41.750  
E19  26663056.137   140115903.7061       2198.831          36.500    26663058.325   104631902.4251       1641.992          37.500    26663054.533   107361536.988        1684.719          37.500    26663055.999   106544157.127        1671.931          40.500  
E20  39760807.388   208944315.910         246.797          45.000    39760809.362   156029640.001         184.360          44.500    39760805.919   160099781.387         189.191          44.750    39760807.050   158880936.050         187.734          47.750  
> 2012 12 15 00 13  0.0000000  0 25
G01  25335629.825   133138961.714        -444.995          36.500    25335629.213          17.250    25335631.998   103744845.650        -346.832          34.500    25335631.262   103744644.688        -346.750          17.250    25335631.946    99422704.008        -332.208          40.000  
G09  19827530.423   104194536.4681       -812.991          52.250    19827529.896          45.500                                                                    19827528.563    81190477.407        -633.504          45.500                                                                  
G12  21610837.355   113565955.6081       2669.680          48.750    21610837.297          39.000    21610835.112    88493324.8971       2080.227          43.750    21610835.256    88492928.8951       2080.272          39.000                                                                  
G14  24384139.618   128140233.3501       3421.568          37.250    24384138.992          16.750                                                                    24384137.226    99849531.8051       2666.153          16.750                                                                  
G15  21996263.240   115591264.8351      -2893.856          48.750    21996263.257          39.000    21996261.734    90070770.078       -2254.925          43.500    21996261.335    90071404.087       -2254.953          39.000                                                                  
G17  22451428.822   117982718.7181       -659.739          47.250    22451428.697          36.500    22451426.326    91934999.884        -514.173          42.250    22451426.398    91934491.873        -514.081          36.500                                                                  
G18  23527370.804   123636521.3111      -1919.102          40.750    23527370.067          20.750                                                                    23527368.192    96340141.810       -1495.387          20.750                                                                  
G22  23763785.190   124879511.689        -223.185          42.000    23763784.198          24.500                                                                    23763779.668    97309181.193        -173.901          24.500                                                                  
G24  20231691.623   106317832.732         333.356          51.750    20231691.707          47.750    20231692.079    82845056.621         259.787          51.250    20231692.313    82845387.618         259.757          47.750    20231693.672    79393731.902         248.960          57.750  
G25  24727238.075   129942748.7921       3619.386          35.750    24727237.637          16.500    24727239.062   101253835.3281       2820.740          34.250    24727239.235   101253798.3451       2820.289          16.500    24727241.359    97035169.9111       2702.845          43.250  
G26  25016117.659   131460653.389       -4103.539          36.750    25016117.485          15.500                                                                    25016116.587   102436290.551       -3197.544          15.500                                                                  
G28  25272246.962   132806860.296       -3195.764          36.500    25272246.332          14.000                                                                    25272244.419   103486228.884       -2490.215          14.000                                                                  
R06  23480162.006   125294243.129       -4456.065          41.500    23480163.173    97450797.440       -3465.866          38.250    23480163.627    97450797.463       -3465.724          38.500  
R07  21116333.525   113037398.1511      -2242.236          48.750    21116334.575    87917953.0411      -1744.009          46.250    21116334.177    87917962.0361      -1743.977          46.750  
R08  22163069.915   118681678.126        1549.035          44.750    22163067.526    92307800.259        1205.005          40.000    22163066.209    92307812.253        1204.769          40.500  
R09  19812643.277   105798852.8181       1433.062          51.750    19812644.938    82288001.011        1114.635          49.750    19812645.396    82288001.024        1114.630          50.000  
R10  23373058.259   124591522.4701       3399.121          42.250    23373064.272    96904518.9951       2643.467          35.750    23373064.024    96904519.0071       2643.712          35.250  
R15  24003952.935   128270490.6511      -3448.162          36.750    24003957.460    99765939.769       -2682.090          36.500    24003956.860    99765939.794       -2682.176          36.750  
R16  20134687.787   107556031.282       -1887.699          51.500    20134690.344    83654274.260       -1468.116          49.250    20134690.757    83654446.266       -1468.173          49.000  
R17  22307474.663   119371042.0181      -2445.872          44.500    22307475.207    92844147.793       -1902.390          43.250    22307476.097    92844147.785       -1902.272          43.500  
R18  20804442.796   111055511.7411       1408.580          49.250    20804446.394    86376695.557        1095.537          48.000    20804446.388    86376695.560        1095.524          48.250  
R19  23059660.394   123353054.2571       4413.509          44.250    23059660.180    95941365.2991       3432.854          41.000    23059660.254    95941367.3001       3432.766          41.500  
E11  27990912.844   147094061.8351      -2137.974          34.250    27990912.511   109841882.1221      -1596.575          39.750    27990908.880   112707322.223       -1638.259          38.500    27990910.262   111849276.996       -1625.733          42.250  
E19  26650531.390   140050086.7811       2188.903          36.250    26650533.820   104582753.4431       1634.906          37.500    26650530.372   107311105.875        1677.398          37.500    26650531.307   106494109.938        1664.697          40.500  
E20  39759441.542   208937136.844         231.761          44.500    39759443.715   156024278.948         173.106          44.500    39759439.664   160094280.493         177.643          44.750    39759441.046   158875477.028         176.295          47.750  
> 2012 12 15 00 13 30.0000000  0 25
G01  25338222.258   133152583.6021       -462.878          36.500    25338221.664          15.750    25338223.796   103755460.1681       -360.851          33.750    25338223.618   103755259.1571       -360.690          15.750    25338223.403    99432876.2691       -345.808          39.750  
G09  19832216.668   104219162.5451       -828.731          51.750    19832216.141          45.500                                                                    19832214.766    81209666.5591       -645.763          45.500                                                                  
G12  21595631.336   113486047.052        2657.596          48.750    21595631.269          39.250    21595629.520    88431058.474        2070.797          43.500    21595629.034    88430662.472        2070.855          39.250                                                                  
G14  24364622.067   128037666.9081       3416.250          37.500    24364621.482          16.500                                                                    24364619.510    99769609.9191       2662.008          16.500                                                                  
G15  22012816.483   115678253.4591      -2905.370          48.750    22012816.505          38.750    22012814.885    90138553.4251      -2264.029          43.250    22012814.580    90139187.4261      -2263.924          38.750                                                                  
G17  22455249.660   118002798.2951       -678.862          47.500    22455249.535          36.500    22455247.496    91950646.290        -528.948          42.500    22455247.431    91950138.298        -528.990          36.500                                                                  
G18  23538362.506   123694282.0761      -1931.624          40.750    23538361.809          22.000                                                                    23538359.619    96385150.196       -1505.167          22.000                                                                  
G22  23765110.405   124886474.877        -240.986          42.750    23765109.422          25.000                                                                    23765104.802    97314607.051        -187.774          25.000                                                                  
G24  20229825.806   106308027.838         320.367          52.250    20229825.886          47.750    20229826.471    82837416.450         249.600          51.250    20229826.470    82837747.435         249.641          47.750    20229827.905    79386410.067         239.207          57.750  
G25  24706584.059   129834215.2741       3616.195          36.500    24706583.715          17.000    24706585.953   101169263.8231       2817.798          35.250    24706585.852   101169226.8021       2817.860          17.000    24706587.560    96954122.1801       2700.322          43.000  
G26  25039546.546   131583773.304       -4104.432          37.500    25039546.403          17.000                                                                    25039545.712   102532228.160       -3198.275          17.000                                                                  
G28  25290492.611   132902740.078       -3196.302          34.750    25290491.936          10.500                                                                    25290489.779   103560940.441       -2490.610          10.500                                                                  
R06  23505221.159   125427964.662       -4458.831          42.000    23505222.449    97554803.094       -3467.902          39.750    23505223.981    97554803.070       -3467.858          39.000  
R07  21128964.909   113105014.054       -2265.415          48.750    21128965.895    87970543.144       -1762.072          46.250    21128965.532    87970552.145       -1761.942          47.000  
R08  22154462.534   118635581.362        1524.106          45.000    22154460.472    92271947.201        1185.365          40.250    22154458.286    92271959.202        1185.310          40.250  
R09  19804626.937   105756045.3611       1420.709          52.000    19804628.301    82254706.315        1105.018          49.750    19804629.046    82254706.335        1104.973          50.250  
R10  23353935.069   124489583.5341       3396.770          40.500    23353938.268    96825233.2281       2641.887          35.500    23353939.873    96825233.2171       2641.962          34.750  
R15  24023315.632   128373956.8801      -3449.428          36.750    24023320.586    99846413.503       -2683.008          37.000    24023318.981    99846413.514       -2683.013          35.750  
R16  20145321.475   107612832.578       -1898.998          51.500    20145323.524    83698453.035       -1477.053          49.250    20145324.204    83698625.040       -1476.991          49.000  
R17  22321248.909   119444752.2511      -2468.000          44.500    22321249.298    92901477.958       -1919.563          42.500    22321249.548    92901477.950       -1919.599          42.250  
R18  20796601.403   111013654.0631       1382.016          49.750    20796604.855    86344139.601        1074.863          47.750    20796605.004    86344139.602        1074.905          48.250  
R19  23034920.804   123220726.5301       4408.151          42.500    23034922.816    95838443.7861       3428.641          39.250    23034922.022    95838445.8101       3428.685          40.000  
E11  28003147.035   147158351.601       -2147.916          36.250    28003146.852   109889890.672       -1603.862          39.500    28003142.363   112756583.171       -1645.607          38.750    28003144.152   111898162.922       -1633.171          42.250  
E19  26638061.671   139984558.6291       2179.346          35.750    26638063.900   104533820.2071       1627.326          35.750    26638060.157   107260896.095        1669.861          36.000    26638061.588   106444282.414        1657.138          38.750  
E20  39758160.997   208930407.163         216.868          45.250    39758163.056   156019253.485         162.008          44.750    39758159.090   160089123.938         166.181          44.750    39758160.480   158870359.728         164.928          47.750  
> 2012 12 15 00 14  0.0000000  0 25
G01  25340918.228   133166749.742        -481.361          35.500    25340917.647          15.000    25340920.125   103766498.716        -375.240          35.000    25340919.421   103766297.702        -375.099          15.000    25340919.895    99443454.859        -359.455          40.500  
G09  19836992.713   104244262.1811       -844.549          52.250    19836992.181          45.500                                                                    19836991.058    81229224.721        -658.092          45.500                                                                  
G12  21580494.513   113406503.043        2645.338          49.000    21580494.446          39.250    21580492.920    88369076.144        2061.379          43.750    21580492.381    88368680.149        2061.302          39.250                                                                  
G14  24345134.309   127935257.6341       3410.985          37.250    24345133.768          16.500                                                                    24345131.249    99689810.4811       2657.914          16.500                                                                  
G15  22029435.878   115765589.3941      -2917.008          49.250    22029435.878          38.750    22029434.839    90206607.387       -2272.932          43.500    22029434.058    90207241.395       -2272.995          38.750                                                                  
G17  22459179.155   118023447.0081       -697.860          47.250    22459179.026          36.500    22459176.852    91966736.208        -543.813          42.250    22459176.825    91966228.207        -543.787          36.500                                                                  
G18  23549425.776   123752422.2511      -1944.357          39.500    23549425.061          21.750                                                                    23549424.166    96430454.2131      -1515.089          21.750                                                                  
G22  23766536.976   124893971.7921       -258.783          42.000    23766535.993          24.750                                                                    23766531.639    97320448.7801       -201.642          24.750                                                                  
G24  20228034.954   106298616.8291        307.125          52.000    20228035.034          47.750    20228035.586    82830083.1801        239.304          51.250    20228035.590    82830414.1741        239.321          47.750    20228037.070    79379382.3501        229.336          57.500  
G25  24685950.958   129725784.8891       3612.518          36.500    24685950.538          17.500    24685952.724   101084772.5741       2815.112          35.500    24685951.872   101084735.5911       2814.949          17.500    24685954.014    96873151.4411       2697.769          42.750  
G26  25062981.170   131706922.178       -4105.507          38.750    25062981.099          17.500                                                                    25062980.412   102628188.320       -3199.091          17.500                                                                  
G28  25308740.375   132998634.376       -3196.802          36.500    25308739.817          12.250                                                                    25308737.738   103635663.261       -2491.035          12.250                                                                  
R06  23530294.851   125561761.980       -4461.063          40.000    23530296.580    97658867.648       -3469.669          38.500    23530296.950    97658867.659       -3469.683          38.500  
R07  21141725.521   113173324.718       -2288.560          48.750    21141726.702    88023673.616       -1779.979          46.500    21141726.957    88023682.612       -1780.043          47.250  
R08  22145994.594   118590237.572        1498.794          45.000    22145992.427    92236679.794        1165.729          40.000    22145990.138    92236691.804        1165.709          40.250  
R09  19796680.436   105713611.7331       1408.201          52.000    19796681.775    82221702.3751       1095.312          50.000    19796682.660    82221702.3901       1095.247          50.250  
R10  23334824.514   124387711.830        3394.663          42.500    23334829.609    96745999.718        2640.126          34.750    23334828.686    96745999.694        2640.345          35.000  
R15  24042685.670   128477460.9721      -3450.683          37.250    24042688.912    99926916.713       -2684.077          36.500    24042688.669    99926916.728       -2683.873          36.750  
R16  20156018.840   107669975.757       -1910.463          51.750    20156021.050    83742897.723       -1485.936          49.250    20156021.586    83743069.724       -1485.922          49.250  
R17  22335147.651   119519126.7821      -2490.157          44.500    22335147.837    92959324.789       -1936.791          41.500    22335148.102    92959324.811       -1936.883          42.000  
R18  20788910.006   110972595.8011       1355.196          49.000    20788913.329    86312205.4131       1054.132          47.750    20788913.402    86312205.4201       1054.045          48.000  
R19  23010214.920   123088561.5011       4402.616          42.250    23010216.187    95735648.7411       3424.410          41.000    23010216.186    95735650.7331       3424.328          42.000  
E11  28015437.442   147222935.713       -2157.786          37.500    28015436.284   109938119.080       -1611.292          38.750    28015432.474   112806069.701       -1653.323          38.500    28015434.039   111947272.710       -1640.689          41.750  
E19  26625647.223   139919320.7491       2169.682          36.000    26625649.553   104485103.6601       1620.126          35.750    26625645.936   107210908.637        1662.646          36.500    26625647.125   106394675.537        1649.845          39.000  
E20  39756965.751   208924127.006         201.855          44.750    39756967.550   156014563.695         150.806          44.500    39756963.861   160084311.810         154.682          44.250    39756965.404   158865584.233         153.495          47.250  
> 2012 12 15 00 14 30.0000000  0 25
G01  25343717.286   133181459.841        -499.342          37.250    25343716.705          16.250    25343718.822   103777961.185        -388.914          34.750    25343718.719   103777760.199        -389.113          16.250    25343718.710    99454439.7351       -372.893          40.000  
G09  19841859.203   104269835.1431       -860.322          51.750    19841858.671          45.250                                                                    19841857.435    81249151.704        -670.378          45.250                                                                  
G12  21565427.577   113327325.139        2633.105          49.250    21565427.506          39.000    21565425.579    88307379.087        2051.802          44.000    21565425.347    88306983.093        2051.771          39.000                                                                  
G14  24325676.375   127833007.6351       3405.644          37.500    24325675.839          16.750                                                                    24325674.003    99610135.1501       2653.730          16.750                                                                  
G15  22046121.248   115853270.7391      -2928.498          48.750    22046121.231          38.500    22046119.790    90274930.514       -2281.869          43.250    22046119.292    90275564.516       -2281.946          38.500                                                                  
G17  22463216.647   118044664.1811       -716.714          47.000    22463216.527          36.250    22463214.475    91983269.066        -558.419          42.500    22463214.288    91982761.076        -558.479          36.250                                                                  
G18  23560562.086   123810939.3901      -1956.931          40.000    23560561.438          21.250                                                                    23560559.749    96476051.943       -1524.868          21.250                                                                  
G22  23768065.482   124902001.868        -276.545          41.250    23768064.530          24.000                                                                    23768059.633    97326705.961        -215.495          24.000                                                                  
G24  20226319.225   106289600.363         293.926          52.000    20226319.309          47.500    20226319.718    82823057.359         229.050          51.250    20226319.797    82823388.353         229.030          47.500    20226321.299    79372649.269         219.539          57.750  
G25  24665336.533   129617458.9221       3609.217          36.500    24665336.055          17.000    24665338.999   101000362.7721       2812.345          35.750    24665338.358   101000325.7511       2812.370          17.000    24665340.339    96792258.6811       2695.139          42.750  
G26  25086420.167   131830097.800       -4106.337          37.250    25086420.118          13.750                                                                    25086419.535   102724169.337       -3199.761          13.750                                                                  
G28  25326991.229   133094541.907       -3197.119          35.750    25326990.657          12.750                                                                    25326988.401   103710396.422       -2491.247          12.750                                                                  
R06  23555381.208   125695630.947       -4463.441          40.250    23555384.461    97762987.926       -3471.540          40.000    23555384.188    97762987.940       -3471.495          39.500  
R07  21154615.951   113242326.861       -2311.561          48.250    21154616.609    88077341.907       -1797.779          45.750    21154616.677    88077350.919       -1797.857          46.750  
R08  22137667.989   118545649.114        1473.614          44.500    22137665.746    92201999.915        1146.318          40.250    22137663.789    92202011.910        1146.236          40.000  
R09  19788803.982   105671552.3731       1395.712          51.750    19788805.535    82188989.536        1085.558          50.250    19788806.460    82188989.548        1085.572          50.250  
R10  23315725.932   124285908.0471       3392.166          42.250    23315732.377    96666819.0051       2638.583          35.750    23315731.061    96666819.0101       2638.600          35.250  
R15  24062061.020   128581002.4911      -3451.719          36.500    24062064.733   100007449.069       -2685.120          36.500    24062064.786   100007449.088       -2685.116          36.000  
R16  20166779.778   107727459.851       -1921.847          51.750    20166781.947    83787607.557       -1494.680          48.750    20166782.501    83787779.572       -1494.723          49.000  
R17  22349169.695   119594162.4241      -2512.120          44.000    22349170.528    93017685.847       -1953.932          42.000    22349170.695    93017685.853       -1953.831          42.250  
R18  20781368.791   110932338.9941       1328.452          49.500    20781372.018    86280894.583        1033.258          47.750    20781372.077    86280894.586        1033.259          48.250  
R19  22985540.356   122956563.4981       4397.017          44.750    22985540.750    95632983.6411       3419.959          39.500    22985539.788    95632985.6771       3419.967          40.500  
E11  28027782.982   147287812.639       -2167.473          38.750    28027781.732   109986566.145       -1618.588          38.750    28027778.298   112855780.623       -1660.925          39.000    28027779.787   111996605.174       -1648.246          42.000  
E19  26613288.194   139854374.7921       2159.807          36.750    26613290.775   104436605.0481       1613.005          35.500    26613286.867   107161144.874        1655.376          36.250    26613288.446   106345290.613        1642.601          38.750  
E20  39755856.203   208918296.5841        186.807          45.000    39755858.377   156010209.7671        139.565          44.250    39755854.563   160079844.307         143.096          44.250    39755855.940   158861150.736         142.073          47.250  
