     3.01           Observation data    Mixed               RINEX VERSION / TYPE
BNC 2.8             Weber               20130126 131205 UTC PGM / RUN BY / DATE
BRUX                                                        MARKER NAME
13101M010                                                   MARKER NUMBER
Carine Bruyninx     ROB                                     OBSERVER / AGENCY
3001376             SEPT POLARX4TR      2.3.4               REC # / TYPE / VERS
00464               JAVRINGANT_DM   NONE                    ANT # / TYPE
  4027881.6287   306998.5366  4919498.9839                  APPROX POSITION XYZ
        0.4689        0.0000        0.0010                  ANTENNA: DELTA H/E/N
E   16 C1C L1C D1C S1C C5Q L5Q D5Q S5Q C7Q L7Q D7Q S7Q C8Q  SYS / # / OBS TYPES
       L8Q D8Q S8Q                                          SYS / # / OBS TYPES
G   18 C1C L1C D1C S1C C1W S1W C2L L2L D2L S2L C2W L2W D2W  SYS / # / OBS TYPES
       S2W C5Q L5Q D5Q S5Q                                  SYS / # / OBS TYPES
R   12 C1C L1C D1C S1C C2C L2C D2C S2C C2P L2P D2P S2P      SYS / # / OBS TYPES
    30.000                                                  INTERVAL
  2012    12    15     0    45    0.0000000     GPS         TIME OF FIRST OBS
                                                            END OF HEADER
> 2012 12 15 00 45  0.0000000  0 21
G09  20305963.257   106708715.0941      -1793.708          52.000    20305962.739          44.250                                                                    20305961.601    83149576.941       -1397.690          44.250                                                                  
G12  20786344.192   109233217.420        1821.895          51.500    20786344.058          44.000    20786342.066    85117165.727        1419.651          46.750    20786342.102    85116769.723        1419.661          44.000                                                                  
G14  23214435.823   121993394.058        2925.062          41.750    23214435.193          25.000                                                                    23214432.664    95059786.388        2279.270          25.000                                                                  
G15  23171702.966   121768241.432       -3489.201          44.750    23171702.886          31.250    23171701.556    94883998.126       -2718.815          40.000    23171701.358    94884632.131       -2718.858          31.250                                                                  
G17  22906327.941   120373229.6461      -1800.746          45.750    22906327.834          33.500    22906325.333    93797735.580       -1403.102          40.750    22906325.662    93797227.581       -1403.183          33.500                                                                  
G18  24355931.681   127990639.8251      -2554.998          35.750    24355931.029          13.000                                                                    24355930.640    99732960.964       -1990.924          13.000                                                                  
G22  24045607.690   126360488.246       -1290.275          40.750    24045606.751          23.000                                                                    24045603.252    98463186.689       -1005.401          23.000                                                                  
G24  20266957.452   106503153.863        -534.407          52.500    20266957.536          48.000    20266957.806    82989462.463        -416.450          51.250    20266957.926    82989793.455        -416.419          48.000    20266959.406    79532120.819        -399.090          57.500  
G25  23455708.204   123260819.258        3311.112          41.250    23455707.762          26.250    23455710.172    96047137.589        2579.981          39.500    23455710.322    96047100.584        2580.080          26.250    23455710.340    92045418.054        2472.565          46.000  
R01  24043226.544   128525237.2951       3251.083          39.000    24043230.229    99964074.5071       2528.610          34.000    24043229.978    99964074.5251       2528.774          33.000  
R07  22157552.337   118611114.018       -3472.453          45.500    22157553.201    92253064.199       -2700.708          44.250    22157553.365    92253073.219       -2700.832          44.500  
R08  21906821.837   117309472.331        -138.534          46.500    21906820.088    91240528.103        -107.804          41.000    21906817.505    91240540.106        -107.844          41.500  
R09  19446052.315   103841277.1601        590.525          52.000    19446053.680    80765442.200         459.320          50.250    19446054.370    80765442.210         459.354          50.500  
R10  22181243.494   118238487.313        3197.208          46.000    22181248.744    91963271.591        2486.768          38.500    22181248.034    91963271.578        2486.757          38.750  
R16  20937774.706   111845973.205       -2562.343          49.000    20937778.089    86990894.672       -1992.943          46.500    20937777.969    86991066.674       -1992.896          46.750  
R17  23411587.826   125279376.1111      -3622.325          39.500    23411589.003    97439518.224       -2817.505          39.250    23411589.438    97439518.208       -2817.486          39.750  
R18  20616011.661   110049656.3541       -379.146          50.250    20616014.915    85594364.397        -294.874          48.250    20616015.001    85594364.402        -294.927          48.500  
R19  21571964.801   115394897.7811       3775.712          47.500    21571965.850    89751688.937        2936.699          45.250    21571965.666    89751690.948        2936.686          45.500  
E11  28873694.973   151733106.149       -2655.783          32.500    28873695.359   113306101.452       -1983.274          35.250    28873691.410   116261912.734       -2034.829          35.000    28873692.850   115376806.165       -2019.408          38.250  
E19  25976157.649   136506231.4641       1469.377          37.750    25976159.783   101936368.337        1097.198          38.750    25976156.559   104595684.564        1125.876          39.500    25976157.632   103799361.260        1117.282          42.250  
E20  39849441.499   209410085.645        -718.102          44.500    39849443.746   156377453.487        -536.288          44.250    39849439.869   160456668.445        -550.270          44.250    39849441.412   159235106.026        -546.084          47.250  
> 2012 12 15 00 45 30.0000000  0 21
G09  20316245.074   106762745.6991      -1808.348          52.000    20316244.556          44.250                                                                    20316243.324    83191678.696       -1409.102          44.250                                                                  
G12  20775984.055   109178773.520        1807.684          51.250    20775983.917          44.250    20775981.779    85074741.939        1408.587          46.750    20775981.751    85074345.941        1408.586          44.250                                                                  
G14  23197767.028   121905799.9961       2914.510          41.750    23197766.456          26.000                                                                    23197764.221    94991531.2721       2271.044          26.000                                                                  
G15  23191641.240   121873018.071       -3495.881          44.750    23191641.187          31.250    23191639.556    94965642.252       -2724.097          40.250    23191639.572    94966276.257       -2724.063          31.250                                                                  
G17  22916654.266   120427494.6791      -1816.920          46.000    22916654.159          33.000    22916652.381    93840020.013       -1415.797          39.750    22916651.623    93839512.020       -1415.786          33.000                                                                  
G18  24370540.045   128067397.3501      -2562.042          37.250    24370539.419          15.250                                                                    24370537.266    99792771.941       -1996.329          15.250                                                                  
G22  24053016.826   126399421.398       -1305.250          40.500    24053015.896          23.250                                                                    24053012.346    98493524.181       -1017.073          23.250                                                                  
G24  20270047.954   106519394.814        -548.291          52.250    20270048.043          47.750    20270048.486    83002117.746        -427.190          51.000    20270048.461    83002448.742        -427.241          47.750    20270049.950    79544248.801        -409.418          57.500  
G25  23436824.399   123161583.3841       3304.743          42.000    23436823.939          24.750    23436826.510    95969810.9371       2575.088          38.250    23436825.422    95969773.9321       2575.131          24.750    23436828.185    91971313.334        2467.849          47.000  
R01  24025026.931   128427950.6371       3234.808          37.000    24025030.195    99888407.1441       2516.030          34.000    24025030.546    99888407.1371       2516.060          34.000  
R07  22177052.805   118715508.112       -3487.107          45.500    22177053.527    92334259.580       -2712.152          43.000    22177054.111    92334268.568       -2712.164          43.250  
R08  21907671.228   117314030.1171       -165.309          44.500    21907671.107    91244073.0421       -128.526          40.750    21907668.522    91244085.0561       -128.479          41.250  
R09  19442773.698   103823769.6491        576.648          52.250    19442774.899    80751825.241         448.517          50.500    19442775.932    80751825.255         448.504          50.500  
R10  22163261.656   118142632.6831       3193.043          46.000    22163266.651    91888717.9961       2483.415          39.500    22163266.249    91888717.9871       2483.602          39.500  
R16  20952192.235   111922987.298       -2571.947          49.500    20952194.640    87050794.490       -2000.405          46.750    20952195.451    87050966.496       -2000.388          46.750  
R17  23431936.289   125388259.5011      -3636.702          41.250    23431936.170    97524205.304       -2828.424          38.500    23431936.519    97524205.306       -2828.346          38.500  
R18  20618222.069   110061454.4701       -407.447          50.250    20618225.222    85603540.721        -316.925          48.250    20618225.132    85603540.721        -316.881          48.250  
R19  21550831.207   115281847.9561       3760.969          48.000    21550832.119    89663761.3331       2925.145          45.250    21550832.067    89663763.3411       2925.225          45.250  
E11  28888875.099   151812875.090       -2662.124          33.250    28888874.885   113365669.064       -1987.880          34.750    28888870.879   116323034.276       -2039.658          34.250    28888872.216   115437462.392       -2024.200          37.500  
E19  25967805.896   136462340.4481       1456.704          39.500    25967807.928   101903592.5851       1087.768          38.750    25967804.337   104562053.803        1116.168          40.000    25967805.504   103765986.528        1107.639          42.250  
E20  39853582.394   209431845.510        -732.539          44.500    39853584.710   156393702.711        -546.919          44.000    39853580.878   160473341.572        -561.365          44.250    39853582.197   159251652.214        -556.998          47.000  
> 2012 12 15 00 46  0.0000000  0 22
G04  25114487.639   131978137.3461       2811.200          34.000    25114486.937          11.000                                                                    25114487.961   102840082.3821       2190.519          11.000                                                                  
G09  20326610.116   106817214.9191      -1822.969          52.250    20326609.602          44.250                                                                    20326608.433    83234122.229       -1420.493          44.250                                                                  
G12  20765704.620   109124754.7461       1793.545          51.750    20765704.486          44.250    20765702.521    85032649.3991       1397.566          46.750    20765702.295    85032253.4011       1397.563          44.250                                                                  
G14  23181158.384   121818521.368        2903.991          42.000    23181157.888          25.250                                                                    23181155.882    94923521.952        2262.843          25.250                                                                  
G15  23211618.648   121977997.610       -3502.734          44.250    23211618.608          30.750    23211616.980    95047444.468       -2729.271          39.250    23211616.505    95048078.482       -2729.406          30.750                                                                  
G17  22927072.624   120482244.9931      -1833.105          46.000    22927072.508          33.250    22927070.326    93882682.585       -1428.377          40.500    22927070.306    93882174.582       -1428.397          33.250                                                                  
G18  24385184.026   128144361.7011      -2568.965          38.000    24385183.374          14.750                                                                    24385183.020    99852744.201       -2001.766          14.750                                                                  
G22  24060511.040   126438805.142       -1320.349          41.000    24060510.093          23.500                                                                    24060506.566    98524212.795       -1028.844          23.500                                                                  
G24  20273217.508   106536051.529        -562.196          52.500    20273217.597          47.750    20273218.115    83015097.007        -438.044          51.500    20273218.148    83015428.001        -438.073          47.750    20273219.655    79556687.257        -419.787          57.500  
G25  23417975.720   123062534.408        3298.458          41.000    23417975.215          26.250    23417977.844    95892629.962        2570.245          40.750    23417977.627    95892592.950        2570.229          26.250    23417979.742    91897348.2581       2463.206          47.500  
R01  24006918.163   128331148.7491       3218.773          38.500    24006920.260    99813116.7321       2503.336          31.500    24006920.618    99813116.7541       2503.250          32.750  
R07  22196636.035   118820340.511       -3501.654          45.000    22196638.260    92415795.892       -2723.485          43.750    22196638.240    92415804.896       -2723.474          44.000  
R08  21908673.471   117319390.242        -191.999          45.500    21908671.760    91248242.013        -149.403          40.750    21908669.540    91248254.007        -149.371          41.250  
R09  19439573.364   103806678.7481        562.743          52.250    19439574.479    80738532.310         437.721          50.250    19439575.226    80738532.325         437.673          50.500  
R10  22145303.409   118046905.751        3188.704          46.000    22145309.281    91814263.703        2480.114          39.000    22145307.985    91814263.723        2480.071          38.750  
R16  20966663.430   112000290.420       -2581.625          49.250    20966666.074    87110919.130       -2007.884          46.500    20966666.694    87111091.140       -2007.990          46.500  
R17  23452363.047   125497565.0611      -3650.485          41.750    23452363.478    97609220.765       -2839.424          39.000    23452362.914    97609220.768       -2839.152          39.500  
R18  20620590.897   110074100.3021       -435.629          50.000    20620594.010    85613376.366        -338.830          48.750    20620594.331    85613376.376        -338.833          48.500  
R19  21529780.805   115169242.7061       3746.081          47.750    21529781.756    89576179.494        2913.595          45.500    21529781.846    89576181.499        2913.615          45.500  
E11  28904090.431   151892831.002       -2668.319          35.750    28904089.684   113425376.254       -1992.691          35.500    28904086.554   116384299.075       -2044.524          36.250    28904087.448   115498260.762       -2028.968          38.750  
E19  25959526.322   136418831.8211       1443.898          38.500    25959528.343   101871102.366        1078.266          38.750    25959524.909   104528716.004        1106.468          40.000    25959526.125   103732902.532        1097.977          42.500  
E20  39857805.151   209454036.288        -746.885          44.000    39857808.118   156410273.724        -557.622          44.250    39857803.646   160490344.880        -572.345          44.250    39857805.068   159268526.072        -567.897          47.250  
> 2012 12 15 00 46 30.0000000  0 22
G04  25098458.803   131893904.9191       2804.634          34.250    25098458.343          12.000                                                                    25098459.090   102774446.7001       2185.418          12.000                                                                  
G09  20337058.560   106872121.8541      -1837.516          52.000    20337058.051          44.250                                                                    20337056.876    83276906.836       -1431.830          44.250                                                                  
G12  20755505.989   109071161.319        1779.320          51.500    20755505.855          44.000    20755504.039    84990888.311        1386.529          46.750    20755503.749    84990492.315        1386.484          44.000                                                                  
G14  23164610.096   121731560.7911       2893.354          42.000    23164609.640          26.000                                                                    23164607.676    94855760.4501       2254.558          26.000                                                                  
G15  23231633.541   122083177.710       -3509.290          44.500    23231633.533          30.750    23231631.967    95129402.989       -2734.494          40.250    23231631.631    95130037.000       -2734.513          30.750                                                                  
G17  22937583.542   120537478.9911      -1849.199          45.750    22937583.449          33.250    22937581.449    93925722.056       -1440.962          40.000    22937581.195    93925214.054       -1440.934          33.250                                                                  
G18  24399869.295   128221530.0861      -2575.869          35.250    24399868.737          14.250                                                                    24399867.578    99912875.381       -2007.131          14.250                                                                  
G22  24068090.245   126478637.721       -1335.272          41.000    24068089.248          23.250                                                                    24068086.311    98555251.132       -1040.477          23.250                                                                  
G24  20276466.433   106553124.463        -576.047          52.500    20276466.522          47.750    20276467.033    83028400.596        -448.865          51.250    20276467.028    83028731.586        -448.869          47.750    20276468.490    79569436.531        -430.161          57.500  
G25  23399163.478   122963673.5801       3292.203          42.000    23399162.924          25.500    23399164.966    95815595.5611       2565.345          38.000    23399164.777    95815558.5761       2565.354          25.500    23399165.461    91823523.628        2458.425          46.000  
R01  23988900.177   128234835.3641       3202.163          38.000    23988901.994    99738206.2871       2490.903          32.000    23988903.458    99738206.2911       2491.058          32.000  
R07  22216302.258   118925606.935       -3516.010          45.000    22216301.957    92497669.747       -2734.774          43.000    22216302.227    92497678.739       -2734.763          43.500  
R08  21909824.276   117325552.779        -218.696          46.000    21909821.995    91253035.080        -170.111          40.500    21909820.388    91253047.090        -170.244          41.000  
R09  19436450.916   103790005.1781        548.855          52.250    19436452.016    80725563.987         426.860          50.250    19436452.808    80725564.001         426.881          50.750  
R10  22127370.011   117951307.9081       3184.418          46.750    22127374.785    91739909.8231       2476.719          39.250    22127373.912    91739909.8271       2476.676          39.750  
R16  20981188.517   112077881.916       -2591.201          49.000    20981191.187    87171268.071       -2015.413          46.000    20981191.441    87171440.064       -2015.419          46.250  
R17  23472866.830   125607289.0451      -3664.300          40.750    23472867.566    97694561.6691      -2850.147          39.000    23472867.637    97694561.6871      -2850.164          39.500  
R18  20623118.623   110087593.1241       -463.894          49.750    20623121.516    85623870.7911       -360.769          48.500    20623121.889    85623870.8001       -360.774          48.500  
R19  21508814.591   115057086.2481       3731.033          47.750    21508815.271    89488946.7131       2901.956          44.750    21508814.958    89488948.7251       2901.854          45.500  
E11  28919340.523   151972971.553       -2674.606          30.250    28919340.654   113485221.322       -1997.392          32.250    28919336.397   116445705.327       -2049.233          31.750    28919338.015   115559199.538       -2033.885          34.750  
E19  25951319.971   136375706.7611       1431.081          39.250    25951322.035   101838898.6011       1068.648          38.750    25951318.368   104495672.151        1096.593          40.000    25951319.701   103700110.239        1088.219          42.250  
E20  39862109.668   209476657.205        -761.138          44.000    39862112.457   156427165.969        -568.418          44.250    39862108.365   160507677.784        -583.224          44.500    39862109.707   159285727.027        -578.806          47.250  
> 2012 12 15 00 47  0.0000000  0 22
G04  25082467.629   131809870.4811       2797.779          35.750    25082467.169          12.000                                                                    25082467.651   102708965.3261       2180.071          12.000                                                                  
G09  20347590.298   106927465.9371      -1852.122          52.000    20347589.793          44.250                                                                    20347588.607    83320032.071       -1443.211          44.250                                                                  
G12  20745388.741   109017994.297        1765.107          51.250    20745388.621          44.500    20745386.812    84949459.481        1375.420          46.750    20745386.390    84949063.483        1375.409          44.500                                                                  
G14  23148123.526   121644921.149        2882.577          41.750    23148123.111          26.250                                                                    23148120.902    94788249.052        2246.171          26.250                                                                  
G15  23251686.418   122188555.897       -3515.852          44.750    23251686.369          31.000    23251684.445    95211515.871       -2739.791          40.000    23251684.636    95212149.859       -2739.625          31.000                                                                  
G17  22948185.821   120593194.917       -1865.265          46.250    22948185.705          33.250    22948183.918    93969137.053       -1453.304          40.500    22948183.560    93968629.063       -1453.451          33.250                                                                  
G18  24414592.461   128298899.4491      -2582.744          36.750    24414591.876          14.000                                                                    24414590.556    99973163.148       -2012.542          14.000                                                                  
G22  24075755.741   126518917.5161      -1350.100          41.000    24075754.717          23.750                                                                    24075751.826    98586637.9521      -1052.026          23.750                                                                  
G24  20279794.556   106570613.896        -589.929          52.250    20279794.632          48.000    20279795.109    83042028.728        -459.664          51.250    20279795.163    83042359.719        -459.686          48.000    20279796.612    79582496.826        -440.527          57.250  
G25  23380386.565   122865002.069        3285.930          41.250    23380386.002          26.500    23380388.180    95738708.694        2560.603          40.250    23380387.974    95738671.686        2560.467          26.500    23380391.247    91749840.3901       2453.721          48.000  
R01  23970974.725   128139014.4941       3185.770          37.500    23970977.748    99663678.9361       2477.684          33.250    23970978.503    99663678.9841       2477.940          32.750  
R07  22236045.361   119031302.624       -3530.359          44.250    22236046.883    92579877.471       -2745.784          42.500    22236047.128    92579886.472       -2745.716          43.000  
R08  21911123.977   117332517.318        -245.583          45.500    21911122.657    91258451.948        -191.167          40.500    21911120.879    91258463.933        -190.964          40.750  
R09  19433406.573   103773749.7581        534.834          52.000    19433407.695    80712920.879         415.995          50.250    19433408.643    80712920.895         415.982          50.750  
R10  22109459.896   117855840.153        3180.075          46.000    22109465.227    91665657.155        2473.148          39.250    22109464.724    91665657.140        2473.408          39.250  
R16  20995767.843   112155760.808       -2600.811          49.000    20995770.222    87231840.527       -2022.844          46.500    20995770.697    87232012.528       -2022.802          46.250  
R17  23493448.677   125717427.232       -3678.314          39.500    23493448.993    97780224.676       -2860.634          38.000    23493448.942    97780224.697       -2860.926          38.750  
R18  20625804.833   110101932.3401       -492.060          50.250    20625808.120    85635023.527        -382.710          48.500    20625808.033    85635023.533        -382.686          48.500  
R19  21487932.378   114945382.8231       3715.832          48.000    21487933.309    89402066.306        2890.162          45.000    21487933.303    89402068.309        2890.120          45.500  
E11                                                                  28934625.473   113545203.826       -2001.570          29.250    28934621.811   116507252.588       -2054.230          29.000    28934623.358   115620278.235       -2038.422          32.000  
E19  25943186.630   136332966.3901       1418.264          38.750    25943188.672   101806982.101        1059.181          39.000    25943185.283   104462923.048        1086.641          39.750    25943186.387   103667610.454        1078.446          42.500  
E20  39866496.034   209499707.494        -775.516          44.250    39866498.390   156444378.828        -579.152          44.000    39866495.125   160525339.677        -594.160          44.750    39866496.091   159303254.457        -589.687          47.250  
> 2012 12 15 00 47 30.0000000  0 22
G04  25066515.082   131726037.1091       2791.158          36.500    25066514.676          13.750                                                                    25066514.784   102643640.6231       2174.934          13.750                                                                  
G09  20358204.860   106983246.1321      -1866.592          52.000    20358204.355          44.000                                                                    20358203.156    83363497.153       -1454.489          44.000                                                                  
G12  20735352.682   108965254.322        1750.881          51.500    20735352.571          44.250    20735350.487    84908363.406        1364.311          46.750    20735350.294    84907967.405        1364.323          44.250                                                                  
G14  23131697.950   121558604.7611       2871.783          42.250    23131697.548          25.750                                                                    23131695.094    94720989.5301       2237.752          25.750                                                                  
G15  23271776.439   122294129.795       -3522.391          44.000    23271776.372          30.250    23271775.252    95293781.202       -2744.647          40.000    23271774.702    95294415.222       -2744.720          30.250                                                                  
G17  22958879.485   120649390.5291      -1881.113          45.500    22958879.383          33.000    22958877.252    94012925.8511      -1465.815          40.500    22958877.611    94012417.8461      -1465.799          33.000                                                                  
G18  24429352.686   128376466.8081      -2588.813          36.750    24429352.065          12.000                                                                    24429350.926   100033605.256       -2017.246          12.000                                                                  
G22  24083506.076   126559641.839       -1364.774          40.250    24083505.115          23.250                                                                    24083501.505    98618371.149       -1063.451          23.250                                                                  
G24  20283201.894   106588519.761        -603.788          52.500    20283201.974          47.750    20283202.493    83055981.354        -470.458          51.250    20283202.490    83056312.351        -470.485          47.750    20283203.961    79595868.097        -450.854          57.500  
G25  23361646.457   122766521.0851       3279.493          42.250    23361645.925          26.750    23361648.266    95661970.3001       2555.342          39.750    23361648.275    95661933.2941       2555.439          26.750    23361649.411    91676299.436        2448.974          46.750  
R01  23953143.615   128043690.0051       3169.095          39.000    23953145.140    99589537.6861       2465.011          33.250    23953145.864    99589537.7161       2464.863          32.750  
R07  22255871.152   119137423.654       -3544.416          46.000    22255872.094    92662416.024       -2756.731          42.750    22255871.284    92662425.033       -2756.725          43.000  
R08  21912575.601   117340283.3221       -272.193          46.500    21912573.097    91264492.1071       -211.648          40.750    21912570.914    91264504.1131       -211.615          41.000  
R09  19430441.016   103757913.3161        520.903          52.000    19430442.056    80700603.649         405.147          50.500    19430443.054    80700603.663         405.173          50.750  
R10  22091575.282   117760503.8511       3175.639          46.250    22091580.650    91591506.6561       2469.956          39.000    22091579.575    91591506.6601       2470.077          39.500  
R16  21010400.407   112233926.302       -2610.242          49.000    21010403.411    87292635.903       -2030.206          46.250    21010403.438    87292807.906       -2030.168          46.250  
R17  23514108.090   125827975.3971      -3691.723          41.000    23514108.063    97866206.657       -2871.405          37.750    23514107.659    97866206.666       -2871.343          38.000  
R18  20628649.407   110117116.9831       -520.218          50.250    20628652.663    85646833.806        -404.559          48.500    20628652.745    85646833.814        -404.622          48.750  
R19  21467136.960   114834136.6971       3700.577          48.000    21467137.248    89315541.561        2878.199          44.750    21467136.784    89315543.564        2878.257          45.500  
E11  28949945.142   152133802.967       -2686.329          28.000    28949945.672   113605322.438       -2006.199          29.250    28949942.265   116568939.577       -2059.074          29.500    28949943.276   115681495.550       -2043.033          32.250  
E19  25935126.651   136290611.9231       1405.392          39.500    25935128.805   101775353.7411       1049.534          39.250    25935125.652   104430469.593        1076.906          40.250    25935126.658   103635404.072        1068.722          42.750  
E20  39870963.950   209523186.453        -789.796          44.500    39870966.417   156461911.786        -589.795          44.000    39870963.081   160543330.033        -605.180          44.500    39870964.020   159321107.840        -600.547          47.250  
> 2012 12 15 00 48  0.0000000  0 21
G04  25050600.560   131642408.0351       2784.253          35.750    25050600.167          11.000                                                                    25050600.539   102578475.1401       2169.544          11.000                                                                  
G09  20368902.280   107039461.5391      -1881.056          52.000    20368901.780          43.750                                                                    20368900.601    83407301.356       -1465.757          43.750                                                                  
G12  20725397.837   108912941.7671       1736.665          51.750    20725397.717          44.250    20725395.841    84867600.3931       1353.234          47.250    20725395.537    84867204.3911       1353.246          44.250                                                                  
G14  23115334.728   121472613.751        2860.947          42.250    23115334.348          26.250                                                                    23115331.715    94653983.547        2229.306          26.250                                                                  
G15  23291903.236   122399897.176       -3528.781          44.000    23291903.152          30.250    23291901.204    95376197.354       -2749.612          40.250    23291901.609    95376831.352       -2749.695          30.250                                                                  
G17  22969664.139   120706064.0301      -1896.992          46.250    22969664.037          33.000    22969662.252    94057087.014       -1478.264          40.250    22969661.903    94056579.011       -1478.182          33.000                                                                  
G18  24444150.323   128454229.6291      -2595.245          36.250    24444149.621          14.000                                                                    24444148.500   100094199.638       -2022.263          14.000                                                                  
G22  24091339.497   126600809.176       -1379.560          41.000    24091338.590          22.750                                                                    24091335.488    98650449.577       -1074.975          22.750                                                                  
G24  20286688.460   106606842.075        -617.639          52.250    20286688.544          47.500    20286689.029    83070258.484        -481.274          51.500    20286689.113    83070589.474        -481.277          47.500    20286690.557    79609550.345        -461.248          57.250  
G25  23342942.598   122668231.877        3273.187          41.750    23342942.089          25.750    23342944.352    95585381.327        2550.337          39.500    23342943.778    95585344.321        2550.524          25.750    23342945.710    91602901.658        2444.233          47.000  
R01  23935404.023   127948865.4851       3152.533          38.000    23935406.961    99515785.2991       2451.941          33.250    23935407.103    99515785.3221       2451.844          33.000  
R07  22275773.219   119243964.9321      -3558.221          45.250    22275773.964    92745281.4561      -2767.547          43.250    22275774.896    92745290.4481      -2767.547          43.750  
R08  21914174.631   117348849.017        -298.774          46.000    21914173.076    91271154.304        -232.289          41.000    21914170.807    91271166.300        -232.470          41.250  
R09  19427553.865   103742496.2601        506.924          51.750    19427555.319    80688612.606         394.270          50.250    19427555.942    80688612.622         394.237          50.750  
R10  22073715.256   117665300.300        3171.258          46.250    22073720.640    91517459.473        2466.462          39.250    22073720.004    91517459.504        2466.375          39.250  
R16  21025086.659   112312377.574       -2619.780          49.000    21025089.258    87353653.539       -2037.605          46.250    21025089.981    87353825.548       -2037.676          46.250  
R17  23534841.637   125938929.5841      -3705.112          40.500    23534842.870    97952504.391       -2881.897          38.750    23534842.278    97952504.402       -2881.966          39.750  
R18  20631652.096   110133146.2811       -548.379          50.000    20631655.174    85659301.053        -426.581          48.250    20631655.605    85659301.055        -426.541          48.750  
R19  21446426.829   114723352.3701       3685.141          48.000    21446427.444    89229375.9981       2866.105          45.750    21446427.157    89229377.9931       2866.217          45.750  
E19  25927140.780   136248644.4791       1392.543          39.750    25927142.465   101744014.412        1039.751          39.250    25927139.724   104398312.719        1066.934          40.250    25927140.497   103603492.009        1058.807          42.750  
E20  39875513.180   209547093.223        -803.985          44.250    39875515.980   156479764.221        -600.319          44.250    39875512.130   160561648.190        -616.038          44.750    39875513.337   159339286.541        -611.319          47.500  
> 2012 12 15 00 48 30.0000000  0 21
G04  25034726.269   131558986.9341       2777.531          36.500    25034725.934          13.750                                                                    25034725.818   102513471.6671       2164.319          13.750                                                                  
G09  20379682.439   107096111.1571      -1895.474          52.000    20379681.939          44.000                                                                    20379680.740    83451443.9091      -1476.991          44.000                                                                  
G12  20715524.425   108861057.038        1722.375          51.250    20715524.291          44.500    20715522.331    84827170.737        1342.081          47.250    20715522.185    84826774.733        1342.107          44.500                                                                  
G14  23099033.159   121386950.938        2849.971          42.250    23099032.744          26.500                                                                    23099030.665    94587233.310        2220.759          26.500                                                                  
G15  23312066.337   122505855.5541      -3535.054          44.750    23312066.253          30.500    23312064.912    95458762.3031      -2754.612          39.750    23312064.674    95459396.3171      -2754.585          30.500                                                                  
G17  22980539.485   120763213.4551      -1912.909          45.750    22980539.378          33.250    22980536.747    94101619.021       -1490.675          41.250    22980537.350    94101111.024       -1490.577          33.250                                                                  
G18  24458984.731   128532185.0511      -2601.787          37.250    24458983.940          15.750                                                                    24458983.251   100154944.0991      -2027.373          15.750                                                                  
G22  24099257.030   126642417.392       -1394.178          41.500    24099256.069          23.250                                                                    24099253.198    98682871.531       -1086.363          23.250                                                                  
G24  20290254.442   106625581.243        -631.530          52.000    20290254.526          47.750    20290255.062    83084860.435        -492.108          51.250    20290255.053    83085191.426        -492.103          47.750    20290256.515    79623543.8831       -471.604          57.500  
G25  23324275.888   122570135.6051       3266.678          41.500    23324275.379          27.500    23324276.901    95508942.6991       2545.402          41.000    23324276.887    95508905.6811       2545.466          27.500    23324279.118    91529647.9801       2439.374          47.750  
R01  23917761.043   127854545.1321       3135.452          39.500    23917762.505    99442424.9911       2438.910          31.500    23917761.772    99442425.0111       2438.570          32.000  
R07  22295752.904   119350922.378       -3572.090          45.500    22295755.180    92828470.560       -2778.212          41.500    22295754.361    92828479.567       -2778.362          42.500  
R08  21915923.404   117358215.364        -325.545          45.250    21915922.212    91278439.236        -253.176          41.250    21915920.119    91278451.234        -253.187          41.500  
R09  19424745.401   103727499.0271        492.898          51.500    19424746.674    80676948.090         383.385          50.250    19424747.406    80676948.105         383.318          50.750  
R10  22055880.406   117570230.2371       3166.863          46.000    22055885.913    91443516.1401       2462.925          39.750    22055885.170    91443516.1291       2463.157          39.500  
R16  21039826.544   112391113.757       -2629.253          49.000    21039828.670    87414892.795       -2045.092          46.000    21039829.250    87415064.798       -2045.069          46.250  
R17  23555651.825   126050285.8581      -3718.425          40.000    23555652.222    98039114.819       -2892.172          39.000    23555652.127    98039114.824       -2892.131          39.750  
R18  20634812.960   110150019.3891       -576.447          49.750    20634816.267    85672424.585        -448.399          48.250    20634816.336    85672424.590        -448.402          48.750  
R19  21425803.510   114613033.8691       3669.512          48.250    21425804.456    89143572.729        2854.011          45.250    21425804.181    89143574.734        2854.015          46.000  
E19  25919228.127   136207065.2161       1379.571          38.750    25919230.814   101712964.9691       1030.069          39.250    25919227.340   104366453.283        1057.133          40.250    25919228.274   103571875.123        1049.040          42.750  
E20  39880143.854   209571427.066        -818.253          44.250    39880146.278   156497935.583        -611.102          44.250    39880143.130   160580293.581        -627.005          45.000    39880143.886   159357789.984        -622.225          47.500  
> 2012 12 15 00 49  0.0000000  0 21
G04  25018891.919   131475776.3521       2770.171          36.500    25018891.638          14.250                                                                    25018891.302   102448632.2651       2158.560          14.250                                                                  
G09  20390544.940   107153194.0171      -1909.985          52.000    20390544.444          43.750                                                                    20390543.178    83495924.057       -1488.299          43.750                                                                  
G12  20705732.752   108809600.542        1708.111          51.250    20705732.618          44.250    20705730.602    84787074.778        1330.876          47.000    20705730.342    84786678.770        1330.996          44.250                                                                  
G14  23082794.978   121301618.7181       2838.838          42.750    23082794.567          26.750                                                                    23082792.464    94520740.6551       2212.080          26.750                                                                  
G15  23332265.574   122612002.374       -3541.391          43.500    23332265.530          30.000    23332264.111    95541474.109       -2759.480          39.000    23332263.561    95542108.120       -2759.522          30.000                                                                  
G17  22991504.520   120820836.8571      -1928.634          45.750    22991504.418          33.000    22991502.566    94146520.372       -1503.029          40.500    22991502.582    94146012.367       -1502.832          33.000                                                                  
G18  24473854.935   128610330.1021      -2607.824          35.500    24473854.220          14.000                                                                    24473853.931   100215836.314       -2032.024          14.000                                                                  
G22  24107258.250   126684464.5241      -1408.889          41.000    24107257.280          22.750                                                                    24107254.335    98715635.4931      -1097.840          22.750                                                                  
G24  20293899.676   106644737.0491       -645.466          52.250    20293899.760          47.500    20293900.273    83099787.0311       -502.971          51.250    20293900.297    83100118.0271       -502.961          47.500    20293901.800    79637848.539        -482.014          57.500  
G25  23305645.693   122472233.473        3260.110          41.000    23305645.242          26.500    23305646.937    95432655.354        2540.304          40.500    23305646.779    95432618.336        2540.343          26.500    23305648.335    91456539.284        2434.524          47.250  
R01  23900209.551   127760732.3401       3118.471          35.750    23900213.601    99369459.5631       2425.353          32.750    23900212.880    99369459.5441       2425.386          33.500  
R07  22315811.995   119458291.486       -3585.794          45.250    22315812.603    92911979.844       -2789.026          43.750    22315813.438    92911988.835       -2788.931          44.250  
R08  21917821.983   117368380.347        -352.081          46.250    21917820.754    91286345.288        -273.829          40.750    21917818.314    91286357.289        -273.952          41.000  
R09  19422015.502   103712922.4571        478.862          51.500    19422016.542    80665610.7631        372.433          50.250    19422017.655    80665610.7801        372.376          50.750  
R10  22038071.100   117475295.288        3162.181          46.000    22038075.842    91369677.842        2459.622          39.250    22038075.328    91369677.859        2459.545          39.750  
R16  21054619.187   112470134.239       -2638.783          49.000    21054621.663    87476353.158       -2052.304          46.250    21054622.093    87476525.168       -2052.420          46.000  
R17  23576534.934   126162039.8731      -3731.690          40.000    23576536.265    98126034.634       -2902.389          37.500    23576535.758    98126034.643       -2902.462          38.500  
R18  20638132.088   110167735.2181       -604.574          50.000    20638135.142    85686203.5591       -470.207          48.500    20638135.183    85686203.5681       -470.278          48.750  
R19  21405268.931   114503185.8491       3653.712          48.500    21405269.343    89058135.4041       2841.767          45.750    21405269.279    89058137.4081       2841.750          46.000  
E19  25911390.417   136165875.2091       1366.331          39.000    25911392.350   101682206.174        1020.288          39.250    25911388.567   104334892.101        1047.153          39.750    25911390.208   103540554.213        1039.073          42.500  
E20  39884855.549   209596187.1441       -832.370          44.500    39884857.727   156516425.2411       -621.729          44.000    39884854.597   160599265.573        -637.911          44.750    39884855.567   159376617.545        -633.059          47.250  
> 2012 12 15 00 49 30.0000000  0 21
G04  25003098.223   131392779.8631       2762.982          37.000    25003097.906          15.000                                                                    25003097.741   102383959.6821       2152.986          15.000                                                                  
G09  20401489.705   107210709.3711      -1924.411          52.000    20401489.209          43.750                                                                    20401488.016    83540741.215       -1499.541          43.750                                                                  
G12  20696022.575   108758573.579        1693.705          51.000    20696022.441          44.500    20696020.485    84747313.536        1319.779          47.250    20696020.223    84746917.530        1319.766          44.500                                                                  
G14  23066620.131   121216620.114        2827.646          42.750    23066619.658          26.000                                                                    23066617.640    94454507.974        2203.369          26.000                                                                  
G15  23352499.942   122718335.394       -3547.590          44.250    23352499.938          30.250    23352498.813    95624330.991       -2764.205          39.250    23352498.100    95624965.006       -2764.359          30.250                                                                  
G17  23002560.070   120878932.7381      -1944.394          45.500    23002559.977          32.750    23002557.549    94191789.876       -1515.043          40.750    23002557.735    94191281.883       -1515.110          32.750                                                                  
G18  24488761.741   128688661.8821      -2614.094          37.500    24488761.031          13.000                                                                    24488759.817   100276874.048       -2036.933          13.000                                                                  
G22  24115342.668   126726948.890       -1423.514          41.000    24115341.676          22.750                                                                    24115338.787    98748740.194       -1109.235          22.750                                                                  
G24  20297624.239   106664309.603        -659.407          52.000    20297624.323          47.750    20297624.820    83115038.365        -513.803          51.000    20297624.859    83115369.361        -513.822          47.750    20297626.308    79652464.395        -492.372          57.500  
G25  23287052.390   122374526.720        3253.491          42.000    23287051.917          27.250    23287053.907    95356520.225        2535.168          39.500    23287053.647    95356483.227        2535.192          27.250    23287055.270    91383576.4541       2429.600          47.250  
R01  23882756.362   127667431.2421       3101.425          38.500    23882758.884    99296892.0161       2412.178          33.000    23882758.993    99296892.0271       2412.158          33.000  
R07  22335944.478   119566067.521       -3599.260          44.750    22335946.177    92995805.632       -2799.452          41.000    22335945.094    92995814.647       -2799.439          42.000  
R08  21919868.773   117379343.406        -378.807          45.250    21919867.434    91294872.112        -294.469          40.000    21919865.172    91294884.106        -294.501          40.750  
R09  19419364.727   103698767.0791        464.805          51.750    19419366.202    80654601.020         361.560          50.500    19419366.832    80654601.035         361.578          51.000  
R10  22020286.653   117380496.502        3157.648          46.500    22020291.659    91295945.476        2456.115          39.750    22020291.582    91295945.488        2455.948          40.000  
R16  21069464.769   112549437.780       -2648.234          49.000    21069467.257    87538033.679       -2059.653          46.000    21069468.041    87538205.689       -2059.677          46.000  
R17  23597492.954   126274187.5951      -3744.735          40.750    23597493.950    98213260.648       -2912.472          38.000    23597493.377    98213260.666       -2912.680          38.750  
R18  20641608.391   110186293.0371       -632.617          50.250    20641611.452    85700637.425        -491.989          48.250    20641611.521    85700637.428        -492.013          48.500  
R19  21384822.210   114393812.4021       3637.774          48.000    21384822.975    88973067.195        2829.465          46.000    21384823.232    88973069.200        2829.413          46.250  
E19  25903626.371   136125075.6511       1353.490          39.000    25903628.420   101651738.9801       1010.590          39.500    25903624.842   104303630.100        1037.044          39.500    25903626.179   103509530.214        1029.114          42.500  
E20  39889648.078   209621372.681        -846.604          44.500    39889650.367   156535232.618        -632.203          44.000    39889646.929   160618563.579        -648.741          44.500    39889648.167   159395768.633        -643.779          47.250  
> 2012 12 15 00 50  0.0000000  0 21
G04  24987345.752   131310000.3351       2755.665          37.500    24987345.484          14.750                                                                    24987345.239   102319456.1211       2147.285          14.750                                                                  
G09  20412516.713   107268656.4371      -1938.769          52.000    20412516.217          43.750                                                                    20412515.050    83585894.763       -1510.729          43.750                                                                  
G12  20686394.111   108707976.486        1679.393          51.250    20686393.977          45.000    20686392.287    84707887.243        1308.637          47.000    20686391.872    84707491.242        1308.613          45.000                                                                  
G14  23050509.685   121131957.5071       2816.416          42.500    23050509.185          27.000                                                                    23050507.050    94388537.1241       2194.613          27.000                                                                  
G15  23372769.724   122824852.543       -3553.649          43.250    23372769.711          29.500    23372768.309    95707331.355       -2769.026          39.500    23372767.844    95707965.371       -2769.078          29.500                                                                  
G17  23013704.757   120937498.7421      -1960.072          44.500    23013704.681          32.500    23013702.345    94237425.735       -1527.286          40.750    23013702.807    94236917.725       -1527.328          32.500                                                                  
G18  24503702.415   128767177.4861      -2620.138          36.250    24503701.557          14.250                                                                    24503700.952   100338055.054       -2041.678          14.250                                                                  
G22  24123509.902   126769868.515       -1437.906          40.500    24123508.896          23.250                                                                    24123506.237    98782184.038       -1120.447          23.250                                                                  
G24  20301428.140   106684299.219        -673.246          52.000    20301428.224          48.000    20301428.734    83130614.686        -524.634          51.250    20301428.743    83130945.677        -524.608          48.000    20301430.237    79667391.702        -502.766          57.500  
G25  23268496.771   122277016.4681       3246.936          41.750    23268496.320          27.500    23268498.343    95280538.2311       2530.234          40.000    23268497.759    95280501.2211       2530.076          27.500    23268500.179    91310760.385        2424.724          48.000  
R01  23865398.563   127574645.4871       3084.196          39.000    23865399.950    99224725.3531       2398.972          32.750    23865400.798    99224725.3491       2398.801          32.500  
R07  22356153.749   119674246.123       -3612.644          44.750    22356155.065    93079944.540       -2809.800          43.000    22356155.129    93079953.545       -2809.726          43.500  
R08  21922065.856   117391104.0081       -405.344          45.500    21922064.048    91304019.2571       -315.147          40.750    21922061.866    91304031.2371       -315.052          41.000  
R09  19416792.897   103685033.5421        450.711          51.750    19416794.245    80643919.398         350.559          50.250    19416794.898    80643919.411         350.522          50.750  
R10  22002528.570   117285834.5361       3153.147          46.500    22002533.204    91222319.5181       2452.496          39.500    22002532.887    91222319.5381       2452.493          39.750  
R16  21084363.370   112629023.863       -2657.572          49.000    21084366.252    87599933.974       -2067.039          46.500    21084367.008    87600105.981       -2067.004          46.250  
R17  23618522.677   126386724.9971      -3757.853          40.250    23618524.004    98300789.769       -2922.796          38.500    23618523.476    98300789.772       -2922.816          38.500  
R18  20645242.597   110205691.7261       -660.628          50.250    20645245.445    85715725.290        -513.833          48.250    20645245.492    85715725.298        -513.814          48.500  
R19  21364465.425   114284917.8731       3621.774          48.000    21364466.651    88888371.4821       2816.988          45.250    21364466.112    88888373.4811       2816.981          46.000  
E19  25895936.716   136084667.6131       1340.348          38.500    25895939.335   101621564.135        1001.036          39.750    25895935.302   104272668.088        1027.012          39.000    25895936.679   103478803.914        1019.267          42.500  
E20  39894521.730   209646982.800        -860.729          44.500    39894524.020   156554357.077        -642.832          44.250    39894520.394   160638186.926        -659.572          44.250    39894521.623   159415242.594        -654.567          47.250  
> 2012 12 15 00 50 30.0000000  0 21
G04  24971634.925   131227441.2791       2748.502          35.750    24971634.621          13.500                                                                    24971634.349   102255124.3711       2141.722          13.500                                                                  
G09  20423625.637   107327034.3151      -1953.075          52.000    20423625.137          43.500                                                                    20423623.902    83631384.017       -1521.878          43.500                                                                  
G12  20676847.660   108657809.4301       1665.095          51.250    20676847.531          44.750    20676845.842    84668796.0401       1297.498          46.750    20676845.382    84668400.0401       1297.478          44.750                                                                  
G14  23034463.415   121047633.548        2805.137          42.250    23034462.946          27.000                                                                    23034460.454    94322830.124        2185.830          27.000                                                                  
G15  23393073.203   122931550.954       -3559.600          44.000    23393073.199          29.750    23393071.954    95790472.985       -2773.775          39.000    23393071.738    95791106.986       -2773.718          29.750                                                                  
G17  23024938.618   120996533.1311      -1975.584          45.750    23024938.569          32.500    23024936.742    94283426.548       -1539.500          40.250    23024936.453    94282918.545       -1539.414          32.500                                                                  
G18  24518677.812   128845874.0671      -2626.382          35.750    24518676.963          14.500                                                                    24518676.537   100399376.976       -2046.511          14.500                                                                  
G22  24131759.939   126813221.040       -1452.223          40.000    24131758.938          23.250                                                                    24131756.318    98815965.195       -1131.604          23.250                                                                  
G24  20305311.293   106704705.714        -687.117          52.000    20305311.377          48.000    20305312.045    83146515.845        -535.459          51.000    20305311.994    83146846.835        -535.416          48.000    20305313.474    79682630.310        -513.147          57.500  
G25  23249978.723   122179703.917        3240.530          42.250    23249978.254          27.750    23249980.885    95204710.290        2525.065          40.250    23249980.641    95204673.302        2525.081          27.750    23249982.031    91238091.9571       2419.776          47.750  
R01  23848137.820   127482378.8271       3066.892          39.250    23848140.717    99152962.3401       2385.727          33.250    23848141.269    99152962.3701       2385.097          33.250  
R07  22376436.577   119782822.604       -3625.686          45.000    22376437.309    93164392.891       -2820.109          41.000    22376436.593    93164401.887       -2820.058          42.000  
R08  21924410.483   117403660.782        -431.822          45.750    21924408.537    91313785.617        -335.882          41.250    21924406.687    91313797.613        -335.785          41.000  
R09  19414300.089   103671722.6181        436.650          51.500    19414301.386    80633566.463         339.628          50.500    19414302.219    80633566.478         339.598          51.000  
R10  21984796.278   117191311.543        3148.485          46.500    21984801.576    91148801.688        2448.775          39.250    21984800.287    91148801.695        2448.876          40.000  
R16  21099314.704   112708891.602       -2666.912          48.500    21099317.446    87662053.324       -2074.323          46.500    21099318.232    87662225.318       -2074.220          46.000  
R17  23639624.344   126499647.9171      -3770.484          39.500    23639626.302    98388618.722       -2932.592          38.250    23639625.577    98388618.723       -2932.747          38.500  
R18  20649033.713   110225930.1411       -688.584          50.000    20649036.839    85731466.296        -535.613          48.250    20649037.035    85731466.300        -535.617          48.500  
R19  21344199.382   114176506.2901       3605.646          48.750    21344199.741    88804051.387        2804.341          45.750    21344200.003    88804053.399        2804.341          46.250  
E19  25888322.292   136044652.1651       1327.326          38.750    25888324.734   101591682.4881        991.125          39.500    25888320.459   104242006.903        1017.053          39.250    25888321.980   103448376.160        1009.291          42.250  
E20  39899475.877   209673016.619        -874.818          44.000    39899477.970   156573797.890        -653.338          44.000    39899473.990   160658134.893        -670.331          44.000    39899475.712   159435038.695        -665.273          47.000  
> 2012 12 15 00 51  0.0000000  0 21
G04  24955967.757   131145105.6061       2740.695          36.250    24955967.449          14.750                                                                    24955966.459   102190966.7361       2135.640          14.750                                                                  
G09  20434816.481   107385842.0861      -1967.441          51.750    20434815.981          43.500                                                                    20434814.683    83677208.249       -1533.070          43.500                                                                  
G12  20667383.144   108608072.813        1650.702          51.500    20667383.015          44.750    20667381.209    84630040.234        1286.238          47.000    20667380.813    84629644.233        1286.259          44.750                                                                  
G14  23018481.868   120963650.4271       2793.775          43.250    23018481.408          27.250                                                                    23018479.040    94257388.7161       2176.965          27.250                                                                  
G15  23413411.775   123038428.506       -3565.583          43.500    23413411.797          29.250    23413410.557    95873754.193       -2778.357          38.250    23413410.068    95874388.176       -2778.374          29.250                                                                  
G17  23036261.319   121056033.9051      -1991.069          45.750    23036261.257          32.500    23036259.237    94329790.794       -1551.625          40.500    23036258.981    94329282.781       -1551.485          32.500                                                                  
G18  24533686.915   128924748.3771      -2632.090          37.000    24533686.200          14.000                                                                    24533685.846   100460837.485       -2050.997          14.000                                                                  
G22  24140091.690   126857004.455       -1466.620          40.750    24140090.666          22.500                                                                    24140087.698    98850082.124       -1142.819          22.500                                                                  
G24  20309273.813   106725529.109        -701.051          52.500    20309273.902          47.750    20309274.513    83162741.853        -546.228          50.750    20309274.576    83163072.848        -546.276          47.750    20309275.985    79698180.239        -523.491          57.250  
G25  23231498.569   122082590.3351       3233.774          42.250    23231498.100          27.000    23231499.936    95129037.3641       2519.690          40.000    23231499.054    95129000.3511       2519.837          27.000    23231500.851    91165572.066        2414.841          46.750  
R01  23830975.197   127390634.9491       3049.371          38.000    23830977.881    99081606.0481       2371.698          33.000    23830978.869    99081606.0461       2371.706          33.250  
R07  22396792.965   119891792.506       -3638.885          44.500    22396795.025    93249147.253       -2830.191          43.500    22396795.108    93249156.266       -2830.250          43.750  
R08  21926903.221   117417013.749        -458.338          44.750    21926903.020    91324171.253        -356.518          40.500    21926900.318    91324183.268        -356.543          41.000  
R09  19411886.660   103658834.4081        422.535          51.750    19411887.971    80623542.301         328.692          50.250    19411888.629    80623542.319         328.688          51.000  
R10  21967089.954   117096927.8481       3143.775          46.500    21967094.646    91075392.1751       2445.115          39.750    21967094.585    91075392.1741       2445.328          40.000  
R16  21114319.182   112789039.962       -2676.291          49.250    21114321.790    87724390.923       -2081.539          46.250    21114322.006    87724562.935       -2081.583          46.000  
R17  23660798.785   126612952.4521      -3783.078          40.250    23660799.365    98476744.5021      -2942.609          38.000    23660799.524    98476744.4971      -2942.512          38.500  
R18  20652982.341   110247007.4511       -716.534          50.250    20652984.965    85747859.7601       -557.297          47.750    20652985.384    85747859.7581       -557.274          48.500  
R19  21324023.831   114068581.8861       3589.281          48.750    21324024.541    88720110.2041       2791.685          45.750    21324024.351    88720112.2051       2791.663          46.250  
E19  25880782.622   136005030.3991       1314.362          38.000    25880784.908   101562094.792         981.456          39.750    25880780.789   104211647.381        1006.876          39.500    25880782.229   103418247.757         999.323          42.500  
E20  39904510.282   209699473.303        -888.879          44.000    39904512.601   156593554.484        -663.867          44.000    39904508.711   160678406.886        -681.152          44.000    39904510.312   159455156.354        -675.971          47.000  
> 2012 12 15 00 51 30.0000000  0 21
G04  24940342.563   131062996.5101       2733.181          36.000    24940342.259          14.000                                                                    24940341.756   102126985.6341       2129.751          14.000                                                                  
G09  20446088.690   107445078.7621      -1981.671          51.500    20446088.190          43.500                                                                    20446087.152    83723366.695       -1544.160          43.500                                                                  
G12  20658000.522   108558767.573        1636.308          51.500    20658000.393          44.750    20657998.489    84591620.576        1275.126          47.250    20657998.334    84591224.576        1275.043          44.750                                                                  
G14  23002565.392   120880010.558        2782.197          42.500    23002564.945          27.500                                                                    23002563.337    94192214.789        2167.948          27.500                                                                  
G15  23433783.462   123145482.776       -3571.359          43.500    23433783.458          29.250    23433781.699    95957173.066       -2783.007          39.500    23433781.533    95957807.087       -2782.877          29.250                                                                  
G17  23047672.493   121115999.191       -2006.569          45.250    23047672.417          32.250    23047669.944    94376516.971       -1563.582          39.750    23047669.811    94376008.968       -1563.562          32.250                                                                  
G18  24548730.319   129003797.8711      -2638.018          36.500    24548729.653          13.000                                                                    24548728.496   100522434.498       -2055.583          13.000                                                                  
G22  24148505.058   126901216.8891      -1480.955          40.000    24148504.043          22.000                                                                    24148500.407    98884533.3581      -1153.991          22.000                                                                  
G24  20313315.844   106746769.732        -715.007          52.250    20313315.928          47.750    20313316.401    83179292.973        -557.120          51.000    20313316.520    83179623.965        -557.147          47.750    20313317.978    79714041.721        -533.918          57.250  
G25  23213056.789   121985676.813        3227.053          42.500    23213056.356          28.500    23213058.283    95053520.382        2514.557          41.750    23213058.552    95053483.367        2514.582          28.500    23213060.846    91093201.6131       2409.856          48.500  
R01  23813911.765   127299417.8051       3031.871          40.000    23813915.056    99010659.3271       2358.122          33.250    23813914.222    99010659.3351       2357.774          32.500  
R07  22417223.220   120001151.497       -3651.768          45.500    22417223.052    93334204.215       -2840.248          43.000    22417223.296    93334213.183       -2840.186          42.750  
R08  21929546.308   117431161.320        -484.773          45.750    21929544.857    91335174.906        -377.088          41.250    21929542.095    91335186.889        -377.068          40.750  
R09  19409552.489   103646370.0971        408.411          51.500    19409553.761    80613847.857         317.658          50.500    19409554.518    80613847.874         317.617          51.000  
R10  21949410.172   117002685.357        3138.931          46.000    21949415.215    91002092.469        2441.446          39.250    21949414.540    91002092.442        2441.538          39.500  
R16  21129374.889   112869468.0751      -2685.503          48.750    21129378.176    87786946.1291      -2088.702          46.000    21129378.361    87787118.1371      -2088.765          46.000  
R17  23682043.597   126726634.221       -3795.539          40.750    23682044.173    98565163.659       -2952.162          38.500    23682043.661    98565163.674       -2952.276          38.500  
R18  20657087.621   110268922.4171       -744.460          50.000    20657090.725    85764904.735        -578.994          48.250    20657090.861    85764904.736        -578.999          48.750  
R19  21303940.918   113961149.4011       3572.867          48.750    21303941.182    88636551.622        2778.934          46.000    21303941.359    88636553.628        2778.924          46.250  
E19  25873317.619   135965803.4051       1300.871          39.000    25873319.977   101532801.902         971.647          39.750    25873316.788   104181590.324         996.849          40.750    25873317.633   103388419.525         989.337          43.250  
E20  39909625.367   209726352.026        -902.989          44.000    39909627.493   156613626.255        -674.345          44.000    39909623.572   160699002.275        -691.911          44.000    39909625.137   159475594.947        -686.652          47.000  
> 2012 12 15 00 52  0.0000000  0 21
G04  24924761.995   130981117.3961       2725.410          35.250    24924761.741          11.750                                                                    24924760.553   102063183.8131       2123.646          11.750                                                                  
G09  20457442.474   107504743.3701      -1995.923          51.500    20457441.978          43.500                                                                    20457440.883    83769858.592       -1555.264          43.500                                                                  
G12  20648700.388   108509893.907        1621.914          51.750    20648700.259          44.750    20648698.298    84553537.225        1263.858          47.750    20648697.989    84553141.222        1263.828          44.750                                                                  
G14  22986715.522   120796716.7491       2770.612          43.500    22986715.066          27.250                                                                    22986712.852    94127310.5061       2158.919          27.250                                                                  
G15  23454188.392   123252711.354       -3577.167          43.500    23454188.375          29.750    23454187.136    96040727.805       -2787.418          40.000    23454187.081    96041361.798       -2787.403          29.750                                                                  
G17  23059171.333   121176426.7651      -2021.962          45.250    23059171.235          32.250    23059169.070    94423603.3641      -1575.320          40.250    23059169.062    94423095.3831      -1575.556          32.250                                                                  
G18  24563805.670   129083019.9181      -2643.444          36.750    24563805.053          12.750                                                                    24563804.017   100584165.965       -2059.807          12.750                                                                  
G22  24156999.786   126945856.152       -1495.027          39.750    24156998.816          22.500                                                                    24156995.435    98919317.188       -1164.961          22.500                                                                  
G24  20317437.345   106768427.673        -728.837          52.250    20317437.434          47.750    20317437.741    83196169.284        -567.964          51.250    20317437.912    83196500.277        -567.927          47.750    20317439.343    79730214.851        -544.256          57.250  
G25  23194652.803   121888964.5951       3220.317          42.250    23194652.321          27.000    23194655.403    94978160.2131       2509.341          38.250    23194654.176    94978123.2151       2509.334          27.000    23194654.677    91020981.491        2404.797          46.750  
R01  23796947.110   127208731.0561       3014.024          39.500    23796949.375    98940125.2111       2344.142          33.500    23796949.504    98940125.2331       2344.081          33.000  
R07  22437722.878   120110894.9251      -3664.396          44.500    22437724.813    93419560.2161      -2850.114          42.500    22437724.715    93419569.2251      -2850.113          42.750  
R08  21932335.866   117446101.8501       -511.273          45.750    21932335.274    91346795.2841       -397.535          41.250    21932332.342    91346807.2791       -397.511          41.000  
R09  19407297.660   103634329.9501        394.260          52.000    19407299.132    80604483.304         306.666          50.250    19407299.761    80604483.321         306.630          50.750  
R10  21931757.299   116908585.3091       3134.330          46.250    21931762.850    90928903.5571       2437.683          39.750    21931761.621    90928903.5631       2437.776          40.000  
R16  21144483.881   112950175.514       -2694.886          48.250    21144486.824    87849718.575       -2096.087          46.250    21144487.241    87849890.578       -2096.030          46.000  
R17  23703356.821   126840689.2971      -3808.022          41.000    23703357.495    98653873.191       -2961.747          39.250    23703357.847    98653873.191       -2961.722          38.750  
R18  20661349.546   110291673.6591       -772.312          50.250    20661352.581    85782600.143        -600.673          47.750    20661352.702    85782600.137        -600.638          48.500  
R19  21283949.818   113854212.6801       3556.248          48.750    21283950.580    88553378.6491       2765.985          46.250    21283950.635    88553380.6561       2765.922          46.500  
E19  25865928.492   135926972.2191       1287.661          38.750    25865930.701   101503804.5741        961.734          39.250    25865927.450   104151836.532         986.704          40.750    25865928.282   103358892.258         979.242          43.000  
E20  39914820.218   209753651.875        -917.035          44.250    39914822.964   156634012.468        -684.679          44.000    39914818.792   160719920.301        -702.565          44.250    39914820.165   159496353.722        -697.224          47.000  
> 2012 12 15 00 52 30.0000000  0 21
G04  24909224.425   130899471.3031       2717.791          35.750    24909224.300          12.750                                                                    24909223.811   101999563.4641       2117.753          12.750                                                                  
G09  20468877.436   107564834.9241      -2010.135          51.500    20468876.945          43.500                                                                    20468875.909    83816683.1721      -1566.339          43.500                                                                  
G12  20639482.238   108461452.1401       1607.564          51.500    20639482.109          45.000    20639479.953    84515790.4141       1252.656          47.500    20639479.802    84515394.4121       1252.645          45.000                                                                  
G14  22970931.423   120713771.356        2759.015          43.250    22970930.958          27.500                                                                    22970928.691    94062677.717        2149.878          27.500                                                                  
G15  23474625.959   123360111.708       -3582.876          43.500    23474625.915          28.750    23474624.556    96124416.379       -2791.816          37.500    23474624.131    96125050.391       -2791.857          28.750                                                                  
G17  23070757.840   121237314.3271      -2037.252          45.500    23070757.756          32.500    23070755.438    94471048.222       -1587.367          40.250    23070755.729    94470540.230       -1587.474          32.500                                                                  
G18  24578914.060   129162411.3951      -2649.416          36.000    24578913.350          13.750                                                                    24578911.743   100646029.442       -2064.488          13.750                                                                  
G22  24165575.089   126990919.877       -1509.181          40.500    24165574.182          23.500                                                                    24165571.591    98954431.751       -1175.982          23.500                                                                  
G24  20321637.894   106790502.838        -742.816          52.250    20321637.983          48.000    20321638.664    83213370.707        -578.796          51.000    20321638.675    83213701.699        -578.821          48.000    20321640.093    79746699.546        -554.657          57.500  
G25  23176287.897   121792454.824        3213.621          43.000    23176287.410          28.750    23176289.149    94902957.816        2504.085          42.250    23176288.659    94902920.794        2504.125          28.750    23176291.695    90948912.4811       2399.735          48.500  
R01  23780081.308   127118578.4811       2996.055          38.250    23780083.987    98870006.6011       2330.262          34.000    23780084.976    98870006.6231       2330.400          33.250  
R07  22458295.139   120221018.263       -3677.052          45.500    22458296.319    93505211.669       -2859.931          42.250    22458296.213    93505220.666       -2859.904          42.750  
R08  21935273.687   117461834.342        -537.652          45.500    21935272.639    91359031.645        -418.171          40.500    21935269.859    91359043.641        -418.123          40.750  
R09  19405122.358   103622714.6261        380.120          52.000    19405123.754    80595449.176         295.614          50.500    19405124.661    80595449.189         295.675          51.000  
R10  21914130.988   116814628.294        3129.499          46.500    21914136.120    90855825.892        2434.247          39.500    21914135.531    90855825.903        2434.020          39.750  
R16  21159644.027   113031161.218       -2704.125          48.750    21159647.360    87912707.457       -2103.203          46.250    21159647.937    87912879.461       -2103.287          46.000  
R17  23724739.955   126955113.4541      -3820.386          39.500    23724740.710    98742869.746       -2971.189          38.750    23724740.650    98742869.731       -2971.277          38.500  
R18  20665768.445   110315260.0881       -800.087          49.750    20665771.246    85800945.150        -622.334          48.000    20665771.322    85800945.145        -622.283          48.500  
R19  21264052.660   113747776.1751       3539.500          49.000    21264053.365    88470594.723        2752.942          46.250    21264053.516    88470596.729        2752.982          46.750  
E19  25858614.475   135888538.0061       1274.559          38.500    25858616.736   101475103.710         951.799          39.500    25858613.713   104122386.957         976.506          40.750    25858614.500   103329666.880         969.127          43.250  
E20  39920095.155   209781371.935        -930.963          44.500    39920097.856   156654712.484        -695.134          44.500    39920094.001   160741160.332        -713.339          44.500    39920095.159   159517432.044        -707.875          47.500  
> 2012 12 15 00 53  0.0000000  0 21
G04  24893732.746   130818061.6121       2709.876          36.750    24893732.644          13.750                                                                    24893732.089   101936127.3341       2111.559          13.750                                                                  
G09  20480393.620   107625352.5291      -2024.309          51.500    20480393.124          43.500                                                                    20480392.076    83863839.740       -1577.387          43.500                                                                  
G12  20630346.246   108413442.818        1593.108          51.750    20630346.117          45.000    20630344.237    84478380.584        1241.332          47.250    20630343.893    84477984.582        1241.380          45.000                                                                  
G14  22955214.441   120631177.2731       2747.265          43.500    22955213.963          27.750                                                                    22955211.752    93998318.6681       2140.722          27.750                                                                  
G15  23495096.299   123467681.624       -3588.512          42.500    23495096.259          29.500    23495094.347    96208237.070       -2796.199          39.000    23495094.325    96208871.090       -2796.241          29.500                                                                  
G17  23082431.560   121298660.4421      -2052.356          45.250    23082431.458          32.750    23082429.291    94518850.398       -1599.301          40.750    23082429.723    94518342.397       -1599.241          32.750                                                                  
G18  24594052.654   129241969.3421      -2654.577          35.000    24594052.011          13.250                                                                    24594050.935   100708022.6461      -2068.515          13.250                                                                  
G22  24174230.996   127036406.272       -1523.199          40.000    24174230.160          23.250                                                                    24174227.150    98989875.687       -1186.900          23.250                                                                  
G24  20325918.261   106812995.062        -756.652          52.250    20325918.350          47.750    20325918.724    83230897.108        -589.588          51.250    20325918.787    83231228.099        -589.603          47.750    20325920.254    79763495.6811       -565.061          57.500  
G25  23157961.260   121696148.6601       3206.876          40.750    23157960.778          27.750    23157962.798    94827914.0611       2498.871          39.750    23157963.171    94827877.0771       2498.857          27.750    23157964.736    90876995.609        2394.722          48.500  
R01  23763316.961   127028963.8221       2978.122          39.250    23763319.782    98800306.3191       2316.285          34.000    23763320.751    98800306.3491       2316.367          33.500  
R07  22478937.857   120331517.000       -3689.522          45.250    22478938.444    93591155.130       -2869.604          41.750    22478938.242    93591164.148       -2869.664          42.000  
R08  21938359.803   117478359.019        -563.914          45.000    21938358.455    91371884.152        -438.550          41.000    21938356.110    91371896.151        -438.684          41.000  
R09  19403026.951   103611524.5671        365.980          51.750    19403028.181    80586745.7991        284.603          50.500    19403028.990    80586745.8131        284.649          50.750  
R10  21896532.256   116720815.8651       3124.691          46.500    21896536.940    90782860.6781       2430.190          40.000    21896536.642    90782860.6751       2430.326          39.750  
R16  21174857.076   113112424.070       -2713.307          48.500    21174859.593    87975911.890       -2110.397          46.000    21174860.200    87976083.895       -2110.390          45.750  
R17  23746191.035   127069902.6091      -3832.467          38.250    23746191.261    98832150.200       -2980.694          37.750    23746191.502    98832150.217       -2980.946          38.250  
R18  20670343.263   110339680.4821       -827.839          50.000    20670346.198    85819938.7821       -643.938          48.000    20670346.136    85819938.7841       -643.929          48.250  
R19  21244249.776   113641843.8951       3522.700          48.750    21244250.620    88388202.9741       2739.753          46.000    21244250.251    88388204.9801       2739.843          46.250  
E19  25851376.610   135850501.6681       1261.355          38.750    25851378.673   101446699.9491        941.949          39.000    25851375.458   104093242.228         966.467          40.500    25851376.526   103300744.030         959.141          42.750  
E20  39925449.919   209809511.327        -944.905          44.500    39925452.668   156675725.656        -705.680          44.000    39925448.957   160762721.666        -724.000          44.500    39925449.896   159538829.236        -718.540          47.250  
> 2012 12 15 00 53 30.0000000  0 21
G04  24878287.061   130736891.3471       2701.618          37.000    24878286.838          12.000                                                                    24878285.946   101872877.7781       2105.136          12.000                                                                  
G09  20491990.829   107686295.4591      -2038.477          51.500    20491990.324          43.500                                                                    20491989.122    83911327.729       -1588.420          43.500                                                                  
G12  20621292.799   108365866.938        1578.674          51.250    20621292.674          45.000    20621290.718    84441308.501        1230.064          47.500    20621290.494    84440912.497        1230.133          45.000                                                                  
G14  22939564.458   120548936.700        2735.431          43.250    22939563.971          27.750                                                                    22939561.873    93934235.069        2131.513          27.750                                                                  
G15  23515597.463   123575418.139       -3593.937          43.750    23515597.428          29.000    23515596.088    96292187.599       -2800.512          38.750    23515595.878    96292821.597       -2800.469          29.000                                                                  
G17  23094192.225   121360462.8661      -2067.583          44.750    23094192.118          32.250    23094190.317    94567008.137       -1611.195          40.000    23094190.318    94566500.128       -1611.105          32.250                                                                  
G18  24609223.500   129321690.8241      -2659.996          35.750    24609222.901          12.500                                                                    24609221.210   100770143.257       -2072.671          12.500                                                                  
G22  24182966.616   127082313.3311      -1537.224          39.750    24182965.722          22.750                                                                    24182962.939    99025647.3821      -1197.843          22.750                                                                  
G24  20330277.594   106835904.3841       -770.534          52.250    20330277.687          47.750    20330278.244    83248748.5301       -600.423          51.250    20330278.284    83249079.5201       -600.416          47.750    20330279.737    79780603.298        -575.453          57.500  
G25  23139673.658   121600047.302        3199.931          43.500    23139673.189          28.250    23139675.309    94753029.895        2493.528          40.250    23139674.240    94752992.887        2493.454          28.250    23139675.787    90805231.5931       2389.547          47.250  
R01  23746653.913   126939890.5111       2960.096          37.000    23746656.280    98731027.0971       2302.122          32.250    23746657.066    98731027.0711       2302.686          32.500  
R07  22499647.487   120442386.423       -3701.724          44.000    22499649.508    93677386.899       -2879.150          43.000    22499649.868    93677395.896       -2879.172          43.000  
R08  21941593.553   117495673.247        -590.162          45.250    21941590.731    91385350.744        -459.216          40.500    21941589.303    91385362.751        -459.180          40.500  
R09  19401011.225   103600760.6801        351.737          52.000    19401012.423    80578373.895         273.526          50.500    19401013.379    80578373.907         273.547          50.750  
R10  21878960.659   116627149.376        3119.801          47.000    21878964.911    90710008.940        2426.434          40.250    21878965.388    90710008.946        2426.526          40.000  
R16  21190121.600   113193963.707       -2722.557          48.250    21190124.441    88039331.587       -2117.517          46.500    21190124.938    88039503.596       -2117.536          46.000  
R17  23767708.957   127185052.7501      -3844.246          37.750    23767710.772    98921711.413       -2990.013          37.750    23767709.759    98921711.410       -2989.784          38.250  
R18  20675073.627   110364933.3661       -855.578          50.250    20675076.781    85839579.908        -665.554          48.000    20675076.858    85839579.913        -665.525          48.500  
R19  21224541.724   113536420.1091       3505.691          48.750    21224542.561    88306206.717        2726.562          46.000    21224542.496    88306208.727        2726.529          46.250  
E19  25844214.359   135812864.2851       1247.727          38.750    25844216.631   101418594.087         931.719          39.000    25844213.264   104064403.185         956.242          40.250    25844214.601   103272124.532         948.846          42.750  
E20  39930884.083   209838069.1041       -958.808          43.750    39930886.821   156697051.2681       -716.058          44.000    39930883.110   160784603.613        -734.764          44.250    39930884.362   159560544.585        -729.163          47.000  
> 2012 12 15 00 54  0.0000000  0 21
G04  24862886.652   130655963.6021       2693.426          36.750    24862886.384          14.750                                                                    24862886.139   101809817.2111       2098.768          14.750                                                                  
G09  20503668.474   107747662.3281      -2052.611          51.500    20503667.969          43.250                                                                    20503666.827    83959146.067       -1599.438          43.250                                                                  
G12  20612321.860   108318724.522        1564.243          51.250    20612321.731          45.250    20612319.786    84404574.177        1218.859          47.250    20612319.565    84404178.175        1218.890          45.250                                                                  
G14  22923982.278   120467052.172        2723.598          43.750    22923981.760          27.750                                                                    22923979.753    93870428.918        2122.283          27.750                                                                  
G15  23536130.592   123683319.439       -3599.352          43.000    23536130.534          28.500    23536129.172    96376266.531       -2804.884          38.750    23536128.352    96376900.535       -2804.689          28.500                                                                  
G17  23106039.147   121422719.5661      -2082.697          45.000    23106039.036          32.000    23106037.149    94615519.834       -1622.807          40.250    23106036.773    94615011.843       -1622.881          32.000                                                                  
G18  24624424.102   129401573.2541      -2665.331          36.500    24624423.485          14.000                                                                    24624422.379   100832389.284       -2076.885          14.000                                                                  
G22  24191782.076   127128638.779       -1551.078          40.750    24191781.182          22.250                                                                    24191777.839    99061745.115       -1208.633          22.250                                                                  
G24  20334716.551   106859231.117        -784.480          52.250    20334716.640          48.000    20334717.090    83266925.203        -611.346          51.000    20334717.205    83267256.191        -611.282          48.000    20334718.699    79798022.606        -585.861          57.500  
G25  23121425.602   121504151.8971       3193.035          41.000    23121425.142          28.500    23121426.718    94678306.2241       2488.080          40.750    23121427.001    94678269.2341       2488.074          28.500    23121429.899    90733621.423        2384.374          49.250  
R01  23730093.074   126851362.6191       2941.991          38.250    23730095.332    98662172.1001       2287.956          33.500    23730096.470    98662172.0991       2288.003          32.750  
R07  22520428.475   120553622.245       -3714.010          44.500    22520430.033    93763903.634       -2888.602          41.000    22520428.841    93763912.636       -2888.630          41.750  
R08  21944973.940   117513776.8001       -616.552          45.250    21944972.035    91399431.2381       -479.499          40.500    21944970.083    91399443.2441       -479.599          40.750  
R09  19399075.311   103590423.1611        337.500          51.750    19399076.621    80570333.609         262.443          50.500    19399077.341    80570333.623         262.457          50.750  
R10  21861416.335   116533629.9981       3114.874          46.250    21861421.453    90637271.7111       2422.647          39.500    21861421.129    90637271.7201       2422.612          40.250  
R16  21205437.640   113275779.131       -2731.688          48.500    21205440.546    88102965.806       -2124.763          46.250    21205440.791    88103137.809       -2124.672          45.750  
R17  23789295.514   127300559.7831      -3855.949          39.500    23789295.273    99011550.219       -2999.198          38.500    23789295.627    99011550.225       -2999.141          38.500  
R18  20679960.239   110391017.5281       -883.303          50.250    20679963.315    85859867.584        -687.046          48.000    20679963.331    85859867.592        -687.055          48.500  
R19  21204930.041   113431509.1411       3488.475          49.000    21204930.549    88224609.331        2713.184          46.250    21204930.456    88224611.332        2713.186          46.500  
E19  25837128.369   135775626.9791       1234.528          38.750    25837130.420   101390787.0291        922.012          39.000    25837127.232   104035870.739         945.921          40.250    25837128.542   103243809.301         938.770          42.750  
E20  39936397.924   209867044.330        -972.693          44.000    39936400.475   156718688.608        -726.459          43.750    39936396.889   160806805.395        -745.355          44.250    39936398.078   159582577.353        -739.706          47.000  
> 2012 12 15 00 54 30.0000000  0 21
G04  24847533.937   130575281.6841       2685.256          36.500    24847533.665          14.000                                                                    24847532.796   101746948.2081       2092.381          14.000                                                                  
G09  20515426.842   107809452.5721      -2066.721          51.500    20515426.337          43.250                                                                    20515425.169    84007294.302       -1610.433          43.250                                                                  
G12  20603433.376   108272015.6541       1549.737          51.500    20603433.251          45.250    20603431.302    84368177.6861       1207.553          47.500    20603431.110    84367781.6821       1207.586          45.250                                                                  
G14  22908468.526   120385526.4431       2711.595          43.250    22908467.999          27.750                                                                    22908466.111    93806902.3571       2112.934          27.750                                                                  
G15  23556694.098   123791382.830       -3604.717          43.750    23556694.040          29.250    23556692.677    96460471.756       -2808.888          38.500    23556692.665    96461105.756       -2808.868          29.250                                                                  
G17  23117972.499   121485428.5131      -2097.788          44.750    23117972.406          32.000    23117970.031    94664383.953       -1634.663          40.250    23117970.125    94663875.951       -1634.638          32.000                                                                  
G18  24639655.551   129481613.2101      -2670.550          36.000    24639655.095          14.000                                                                    24639653.370   100894758.060       -2080.930          14.000                                                                  
G22  24200677.237   127175380.401       -1564.913          39.750    24200676.321          22.000                                                                    24200672.397    99098167.139       -1219.415          22.000                                                                  
G24  20339235.046   106882975.329        -798.432          52.250    20339235.139          48.000    20339235.446    83285427.175        -622.161          51.000    20339235.592    83285758.169        -622.153          48.000    20339237.135    79815753.662        -596.222          57.750  
G25  23103216.272   121408463.616        3186.235          43.000    23103215.821          28.500    23103218.112    94603743.960        2482.693          40.250    23103217.704    94603706.946        2482.785          28.500    23103218.415    90662165.925        2379.330          47.750  
R01  23713634.327   126763383.6871       2923.314          38.000    23713637.314    98593743.9921       2273.684          32.500    23713638.252    98593744.0051       2273.794          32.750  
R07  22541276.186   120665219.844       -3725.912          43.750    22541277.347    93850701.756       -2898.002          42.500    22541277.405    93850710.742       -2897.803          42.750  
R08  21948502.187   117532667.472        -642.849          45.750    21948500.456    91414123.941        -500.093          40.750    21948498.144    91414135.923        -499.832          40.750  
R09  19397219.653   103580513.0801        323.225          51.500    19397220.945    80562625.781         251.344          50.500    19397221.604    80562625.794         251.361          50.750  
R10  21843900.402   116440259.207        3109.916          46.750    21843905.318    90564649.983        2418.779          39.500    21843904.786    90564649.994        2418.750          40.000  
R16  21220804.966   113357869.513       -2740.900          48.250    21220807.869    88166813.874       -2131.843          46.000    21220808.201    88166985.889       -2131.892          45.500  
R17  23810946.498   127416419.6411      -3867.810          40.000    23810947.368    99101663.489       -3008.604          37.750    23810946.351    99101663.467       -3008.444          38.000  
R18  20685002.012   110417931.5811       -910.944          50.000    20685005.381    85880800.737        -708.520          48.250    20685005.327    85880800.735        -708.432          48.500  
R19  21185414.793   113327114.7821       3471.126          49.000    21185415.270    88143413.7351       2699.782          46.250    21185414.806    88143415.7331       2699.836          46.500  
E19  25830119.020   135738790.6651       1221.129          39.750    25830120.794   101363279.388         911.942          39.250    25830117.418   104007645.521         935.758          40.250    25830118.853   103215798.955         928.665          42.750  
E20  39941991.135   209896436.084        -986.761          43.750    39941993.415   156740636.993        -736.721          44.000    39941989.905   160829326.342        -756.010          44.250    39941991.134   159604926.847        -750.216          47.000  
> 2012 12 15 00 55  0.0000000  0 21
G04  24832227.104   130494848.6401       2676.844          37.000    24832226.881          14.500                                                                    24832226.870   101684273.1261       2085.831          14.500                                                                  
G09  20527265.597   107871664.9751      -2080.751          51.500    20527265.101          43.000                                                                    20527263.825    84055771.492       -1621.363          43.000                                                                  
G12  20594627.774   108225741.485        1535.245          51.750    20594627.649          45.250    20594625.744    84332119.908        1196.296          47.250    20594625.421    84331723.910        1196.294          45.250                                                                  
G14  22893023.514   120304361.829        2699.303          43.000    22893022.978          28.250                                                                    22893021.105    93743657.186        2103.354          28.250                                                                  
G15  23577288.425   123899605.981       -3610.064          43.250    23577288.363          28.250    23577287.076    96544801.484       -2813.020          38.500    23577286.535    96545435.484       -2813.045          28.250                                                                  
G17  23129990.960   121548587.4001      -2112.770          45.250    23129990.893          32.000    23129988.655    94713598.682       -1646.314          40.000    23129988.890    94713090.671       -1646.318          32.000                                                                  
G18  24654916.070   129561808.2011      -2675.824          36.250    24654915.418          12.250                                                                    24654913.958   100957247.674       -2085.081          12.250                                                                  
G22  24209650.329   127222536.180       -1578.831          41.000    24209649.413          22.750                                                                    24209646.188    99134911.861       -1230.256          22.750                                                                  
G24  20343832.692   106907136.873        -812.312          52.250    20343832.781          48.000    20343833.374    83304254.344        -632.975          51.000    20343833.417    83304585.336        -632.972          48.000    20343834.803    79833796.361        -606.604          57.500  
G25  23085047.203   121312983.6161       3179.135          42.500    23085046.779          28.250    23085048.765    94529343.9581       2477.409          40.250    23085048.559    94529306.9661       2477.244          28.250    23085050.893    90590865.9261       2373.991          48.750  
R01  23697279.558   126675957.2331       2904.920          37.750    23697282.958    98525745.6591       2259.382          32.750    23697283.458    98525745.6681       2259.566          34.250  
R07  22562189.115   120777174.556       -3737.664          44.000    22562190.953    93937777.631       -2907.153          41.500    22562190.907    93937786.636       -2907.193          41.750  
R08  21952175.555   117552345.437        -668.949          45.750    21952175.039    91429428.978        -520.412          40.750    21952172.941    91429440.990        -520.394          41.000  
R09  19395443.587   103571030.7101        308.957          52.000    19395445.032    80555250.603         240.304          50.750    19395445.820    80555250.622         240.275          50.750  
R10  21826412.514   116347038.5011       3104.851          47.000    21826417.752    90492145.0031       2414.834          40.250    21826417.402    90492145.0081       2415.001          40.250  
R16  21236223.777   113440234.000       -2750.053          48.750    21236226.664    88230875.130       -2138.882          46.000    21236226.808    88231047.139       -2138.948          45.750  
R17  23832663.558   127532628.2861      -3879.396          39.500    23832663.526    99192047.9261      -3017.299          38.250    23832663.041    99192047.9451      -3017.225          38.500  
R18  20690199.561   110445674.0691       -938.511          50.250    20690202.241    85902378.220        -729.992          48.000    20690202.453    85902378.224        -729.980          48.500  
R19  21165996.496   113223241.7201       3453.724          49.250    21165997.034    88062623.598        2686.232          46.250    21165997.125    88062625.601        2686.298          46.750  
E19  25823185.688   135702356.2991       1207.766          40.000    25823188.156   101336071.9141        901.837          40.000    25823183.639   103979728.255         925.541          39.250    25823185.486   103188094.240         918.397          42.500  
E20  39947663.217   209926243.342       -1000.495          44.000    39947665.547   156762895.655        -747.156          43.750    39947662.413   160852165.665        -766.612          44.250    39947663.262   159627592.292        -760.779          47.000  
> 2012 12 15 00 55 30.0000000  0 21
G04  24816969.714   130414667.7311       2668.311          35.500    24816969.509          14.000                                                                    24816968.822   101621794.5101       2079.221          14.000                                                                  
G09  20539184.234   107934298.4221      -2094.832          51.250    20539183.734          43.000                                                                    20539182.506    84104576.765       -1632.332          43.000                                                                  
G12  20585904.897   108179902.197        1520.680          51.250    20585904.777          45.250    20585902.684    84296401.022        1185.014          47.500    20585902.430    84296005.023        1184.947          45.250                                                                  
G14  22877647.672   120223560.9761       2687.223          43.500    22877647.172          27.750                                                                    22877644.836    93680695.4641       2093.949          27.750                                                                  
G15  23597912.508   124007987.146       -3615.325          44.000    23597912.406          29.000    23597910.824    96629254.334       -2817.141          38.250    23597910.771    96629888.336       -2817.134          29.000                                                                  
G17  23142095.122   121612194.614       -2127.668          44.750    23142095.029          32.250    23142092.638    94763162.734       -1658.022          40.750    23142093.107    94762654.741       -1657.924          32.250                                                                  
G18  24670205.143   129642155.2911      -2680.934          36.000    24670204.531          12.750                                                                    24670203.473   101019855.771       -2089.049          12.750                                                                  
G22  24218702.489   127270103.8831      -1592.427          39.250    24218701.550          21.500                                                                    24218698.273    99171977.5511      -1240.851          21.500                                                                  
G24  20348509.953   106931715.793        -826.303          52.250    20348510.046          47.750    20348510.562    83323406.754        -643.870          51.000    20348510.645    83323737.747        -643.875          47.750    20348512.022    79852150.756        -617.018          57.500  
G25  23066917.825   121217713.013        3172.373          41.500    23066917.423          28.500    23066919.184    94455107.156        2471.830          41.250    23066919.049    94455070.147        2471.978          28.500    23066920.605    90519722.341        2368.796          48.250  
R01  23681029.654   126589086.9251       2886.441          39.250    23681031.593    98458179.8631       2244.866          34.000    23681032.366    98458179.8761       2244.905          34.000  
R07  22583170.410   120889482.041       -3749.430          44.500    22583171.445    94025127.866       -2916.179          42.500    22583171.536    94025136.869       -2916.200          42.500  
R08  21955998.650   117572808.162        -695.138          45.500    21955995.687    91445344.359        -540.698          41.000    21955993.992    91445356.373        -540.656          41.000  
R09  19393748.145   103561976.5191        294.630          52.250    19393749.222    80548208.476         229.180          50.500    19393750.190    80548208.484         229.193          50.750  
R10  21808953.003   116253968.483        3099.865          47.250    21808957.633    90419757.217        2411.018          39.750    21808957.209    90419757.226        2411.010          40.000  
R16  21251693.807   113522871.493       -2759.145          48.250    21251696.519    88295148.740       -2146.006          45.750    21251696.860    88295320.740       -2145.995          45.500  
R17  23854444.044   127649181.332       -3890.847          39.500    23854443.383    99282700.281       -3026.273          37.250    23854443.376    99282700.277       -3026.013          37.250  
R18  20695551.428   110474243.4721       -966.073          50.250    20695554.251    85924598.8671       -751.357          48.000    20695554.466    85924598.8701       -751.380          48.250  
R19  21146676.680   113119893.6931       3436.155          49.250    21146676.967    87982241.8221       2672.523          46.250    21146677.207    87982243.8331       2672.511          47.000  
E19  25816329.485   135666324.9061       1194.331          39.500    25816331.531   101309165.360         891.749          40.000    25816327.372   103952119.775         915.110          39.000    25816328.856   103160695.953         908.065          42.500  
E20  39953414.447   209956465.133       -1014.332          44.250    39953416.711   156785463.853        -757.491          44.000    39953413.134   160875322.596        -777.236          44.250    39953414.256   159650572.930        -771.317          47.000  
> 2012 12 15 00 56  0.0000000  0 21
G04  24801759.951   130334742.1801       2660.074          36.000    24801759.638          13.750                                                                    24801759.653   101559514.8691       2072.772          13.750                                                                  
G09  20551183.000   107997352.1441      -2108.735          51.000    20551182.504          43.000                                                                    20551181.215    84153709.532       -1643.171          43.000                                                                  
G12  20577264.673   108134498.075        1506.239          51.250    20577264.557          45.250    20577262.498    84261021.228        1173.641          47.500    20577262.259    84260625.221        1173.695          45.250                                                                  
G14  22862341.247   120143126.266        2675.059          43.500    22862340.711          28.000                                                                    22862338.749    93618019.046        2084.453          28.000                                                                  
G15  23618566.650   124116523.365       -3620.413          42.750    23618566.557          28.250    23618564.847    96713828.007       -2821.147          38.500    23618564.780    96714461.998       -2821.100          28.250                                                                  
G17  23154283.799   121676247.877       -2142.506          45.000    23154283.715          32.000    23154282.442    94813074.372       -1669.497          40.500    23154281.918    94812566.366       -1669.482          32.000                                                                  
G18  24685524.060   129722651.5901      -2685.646          35.750    24685523.542          11.750                                                                    24685521.579   101082580.134       -2092.722          11.750                                                                  
G22  24227832.181   127318081.252       -1606.030          40.000    24227831.336          22.500                                                                    24227828.038    99209362.471       -1251.439          22.500                                                                  
G24  20353266.623   106956711.885        -840.139          52.000    20353266.716          47.500    20353267.228    83342884.210        -654.616          51.000    20353267.244    83343215.204        -654.656          47.500    20353268.702    79870816.650        -627.369          57.500  
G25  23048828.582   121122653.045        3165.133          43.000    23048828.211          28.750    23048830.199    94381034.449        2466.423          40.250    23048829.892    94380997.463        2466.342          28.750    23048831.855    90448735.9861       2363.603          48.500  
R01  23664883.508   126502776.4551       2867.685          38.000    23664886.559    98391049.5211       2230.240          34.000    23664887.206    98391049.5131       2230.388          34.500  
R07  22604212.961   121002137.610       -3760.969          43.500    22604216.102    94112748.859       -2925.016          41.250    22604215.757    94112757.846       -2925.110          42.000  
R08  21959965.075   117594054.749        -721.233          45.250    21959963.757    91461869.467        -560.821          41.500    21959961.957    91461881.470        -560.959          40.500  
R09  19392133.030   103553351.4501        280.369          52.000    19392134.462    80541500.092         218.063          50.500    19392135.004    80541500.107         218.045          51.000  
R10  21791521.502   116161050.579        3094.802          47.000    21791526.277    90347487.728        2406.957          39.500    21791526.189    90347487.733        2406.990          40.250  
R16  21267214.662   113605781.546       -2768.142          48.500    21267217.438    88359634.330       -2153.049          45.750    21267217.629    88359806.343       -2153.040          45.500  
R17  23876286.697   127766074.882       -3902.089          37.750    23876288.636    99373617.486       -3034.997          36.750    23876287.543    99373617.510       -3035.013          37.750  
R18  20701057.994   110503638.2571       -993.541          50.000    20701060.964    85947461.477        -772.785          48.000    20701061.126    85947461.481        -772.806          48.250  
R19  21127455.668   113017075.0421       3418.450          49.250    21127456.485    87902271.792        2658.763          46.500    21127456.380    87902273.793        2658.766          47.000  
E19  25809549.366   135630697.4701       1180.864          39.500    25809551.898   101282560.4541        881.845          40.500    25809547.498   103924820.831         904.805          39.250    25809549.023   103133604.834         897.962          42.750  
E20  39959243.980   209987100.518       -1027.966          44.500    39959246.563   156808340.910        -767.715          44.000    39959242.780   160898796.449        -787.772          44.250    39959244.027   159673868.075        -781.748          47.000  
> 2012 12 15 00 56 30.0000000  0 21
G04  24786599.757   130255074.9611       2651.232          36.750    24786599.561          14.250                                                                    24786599.704   101497436.5081       2065.887          14.250                                                                  
G09  20563261.495   108060825.2101      -2122.747          51.500    20563260.995          42.750                                                                    20563259.779    84203169.058       -1654.091          42.750                                                                  
G12  20568707.532   108089529.640        1491.675          51.750    20568707.430          45.250    20568705.239    84225980.925        1162.336          47.500    20568705.004    84225584.927        1162.346          45.250                                                                  
G14  22847105.562   120063060.2301       2662.757          43.500    22847105.053          27.750                                                                    22847102.692    93555629.9081       2074.879          27.750                                                                  
G15  23639249.401   124225211.907       -3625.426          43.250    23639249.312          28.500    23639247.341    96798520.371       -2825.090          39.250    23639247.541    96799154.367       -2825.013          28.500                                                                  
G17  23166557.641   121740745.1281      -2157.237          45.000    23166557.543          31.750    23166555.554    94863331.9721      -1680.942          40.750    23166555.382    94862823.9651      -1680.961          31.750                                                                  
G18  24700869.359   129803293.9931      -2690.566          35.250    24700868.832          12.250                                                                    24700867.351   101145418.370       -2096.552          12.250                                                                  
G22  24237039.605   127366466.419       -1619.597          40.500    24237038.769          22.500                                                                    24237035.525    99247065.173       -1262.025          22.500                                                                  
G24  20358102.568   106982125.241        -854.057          52.500    20358102.661          47.500    20358103.328    83362686.825        -665.477          50.750    20358103.241    83363017.817        -665.501          47.500    20358104.637    79889794.152        -637.759          57.500  
G25  23030779.791   121027804.7631       3158.202          42.000    23030779.411          28.000    23030780.936    94307126.7051       2460.976          41.250    23030780.558    94307089.7061       2460.938          28.000    23030782.351    90377907.741        2358.376          48.500  
R01  23648841.543   126417029.3251       2848.772          38.000    23648844.657    98324357.2651       2215.916          33.000    23648845.738    98324357.2931       2215.582          33.250  
R07  22625324.946   121115136.6071      -3772.306          44.500    22625324.888    94200636.9561      -2934.081          42.000    22625325.876    94200645.9561      -2933.977          42.750  
R08  21964078.868   117616084.4351       -747.339          45.250    21964078.794    91479003.6521       -581.202          41.250    21964075.900    91479015.6491       -581.324          41.000  
R09  19390598.124   103545155.6041        266.120          52.000    19390599.447    80535125.555         206.941          50.500    19390600.164    80535125.570         206.931          50.750  
R10  21774119.013   116068286.3081       3089.542          47.000    21774125.161    90275337.7281       2402.998          40.000    21774123.989    90275337.7391       2402.860          40.000  
R16  21282786.176   113688962.981       -2777.163          47.750    21282789.220    88424330.993       -2160.038          46.000    21282789.764    88424502.999       -2160.097          45.750  
R17  23898194.286   127883304.9601      -3913.147          39.250    23898195.859    99464796.386       -3043.718          38.500    23898195.269    99464796.368       -3043.594          38.250  
R18  20706719.066   110533857.1041      -1020.982          49.750    20706721.964    85970965.017        -794.099          48.000    20706722.290    85970965.020        -794.096          48.250  
R19  21108334.477   112914789.9251       3400.536          49.500    21108335.297    87822716.717        2644.894          46.250    21108334.810    87822718.724        2644.882          46.500  
E19  25802846.531   135595475.0021       1167.240          39.000    25802849.437   101256257.957         871.662          40.250    25802845.434   103897832.174         894.359          39.750    25802846.450   103106821.645         887.567          43.000  
E20  39965152.232   210018148.492       -1041.773          43.750    39965154.868   156831526.063        -777.963          43.750    39965150.857   160922586.450        -798.246          43.750    39965152.360   159697476.955        -792.195          46.750  
> 2012 12 15 00 57  0.0000000  0 21
G04  24771489.418   130175669.4401       2642.440          36.500    24771489.280          14.500                                                                    24771489.143   101435562.0951       2059.031          14.500                                                                  
G09  20575419.504   108124716.4401      -2136.688          51.500    20575419.004          42.750                                                                    20575417.910    84252954.4241      -1664.952          42.750                                                                  
G12  20560233.241   108044997.0771       1477.108          51.750    20560233.143          45.250    20560230.956    84191280.2561       1150.975          47.500    20560230.747    84190884.2541       1150.992          45.250                                                                  
G14  22831939.913   119983365.241        2650.222          43.250    22831939.404          28.000                                                                    22831937.296    93493529.909        2065.111          28.000                                                                  
G15  23659960.446   124334050.390       -3630.510          42.750    23659960.370          28.000    23659958.968    96883329.556       -2828.959          39.000    23659958.782    96883963.558       -2828.971          28.000                                                                  
G17  23178915.045   121805684.0491      -2172.034          45.000    23178914.938          31.500    23178912.699    94913933.711       -1692.523          40.500    23178912.868    94913425.702       -1692.494          31.500                                                                  
G18  24716242.558   129884079.7771      -2695.265          35.500    24716241.977          12.250                                                                    24716240.396   101208368.295       -2100.190          12.250                                                                  
G22  24246323.651   127415256.967       -1633.034          40.500    24246322.784          22.250                                                                    24246319.561    99285083.755       -1272.482          22.250                                                                  
G24  20363017.971   107007955.735        -868.022          52.250    20363018.064          47.500    20363018.492    83382814.460        -676.353          50.750    20363018.623    83383145.455        -676.380          47.500    20363020.081    79909083.133        -648.164          57.500  
G25  23012770.985   120933169.346        3150.927          43.250    23012770.628          29.500    23012772.453    94233384.824        2455.195          41.000    23012772.713    94233347.836        2455.269          29.500    23012774.582    90307238.4201       2352.988          49.000  
R01  23632908.742   126331849.3851       2829.737          40.000    23632910.658    98258106.2001       2200.842          33.500    23632910.436    98258106.1831       2201.423          33.500  
R07  22646496.992   121228474.661       -3783.548          43.500    22646497.132    94288788.757       -2942.823          41.750    22646497.694    94288797.747       -2942.679          42.000  
R08  21968338.301   117638894.971        -773.357          45.250    21968337.970    91496745.157        -601.497          40.750    21968335.379    91496757.140        -601.301          40.750  
R09  19389143.675   103537389.9651        251.617          52.250    19389145.342    80529085.608         195.737          50.750    19389146.055    80529085.627         195.718          50.750  
R10  21756746.102   115975677.425        3084.295          47.000    21756751.686    90203308.602        2398.853          39.750    21756750.578    90203308.600        2398.925          40.000  
R16  21298409.130   113772415.089       -2786.284          48.000    21298411.748    88489238.192       -2167.095          45.750    21298411.950    88489410.194       -2167.150          45.500  
R17  23920164.429   128000867.2781      -3924.338          38.250    23920163.795    99556233.700       -3052.254          38.750    23920164.503    99556233.684       -3052.117          38.250  
R18  20712533.665   110564898.1101      -1048.365          50.000    20712536.923    85995108.022        -815.359          47.500    20712537.255    85995108.034        -815.483          48.500  
R19  21089313.542   112813042.3011       3382.542          49.500    21089314.417    87743579.698        2630.880          46.500    21089314.490    87743581.705        2630.913          47.000  
E19  25796221.426   135560658.4331       1153.731          39.250    25796224.084   101230258.544         861.701          40.000    25796219.948   103871154.548         883.996          39.750    25796221.106   103080347.099         877.339          42.750  
E20  39971138.701   210049608.085       -1055.636          44.000    39971141.329   156855018.596        -788.240          43.500    39971137.336   160946691.838        -808.841          44.000    39971138.977   159721398.822        -802.636          46.750  
> 2012 12 15 00 57 30.0000000  0 21
G04  24756429.237   130096528.8271       2633.510          36.000    24756429.139          13.250                                                                    24756429.134   101373894.1051       2052.034          13.250                                                                  
G09  20587657.108   108189024.9161      -2150.558          51.250    20587656.608          42.750                                                                    20587655.378    84303064.921       -1675.758          42.750                                                                  
G12  20551841.851   108000900.657        1462.580          51.750    20551841.753          45.500    20551839.649    84156919.427        1139.681          47.750    20551839.461    84156523.427        1139.671          45.500                                                                  
G14  22816845.712   119904044.0501       2637.827          43.250    22816845.225          28.250                                                                    22816843.030    93431721.1741       2055.450          28.250                                                                  
G15  23680699.961   124443036.8821      -3635.304          43.000    23680699.872          28.000    23680698.237    96968254.0881      -2832.717          38.000    23680698.065    96968888.0891      -2832.701          28.000                                                                  
G17  23191356.247   121871062.6501      -2186.612          44.500    23191356.136          31.000    23191354.223    94964878.060       -1703.829          39.500    23191353.664    94964370.057       -1703.851          31.000                                                                  
G18  24731642.148   129965005.5851      -2699.746          36.250    24731641.728          11.750                                                                    24731639.900   101271427.3571      -2103.679          11.750                                                                  
G22  24255685.145   127464450.661       -1646.531          40.250    24255684.274          22.500                                                                    24255681.377    99323416.478       -1283.012          22.500                                                                  
G24  20368012.918   107034203.821        -881.854          52.250    20368013.007          47.750    20368013.479    83403267.523        -687.180          51.250    20368013.475    83403598.510        -687.163          47.750    20368014.919    79928683.9831       -658.546          57.250  
G25  22994803.234   120838747.9781       3143.757          43.250    22994802.854          28.000    22994805.002    94159809.7331       2449.729          40.500    22994804.025    94159772.7301       2449.675          28.000    22994805.653    90236728.992        2347.606          48.250  
R01  23617079.307   126247239.9151       2810.770          37.000    23617082.438    98192298.7971       2186.362          33.250    23617082.730    98192298.7871       2186.395          33.500  
R07  22667731.959   121342147.092       -3794.690          44.500    22667733.783    94377200.641       -2951.304          41.000    22667732.495    94377209.665       -2951.431          41.750  
R08  21972743.975   117662484.710        -799.300          45.250    21972742.734    91515092.716        -621.763          40.250    21972740.491    91515104.710        -621.658          40.750  
R09  19387770.444   103530054.9171        237.311          52.000    19387771.404    80523380.5881        184.567          50.500    19387772.216    80523380.5991        184.585          50.750  
R10  21739401.898   115883224.2861       3079.193          47.250    21739407.104    90131400.6051       2394.850          40.000    21739406.898    90131400.6091       2394.865          40.000  
R16  21314081.772   113856137.009       -2795.204          48.250    21314084.730    88554355.236       -2173.997          45.750    21314085.220    88554527.244       -2174.062          45.500  
R17  23942194.133   128118757.9121      -3935.073          38.250    23942195.929    99647926.388       -3060.648          37.500    23942194.797    99647926.399       -3060.709          38.000  
R18  20718502.758   110596759.7951      -1075.724          49.750    20718505.757    86019889.332        -836.645          48.250    20718506.039    86019889.334        -836.649          48.500  
R19  21070394.260   112711836.3961       3364.428          49.250    21070395.067    87664864.0211       2616.759          46.250    21070394.899    87664866.0241       2616.832          46.750  
E19  25789673.748   135526248.6991       1140.202          40.000    25789675.469   101204562.9681        851.501          39.250    25789672.164   103844788.636         873.658          40.000    25789673.166   103054181.922         867.062          42.750  
E20  39977203.639   210081478.182       -1069.134          44.250    39977206.079   156878817.709        -798.445          43.750    39977202.461   160971111.786        -819.262          44.250    39977203.593   159745632.867        -813.030          47.000  
> 2012 12 15 00 58  0.0000000  0 21
G04  24741420.289   130017655.9411       2624.997          37.250    24741420.231          14.500                                                                    24741420.008   101312434.7151       2045.453          14.500                                                                  
G09  20599973.664   108253749.6261      -2164.461          51.250    20599973.159          42.750                                                                    20599972.077    84353499.758       -1686.590          42.750                                                                  
G12  20543533.699   107957240.770        1448.031          51.500    20543533.601          45.500    20543531.470    84122898.753        1128.354          47.750    20543531.254    84122502.757        1128.336          45.500                                                                  
G14  22801822.608   119825099.006        2625.091          43.500    22801822.085          28.500                                                                    22801820.449    93370205.545        2045.532          28.500                                                                  
G15  23701467.003   124552168.803       -3640.151          42.750    23701466.887          27.500    23701466.311    97053291.945       -2836.403          37.500    23701464.902    97053925.951       -2836.472          27.500                                                                  
G17  23203880.547   121936878.6711      -2201.154          44.750    23203880.445          31.500    23203878.393    95016163.259       -1715.203          40.250    23203877.950    95015655.257       -1715.189          31.500                                                                  
G18  24747068.100   130046069.1721      -2704.430          34.750    24747067.600          11.250                                                                    24747065.857   101334593.798       -2107.333          11.250                                                                  
G22  24265122.726   127514045.052       -1659.784          40.250    24265121.810          22.250                                                                    24265118.915    99362061.413       -1293.352          22.250                                                                  
G24  20373086.996   107060868.8171       -895.800          52.000    20373087.080          47.750    20373087.493    83424045.4331       -697.998          51.000    20373087.658    83424376.4241       -698.024          47.750    20373089.106    79948596.146        -668.923          57.500  
G25  22976876.304   120744541.803        3136.594          43.250    22976875.902          30.000    22976878.105    94086402.339        2444.129          42.000    22976878.032    94086365.343        2444.091          30.000    22976879.799    90166380.1971       2342.278          49.000  
R01  23601358.999   126163204.8141       2791.492          38.500    23601361.353    98126938.1871       2171.284          34.000    23601362.669    98126938.1901       2171.176          34.250  
R07  22689028.014   121456149.396       -3805.554          43.250    22689029.600    94465869.093       -2959.968          42.750    22689029.903    94465878.090       -2959.972          42.500  
R08  21977295.137   117686852.461        -825.208          45.500    21977293.320    91534045.407        -641.868          41.000    21977291.109    91534057.407        -641.888          41.000  
R09  19386477.203   103523151.1491        222.933          51.750    19386478.625    80518011.006         173.408          50.250    19386479.435    80518011.019         173.387          50.750  
R10  21722087.628   115790928.779        3073.871          46.250    21722092.757    90059615.208        2390.802          40.750    21722092.896    90059615.219        2390.721          40.500  
R16  21329804.817   113940128.020       -2804.226          47.750    21329807.461    88619681.560       -2181.020          46.000    21329808.330    88619853.561       -2180.926          45.250  
R17  23964286.600   128236972.7261      -3945.851          38.750    23964287.348    99739871.219       -3069.017          38.500    23964287.147    99739871.224       -3069.019          38.250  
R18  20724624.784   110629440.3551      -1103.019          49.500    20724628.150    86045307.537        -857.877          47.750    20724628.129    86045307.544        -857.936          48.250  
R19  21051577.236   112611176.3071       3346.157          49.500    21051577.678    87586572.855        2602.515          46.500    21051577.797    87586574.858        2602.643          47.250  
E19  25783203.242   135492246.7581       1126.567          40.500    25783205.053   101179171.916         841.338          39.500    25783202.071   103818735.202         863.306          40.000    25783202.875   103028326.835         856.708          42.750  
E20  39983346.238   210113757.7801      -1082.809          44.000    39983348.787   156902922.5861       -808.546          43.750    39983345.344   160995845.490        -829.659          44.500    39983346.194   159770178.271        -823.339          47.000  
> 2012 12 15 00 58 30.0000000  0 21
G04  24726463.326   129939054.3381       2615.456          38.250    24726463.282          14.500                                                                    24726462.430   101251186.7221       2038.001          14.500                                                                  
G09  20612369.427   108318889.5721      -2178.243          51.250    20612368.922          42.500                                                                    20612367.858    84404258.154       -1697.330          42.500                                                                  
G12  20535308.550   107914017.809        1433.485          52.000    20535308.452          45.500    20535306.318    84089218.538        1116.995          48.000    20535306.182    84088822.539        1117.002          45.500                                                                  
G14  22786872.228   119746532.6441       2612.619          43.750    22786871.696          28.250                                                                    22786869.583    93308985.0061       2035.803          28.250                                                                  
G15  23722261.367   124661443.655       -3644.730          43.500    23722261.242          28.000    23722259.622    97138441.155       -2840.010          38.500    23722259.865    97139075.169       -2840.054          28.000                                                                  
G17  23216487.808   122003130.4131      -2215.721          44.500    23216487.715          31.000    23216485.482    95067787.989       -1726.690          39.750    23216485.484    95067279.989       -1726.529          31.000                                                                  
G18  24762520.152   130127267.6761      -2708.721          36.000    24762519.737          10.000                                                                    24762517.531   101397865.357       -2110.685          10.000                                                                  
G22  24274636.244   127564038.081       -1672.998          40.250    24274635.243          22.000                                                                    24274632.310    99401016.977       -1303.635          22.000                                                                  
G24  20378240.599   107087950.855        -909.681          52.500    20378240.683          47.750    20378241.096    83445148.316        -708.836          51.250    20378241.185    83445479.312        -708.842          47.750    20378242.710    79968819.748        -679.317          57.500  
G25  22958990.263   120650551.8951       3129.382          42.500    22958989.897          28.500    22958992.509    94013163.4601       2438.332          40.000    22958991.699    94013126.4691       2438.484          28.500    22958994.382    90096192.981        2336.898          49.250  
R01  23585746.130   126079747.2741       2772.248          39.500    23585749.037    98062026.7181       2156.126          33.000    23585749.463    98062026.7351       2156.060          32.750  
R07  22710384.978   121570477.078       -3816.338          44.250    22710386.186    94554790.585       -2968.229          39.750    22710385.773    94554799.601       -2968.255          41.000  
R08  21981989.774   117711996.6801       -851.013          45.250    21981988.163    91553602.0281       -662.054          40.250    21981986.577    91553614.0201       -661.921          40.750  
R09  19385265.241   103516679.0801        208.560          52.250    19385266.496    80512977.192         162.165          50.500    19385267.437    80512977.205         162.151          50.750  
R10  21704803.073   115698792.1711       3068.575          47.500    21704808.196    89987953.3731       2386.730          40.000    21704807.530    89987953.3801       2386.637          39.750  
R16  21345578.671   114024387.176       -2813.107          48.000    21345581.400    88685216.459       -2187.978          45.750    21345581.706    88685388.453       -2187.981          45.250  
R17  23986436.422   128355507.5751      -3956.421          38.750    23986438.460    99832064.979       -3077.095          37.250    23986437.960    99832064.970       -3077.241          37.000  
R18  20730899.826   110662938.1531      -1130.185          49.750    20730903.152    86071361.383        -879.041          47.500    20730903.130    86071361.383        -879.082          48.000  
R19  21032862.697   112511066.0121       3327.781          50.250    21032863.115    87508709.306        2588.303          46.750    21032863.059    87508711.313        2588.252          47.250  
E19  25776811.028   135458653.5291       1112.954          41.250    25776812.717   101154086.0721        830.923          39.750    25776809.090   103792994.945         852.650          40.000    25776810.280   103002782.539         846.152          42.750  
E20  39989566.474   210146445.837       -1096.383          44.000    39989569.011   156927332.486        -818.738          43.750    39989565.720   161020892.165        -840.159          44.500    39989566.489   159795034.266        -833.732          47.250  
> 2012 12 15 00 59  0.0000000  0 21
G04  24711557.782   129860726.8611       2606.346          36.750    24711557.648          15.250                                                                    24711557.385   101190152.3231       2030.914          15.250                                                                  
G09  20624843.907   108384443.6961      -2191.988          51.250    20624843.402          42.250                                                                    20624842.317    84455339.285       -1708.039          42.250                                                                  
G12  20527166.718   107871232.5131       1418.873          51.750    20527166.616          45.750    20527164.571    84055879.3591       1105.617          47.750    20527164.386    84055483.3591       1105.616          45.750                                                                  
G14  22771994.013   119668347.561        2599.802          43.500    22771993.472          29.000                                                                    22771991.520    93248061.553        2025.815          29.000                                                                  
G15  23743082.295   124770858.832       -3649.450          42.500    23743082.202          26.750    23743080.749    97223699.733       -2843.802          37.000    23743080.549    97224333.743       -2843.725          26.750                                                                  
G17  23229177.258   122069815.3941      -2230.130          44.500    23229177.151          31.000    23229175.602    95119750.301       -1737.714          39.750    23229175.350    95119242.310       -1737.766          31.000                                                                  
G18  24777996.097   130208598.1331      -2713.108          34.250    24777995.574          12.250                                                                    24777994.018   101461239.701       -2114.100          12.250                                                                  
G22  24284224.616   127614427.727       -1686.128          40.250    24284223.575          22.000                                                                    24284221.003    99440281.614       -1313.868          22.000                                                                  
G24  20383473.396   107115450.159        -923.571          52.000    20383473.480          47.750    20383473.896    83466576.331        -719.660          51.000    20383474.137    83466907.326        -719.668          47.750    20383475.617    79989354.921        -689.678          57.250  
G25  22941146.285   120556779.455        3122.016          43.500    22941145.919          30.000    22941147.925    93940094.046        2432.867          42.000    22941147.523    93940057.051        2432.738          30.000    22941148.373    90026168.1071       2331.516          48.000  
R01  23570242.921   125996871.0521       2752.734          38.250    23570243.470    97997567.4511       2140.817          32.250    23570245.596    97997567.4371       2141.219          33.000  
R07  22731803.303   121685125.486       -3826.930          44.750    22731804.665    94643961.584       -2976.563          42.500    22731804.841    94643970.570       -2976.470          42.250  
R08  21986830.696   117737915.237        -876.832          45.500    21986828.633    91573760.867        -682.004          40.500    21986826.402    91573772.881        -682.090          41.000  
R09  19384134.171   103510638.9371        194.177          52.250    19384135.467    80508279.313         150.968          50.750    19384136.291    80508279.325         151.019          51.000  
R10  21687548.742   115606815.890        3063.296          46.750    21687554.297    89916416.266        2382.554          40.000    21687553.023    89916416.277        2382.593          40.000  
R16  21361401.923   114108913.529       -2822.032          48.000    21361405.067    88750959.142       -2194.885          46.000    21361405.459    88751131.150       -2195.020          45.500  
R17  24008648.428   128474358.6031      -3967.071          39.250    24008648.921    99924504.618       -3085.217          37.000    24008647.740    99924504.616       -3085.327          37.000  
R18  20737328.202   110697251.5321      -1157.361          50.000    20737331.270    86098049.565        -900.183          47.750    20737331.222    86098049.560        -900.156          48.000  
R19  21014251.681   112411509.6151       3309.311          49.500    21014252.157    87431276.588        2573.816          47.000    21014252.059    87431278.588        2573.928          47.250  
E19  25770495.546   135425469.9401       1099.307          40.250    25770497.958   101129306.116         820.943          39.250    25770494.547   103767568.559         842.401          39.500    25770495.669   102977549.726         835.972          42.250  
E20  39995864.349   210179541.320       -1109.970          44.250    39995867.059   156952046.628        -828.903          44.000    39995863.464   161046251.035        -850.512          44.250    39995864.411   159820200.072        -844.038          47.000  
> 2012 12 15 00 59 30.0000000  0 21
G04  24696705.683   129782676.8821       2596.904          37.250    24696705.527          15.000                                                                    24696704.837   101129334.1371       2023.561          15.000                                                                  
G09  20637397.118   108450410.8351      -2205.785          51.000    20637396.609          42.000                                                                    20637395.391    84506742.246       -1718.795          42.000                                                                  
G12  20519108.381   107828885.248        1404.277          51.500    20519108.279          45.500    20519106.111    84022881.505        1094.279          47.750    20519105.945    84022485.500        1094.241          45.500                                                                  
G14  22757188.929   119590546.459        2586.907          44.000    22757188.384          28.750                                                                    22757186.725    93187437.315        2015.772          28.750                                                                  
G15  23763929.712   124880412.553       -3654.089          43.000    23763929.610          27.000    23763928.754    97309066.276       -2847.402          38.000    23763928.009    97309700.270       -2847.344          27.000                                                                  
G17  23241949.513   122136931.8291      -2244.454          44.000    23241949.429          30.500    23241947.594    95172048.823       -1748.992          38.750    23241946.988    95171540.823       -1748.926          30.500                                                                  
G18  24793497.457   130290057.3431      -2717.410          35.250    24793496.881          10.500                                                                    24793495.157   101524714.418       -2117.517          10.500                                                                  
G22  24293888.520   127665211.591       -1699.244          39.750    24293887.505          21.250                                                                    24293884.881    99479853.439       -1324.088          21.250                                                                  
G24  20388785.718   107143366.330        -937.487          52.250    20388785.802          47.500    20388786.255    83488329.169        -730.512          50.750    20388786.483    83488660.162        -730.509          47.500    20388787.904    80010201.383        -700.036          57.250  
G25  22923343.623   120463225.5081       3114.774          42.750    22923343.221          28.750    22923345.548    93867194.8771       2427.211          40.750    22923344.791    93867157.8741       2427.095          28.750    22923347.447    89956306.419        2325.962          49.500  
R01  23554849.369   125914579.5881       2733.233          38.250    23554851.032    97933563.0051       2126.091          33.000    23554851.342    97933562.9921       2126.127          32.750  
R07  22753278.312   121800090.187       -3837.477          43.000    22753280.247    94733378.547       -2984.714          41.000    22753280.233    94733387.540       -2984.761          41.250  
R08  21991814.519   117764607.608        -902.586          45.250    21991813.615    91594521.607        -701.963          40.750    21991811.505    91594533.614        -702.074          41.000  
R09  19383084.252   103505031.7951        179.640          52.250    19383085.641    80503918.207         139.716          51.000    19383086.323    80503918.217         139.742          51.000  
R10  21670324.354   115515001.0951       3057.763          46.750    21670328.964    89845004.7701       2378.313          39.500    21670328.660    89845004.7761       2378.296          40.000  
R16  21377276.054   114193706.585       -2830.851          48.250    21377278.318    88816909.270       -2201.793          46.000    21377278.874    88817081.282       -2201.827          45.500  
R17  24030915.444   128593521.4561      -3977.392          38.000    24030916.556   100017186.7671      -3093.392          37.250    24030916.524   100017186.7531      -3093.416          37.000  
R18  20743908.605   110732378.3421      -1184.489          50.000    20743911.558    86125370.410        -921.154          48.000    20743911.894    86125370.412        -921.191          48.000  
R19  20995744.775   112312511.2871       3290.608          49.250    20995745.444    87354277.903        2559.340          46.750    20995745.225    87354279.908        2559.377          47.250  
E19  25764258.818   135392696.8491       1085.475          39.750    25764261.422   101104832.6991        810.783          39.500    25764257.563   103742456.713         831.892          39.500    25764259.209   102952629.054         825.583          42.250  
E20  40002239.423   210213043.098       -1123.434          44.500    40002241.929   156977064.189        -839.049          43.750    40002238.495   161071921.211        -860.829          44.000    40002239.599   159845674.829        -854.315          47.000  
