     3.03           OBSERVATION DATA    M                   RINEX VERSION / TYPE
BNC 2.12            weber               20150716 175615 UTC PGM / RUN BY / DATE
PORTIONS OF THIS HEADER GENERATED BY THE IGS CB FROM        COMMENT
SITELOG cut0_20150507.log                                   COMMENT
Default set of observation types used                       COMMENT
RTCM_3 mgex.igs-ip.net/CUT07                                COMMENT
RTCM_3 mgex.igs-ip.net/CUT07                                COMMENT
CUT07                                                       MARKER NAME
59945M001                                                   MARKER NUMBER
                                                            MARKER TYPE
gnss@curtin.edu.au  CUT                                     OBSERVER / AGENCY
5023K67889          TRIMBLE NETR9       5.01                REC # / TYPE / VERS
4928353386          TRM59800.00     SCIS                    ANT # / TYPE
 -2364337.2699  4870285.5624 -3360809.8398                  APPROX POSITION XYZ
        0.0000        0.0000        0.0000                  ANTENNA: DELTA H/E/N
C    9 C2I L2I S2I C6I L6I S6I C7I L7I S7I                  SYS / # / OBS TYPES
E   12 C1X L1X S1X C5X L5X S5X C7X L7X S7X C8X L8X S8X      SYS / # / OBS TYPES
G   15 C1C L1C S1C C1W L1W S1W C2X L2X S2X C2W L2W S2W C5X  SYS / # / OBS TYPES
       L5X S5X                                              SYS / # / OBS TYPES
J   15 C1C L1C S1C C1W L1W S1W C2X L2X S2X C2W L2W S2W C5X  SYS / # / OBS TYPES
       L5X S5X                                              SYS / # / OBS TYPES
R    6 C1C L1C S1C C2P L2P S2P                              SYS / # / OBS TYPES
S    9 C1C L1C S1C C5I L5I S5I C5Q L5Q S5Q                  SYS / # / OBS TYPES
    10.000                                                  INTERVAL
  2015     7    13    12     0    0.0000000     GPS         TIME OF FIRST OBS
C L2I  0.00000                                              SYS / PHASE SHIFT
C L6I  0.00000                                              SYS / PHASE SHIFT
C L7I  0.00000                                              SYS / PHASE SHIFT
E L1X  0.00000                                              SYS / PHASE SHIFT
E L5X  0.00000                                              SYS / PHASE SHIFT
E L7X  0.00000                                              SYS / PHASE SHIFT
E L8X  0.00000                                              SYS / PHASE SHIFT
G L1C  0.00000                                              SYS / PHASE SHIFT
G L1W  0.00000                                              SYS / PHASE SHIFT
G L2W  0.00000                                              SYS / PHASE SHIFT
G L2X  0.00000                                              SYS / PHASE SHIFT
G L5X  0.00000                                              SYS / PHASE SHIFT
J L1C  0.00000                                              SYS / PHASE SHIFT
J L1W  0.00000                                              SYS / PHASE SHIFT
J L2W  0.00000                                              SYS / PHASE SHIFT
J L2X  0.00000                                              SYS / PHASE SHIFT
J L5X  0.00000                                              SYS / PHASE SHIFT
R L1C  0.00000                                              SYS / PHASE SHIFT
R L2P  0.00000                                              SYS / PHASE SHIFT
S L1C  0.00000                                              SYS / PHASE SHIFT
S L5I  0.00000                                              SYS / PHASE SHIFT
S L5Q  0.00000                                              SYS / PHASE SHIFT
                                                            GLONASS COD/PHS/BIS
  0                                                         GLONASS SLOT / FRQ #
                                                            END OF HEADER
> 2015 07 13 12 00  0.0000000  0 37
G05  23329946.203   122599046.445          45.375                                                    23329949.938    95532735.493          43.375    23329949.867    95532685.491          30.625                                                  
G07  25733324.140   135229365.445          39.812                                                    25733326.996   105373499.094          34.688    25733327.511   105374120.092          20.625                                                  
G12  25783185.711   135492297.156          30.688                                                    25783191.145   105578083.884          33.000    25783192.539   105578001.850          13.875                                                  
G13  20604193.890   108275427.365          51.500                                                                                                    20604195.562    84370562.093          43.875                                                  
G15  22271577.078   117037870.558          48.812                                                    22271579.875    91198370.537          46.312    22271579.629    91198251.549          38.375                                                  
G17  21924690.797   115214393.010          50.500                                                    21924692.773    89777824.182          46.312    21924692.996    89777985.193          39.000                                                  
G20  23399773.117   122966733.332          44.312                                                                                                    23399776.196    95818136.439          25.312                                                  
G24  25002567.109   131390167.092          35.375                                                    25002571.078   102381264.957          39.375    25002571.887   102380825.929          19.875    25002575.597    98115672.236          43.812  
G28  20820788.656   109414349.978          52.125                                                                                                    20820789.449    85257825.070          40.688                                                  
G30  23100774.265   121395899.227          46.312                                                    23100780.226    94594061.260          45.812    23100779.863    94593616.257          33.000    23100783.281    90652783.883          49.812  
R03  23919550.219   128042720.590          38.312    23919556.707    99589581.826          37.875  
R04  20580579.734   110207805.410          52.812    20580581.766    85718031.850          47.375  
R05  21015506.554   112339796.490          46.000    21015511.168    87375748.107          46.312  
R06  24807302.101   132376975.730          40.375    24807304.133   102958936.756          27.375  
R13  24241778.633   129449216.257          32.812    24241785.121   100683118.846          36.188  
R14  20934965.969   111595295.361          45.812    20934972.574    86796823.812          40.875  
R15  21053803.305   112504384.876          49.625    21053808.738    87503934.980          45.125  
R16  24653070.477   131692581.088          37.875    24653078.141   102427682.435          34.312  
R17  22580763.289   120410530.377          43.812    22580769.426    93652661.563          33.188  
R23  23515916.937   125794225.178          42.688    23515924.484    97840301.004          34.688  
R24  21921329.226   117223635.814          43.375    21921333.020    91173311.523          39.625  
E11  27036926.258   142079326.559                    27036928.102   106098476.224                    27036925.008   108866052.291                    27036926.543   107482368.863                  
S27  40097094.562   210711020.035          37.875    40097086.731   157349404.819          40.875                                                  
S28  38017138.250   199780750.835          45.000    38017126.527   149187306.003          44.875                                                  
S29  37588013.797   197526162.366          45.812                                                                                                  
S37  37826726.953   198780128.659          43.375                                                                                                  
J01  44118441.047   231843562.481          34.188                                                    44118444.781   180657339.800          34.688                                                    44118452.055   173129644.408          40.188  
C01  37535605.680   195457981.888          43.312    37535590.418   158825348.914          45.812    37535594.442   151140253.755          46.875  
C02  38189098.524   198860248.885          37.875    38189088.481   161590523.429          42.625    38189091.738   153771640.486          43.000  
C03  36986448.500   192598621.421          43.625    36986436.523   156501550.163          48.125    36986441.597   148928895.237          47.188  
C04  38772496.844   201897804.332          38.625    38772484.340   164059056.115          42.375    38772489.414   156120169.592          40.812  
C05  39750636.554   206991551.691          36.000    39750627.390   168197598.459          40.188    39750632.410   160059006.657          38.188  
C06  39277053.797   204525963.598          39.375    39277041.352   166194124.718          41.312    39277048.773   158152472.714          41.625  
C07  36420485.859   189650731.250          48.688    36420471.067   154106967.979          50.188    36420478.606   146649756.321          48.812  
C08  39673624.679   206590937.993          39.625    39673611.410   167871527.120          40.812    39673619.184   159748715.011          40.312  
C09  37670839.008   196161634.669          45.812    37670826.797   159398056.892          47.000    37670835.156   151685247.333          45.312  
C10  36782930.977   191538801.810          47.000    36782918.883   155641242.507          48.312    36782927.125   148110224.297          47.000  
> 2015 07 13 12 00 10.0000000  0 37
G05  23334374.688   122622322.446          44.125                                                    23334379.418    95550872.642          42.625    23334379.055    95550822.655          30.625                                                  
G07  25737096.484   135249191.965          38.812                                                    25737101.449   105388948.311          34.625    25737100.734   105389569.301          19.000                                                  
G12  25776368.383   135456469.805          34.188                                                    25776374.168   105550166.479          33.125    25776375.153   105550084.453          16.312                                                  
G13  20601901.922   108263382.628          51.375                                                                                                    20601903.652    84361176.590          44.125                                                  
G15  22265662.734   117006792.855          48.812                                                    22265665.883    91174154.155          46.312    22265665.695    91174035.167          38.188                                                  
G17  21919383.352   115186507.437          49.500                                                    21919387.555    89756095.187          46.688    21919387.016    89756256.199          39.000                                                  
G20  23400149.773   122968713.645          43.875                                                                                                    23400152.969    95819679.548          26.500                                                  
G24  24997124.586   131361581.518          35.188                                                    24997131.601   102358990.513          38.688    24997131.766   102358551.499          18.625    24997135.945    98094325.918          43.875  
G28  20824423.726   109433447.987          51.625                                                                                                    20824424.578    85272706.635          40.375                                                  
G30  23103697.469   121411256.144          46.688                                                    23103701.906    94606027.673          45.875    23103701.660    94605582.670          33.125    23103705.137    90664251.703          49.812  
R03  23927067.344   128082952.664          39.188    23927072.543    99620873.419          36.500  
R04  20584949.883   110231212.372          52.500    20584953.437    85736237.278          47.688  
R05  21012560.938   112324049.603          46.500    21012565.902    87363500.530          46.812  
R06  24799463.734   132335171.412          33.875                                                  
R13  24245444.515   129468776.466          32.375    24245447.367   100698332.344          35.375  
R14  20936578.016   111603887.325          45.875    20936584.504    86803506.453          41.000  
R15  21051492.328   112492033.153          50.000    21051497.293    87494328.095          45.188  
R16  24648012.883   131665562.045          35.688    24648020.430   102406667.612          34.312  
R17  22573503.219   120371811.942          44.188    22573508.886    93622547.278          34.000  
R23  23518350.390   125807246.048          41.875    23518358.406    97850428.340          34.188  
R24  21918036.844   117206031.486          43.375    21918039.695    91159619.285          40.375  
E11  27035661.664   142072680.806                    27035663.570   106093513.517                    27035660.570   108860960.123                    27035662.062   107477341.429                  
S27  40096283.250   210706757.285          37.688    40096276.215   157346220.850          41.375                                                  
S28  38016337.734   199776546.345          45.188    38016326.176   149184149.827          44.875                                                  
S29  37587204.781   197521897.528          45.375                                                                                                  
S37  37825925.875   198775937.329          43.188                                                                                                  
J01  44118613.797   231844473.806          35.000                                                    44118618.937   180658049.941          35.375                                                    44118625.332   173130324.963          40.188  
C01  37534793.406   195453753.396          43.375    37534778.438   158821912.914          46.875    37534782.578   151136984.017          46.375  
C02  38188289.914   198856040.381          38.000    38188280.281   161587103.680          43.375    38188283.598   153768386.220          42.625  
C03  36985556.992   192593981.272          43.625    36985545.191   156497779.667          48.312    36985550.324   148925307.191          47.125  
C04  38771692.219   201893614.754          38.312    38771679.656   164055651.740          43.000    38771684.438   156116929.953          42.000  
C05  39749793.367   206987160.982          36.312    39749784.438   168194030.664          39.500    39749789.340   160055611.504          38.812  
C06  39279570.109   204539066.861          39.625    39279557.488   166204772.189          41.375    39279565.320   158162604.982          42.000  
C07  36419883.867   189647596.580          48.188    36419868.840   154104420.811          49.812    36419876.320   146647332.398          48.125  
C08  39669154.414   206567663.403          39.000    39669142.321   167852614.615          41.000    39669150.152   159730717.637          39.688  
C09  37673190.453   196173877.937          46.312    37673177.832   159408005.555          46.125    37673186.601   151694714.604          45.625  
C10  36782102.133   191534488.253          46.875    36782090.273   155637737.394          48.000    36782098.633   148106888.790          47.375  
> 2015 07 13 12 00 20.0000000  0 37
G05  23338806.696   122645613.186          45.312                                                    23338812.070    95569021.265          42.500    23338811.941    95568971.268          29.375                                                  
G07  25740869.813   135269016.122          37.375                                                    25740872.375   105404395.710          33.875    25740872.422   105405016.708          17.375                                                  
G12  25769553.094   135420652.525          37.312                                                    25769557.355   105522256.891          33.875    25769559.043   105522174.881          17.812                                                  
G13  20599618.750   108251384.956          50.812                                                                                                    20599620.656    84351827.759          43.875                                                  
G15  22259755.234   116975745.842          48.000                                                    22259757.445    91149961.696          46.000    22259757.610    91149842.700          38.375                                                  
G17  21914086.766   115158666.520          50.688                                                    21914089.914    89734400.984          47.375    21914089.316    89734561.987          39.375                                                  
G20  23400536.344   122970739.881          43.688                                                                                                    23400538.426    95821258.434          26.375                                                  
G24  24991687.492   131332989.515          38.875                                                    24991691.109   102336711.117          39.375    24991691.332   102336272.102          19.625    24991695.512    98072974.841          43.500  
G28  20828064.735   109452584.285          51.000                                                                                                    20828065.586    85287618.032          40.188                                                  
G30  23106620.312   121426619.279          46.500                                                    23106626.273    94617998.960          45.188    23106625.969    94617553.950          33.000    23106629.504    90675724.174          49.500  
R03  23934581.023   128123176.524          38.125    23934586.457    99652158.657          37.312  
R04  20589332.086   110254681.823          52.500    20589335.879    85754491.284          48.000  
R05  21009631.477   112308385.227          46.688    21009635.504    87351317.133          46.375  
R06  24791638.086   132293396.478          41.812    24791640.117   102893925.696          28.375  
R13  24249101.242   129488325.524          31.000    24249107.496   100713537.185          35.875  
R14  20938189.398   111612483.582          45.312    20938197.883    86810192.434          40.812  
R15  21049183.563   112479694.529          50.375    21049187.941    87484731.403          45.125  
R16  24642956.570   131638549.602          36.875    24642963.414   102385657.921          32.375  
R17  22566245.422   120333117.855          44.625    22566251.793    93592451.917          32.875  
R23  23520796.664   125820337.728          41.625    23520804.797    97860610.738          34.000  
R24  21914758.000   117188498.604          44.188    21914760.852    91145982.616          39.312  
E11  27034404.297   142066074.905                    27034406.711   106088580.542                    27034403.383   108855898.456                    27034405.098   107472344.108                  
S27  40095471.750   210702492.548          37.500    40095464.480   157343036.593          40.812                                                  
S28  38015537.891   199772340.410          45.875    38015525.816   149180992.031          44.625                                                  
S29  37586392.375   197517630.507          45.312                                                                                                  
S37  37825132.032   198771744.037          43.375                                                                                                  
J01  44118783.828   231845364.891          33.125                                                    44118788.031   180658744.296          35.188                                                    44118795.011   173130990.389          40.812  
C01  37533981.094   195449522.058          43.375    37533966.125   158818474.617          46.500    37533970.031   151133712.088          46.688  
C02  38187481.008   198851828.768          37.875    38187471.375   161583681.438          43.312    38187474.750   153765129.547          42.500  
C03  36984665.383   192589338.048          43.625    36984653.640   156494006.665          47.500    36984658.773   148921716.755          46.812  
C04  38770887.468   201889422.254          38.375    38770874.375   164052245.002          42.688    38770879.101   156113688.055          42.000  
C05  39748949.258   206982766.943          36.375    39748940.445   168190460.151          39.500    39748945.465   160052213.767          38.875  
C06  39282086.821   204552168.340          40.188    39282073.609   166215418.219          41.500    39282081.266   158172735.883          41.375  
C07  36419279.906   189644453.353          49.125    36419265.348   154101866.677          50.312    36419272.945   146644901.857          48.000  
C08  39664684.914   206544385.469          38.875    39664671.586   167833699.378          40.312    39664678.305   159712717.628          39.812  
C09  37675541.781   196186128.067          45.625    37675530.273   159417959.790          45.812    37675538.281   151704187.178          45.000  
C10  36781272.375   191530166.927          46.875    36781260.281   155634225.970          47.688    36781268.465   148103547.268          46.375  
> 2015 07 13 12 00 30.0000000  0 37
G05  23343241.750   122668915.359          45.000                                                    23343245.602    95587178.793          43.125    23343245.473    95587128.791          30.812                                                  
G07  25744641.093   135288834.725          35.125                                                    25744644.242   105419838.777          33.875    25744644.465   105420459.753          16.312                                                  
G12  25762739.024   135384841.759          35.500                                                    25762743.051   105494352.497          33.188    25762743.684   105494270.530          15.625                                                  
G13  20597344.203   108239431.071          50.500                                                                                                    20597345.934    84342513.044          44.125                                                  
G15  22253852.391   116944726.339          48.500                                                    22253854.836    91125790.662          46.812    22253854.765    91125671.666          38.688                                                  
G17  21908796.219   115130867.036          50.375                                                    21908798.664    89712739.078          46.000    21908798.594    89712900.068          39.188                                                  
G20  23400930.359   122972808.643          44.312                                                                                                    23400932.676    95822870.467          25.000                                                  
G24  24986243.789   131304387.902          38.125                                                    24986248.403   102314424.187          39.375    24986248.742   102313985.195          18.625    24986252.687    98051616.559          44.125  
G28  20831712.898   109471755.489          51.312                                                                                                    20831713.691    85302556.638          40.625                                                  
G30  23109544.953   121441985.276          46.000                                                    23109549.801    94629972.457          45.125    23109550.023    94629527.447          33.188    23109553.676    90687198.780          50.000  
R03  23942093.930   128163388.619          38.812    23942098.894    99683434.720          37.812  
R04  20593727.273   110278210.117          53.188    20593730.125    85772791.052          48.375  
R05  21006715.086   112292800.071          46.312    21006720.754    87339195.359          46.188  
R06  24783812.023   132251647.421          38.875    24783816.402   102861454.218          31.375  
R13  24252760.359   129507859.997          32.188    24252766.262   100728730.643          36.375  
R14  20939802.860   111621080.501          45.875    20939810.640    86816878.935          40.812  
R15  21046876.047   112467365.402          50.375    21046880.777    87475142.103          44.688  
R16  24637900.383   131611540.470          34.812    24637907.344   102364650.813          31.500  
R17  22558993.680   120294444.182          44.188    22558999.348    93562372.449          33.688  
R23  23523257.531   125833496.745          42.125    23523266.016    97870845.499          34.688  
R24  21911492.992   117171033.667          44.125    21911495.375    91132398.796          39.125  
E11  27033154.281   142059505.513                    27033156.461   106083674.844                    27033153.133   108850864.788                    27033154.722   107467374.422                  
S27  40094660.047   210698221.022          38.188    40094651.746   157339846.817          40.625                                                  
S28  38014735.578   199768127.112          45.500    38014724.324   149177828.581          44.875                                                  
S29  37585574.672   197513356.120          44.875                                                                                                  
S37  37824328.031   198767544.934          43.000                                                                                                  
J01  44118948.531   231846232.542          33.500                                                    44118953.789   180659420.382          35.000                                                    44118960.184   173131638.317          40.312  
C01  37533167.305   195445284.576          43.312    37533152.219   158815031.314          46.312    37533156.476   151130435.400          46.000  
C02  38186671.016   198847610.641          37.812    38186661.676   161580253.886          43.500    38186665.051   153761867.829          42.375  
C03  36983772.414   192584688.439          43.625    36983760.730   156490228.477          47.875    36983765.629   148918121.390          46.125  
C04  38770080.937   201885223.364          38.188    38770068.375   164048833.074          42.812    38770073.274   156110441.222          40.688  
C05  39748104.281   206978366.419          36.125    39748095.117   168186884.378          39.688    39748100.019   160048811.009          38.375  
C06  39284601.336   204565264.654          40.125    39284588.539   166226060.044          41.312    39284596.371   158182862.775          41.125  
C07  36418674.351   189641298.268          49.812    36418659.735   154099302.915          49.500    36418667.156   146642462.142          47.875  
C08  39660211.461   206521101.026          38.625    39660199.836   167814778.866          40.625    39660206.789   159694712.630          40.188  
C09  37677895.445   196198381.671          45.688    37677883.469   159427916.842          46.500    37677891.594   151713662.448          45.625  
C10  36780440.789   191525834.537          46.500    36780428.461   155630705.555          47.312    36780436.879   148100197.199          46.125  
> 2015 07 13 12 00 40.0000000  0 37
G05  23347679.336   122692235.012          44.875                                                    23347683.773    95605349.949          43.000    23347683.586    95605299.958          29.875                                                  
G07  25748412.367   135308654.130          35.312                                                    25748415.984   105435282.429          35.875    25748415.855   105435903.434          17.812                                                  
G12  25755925.196   135349044.168          33.188                                                    25755930.394   105466458.387          33.000    25755930.910   105466376.391          13.875                                                  
G13  20595079.203   108227527.441          51.812                                                                                                    20595080.641    84333237.497          43.875                                                  
G15  22247955.602   116913740.891          48.625                                                    22247958.516    91101646.161          46.375    22247958.562    91101527.171          38.688                                                  
G17  21903515.414   115103115.544          50.812                                                    21903517.157    89691114.541          46.312    21903517.848    89691275.530          39.500                                                  
G20  23401332.664   122974926.380          44.125                                                                                                    23401335.273    95824520.655          27.000                                                  
G24  24980799.149   131275782.930          38.125                                                    24980804.816   102292134.664          40.812    24980805.273   102291695.645          18.312    24980808.867    98030255.767          44.625  
G28  20835368.625   109490967.834          51.375                                                                                                    20835369.535    85317527.297          39.875                                                  
G30  23112470.953   121457360.644          45.875                                                    23112476.211    94641953.250          45.188    23112475.848    94641508.247          32.375    23112479.500    90698680.384          50.000  
R03  23949605.586   128203595.260          38.312    23949608.906    99714706.557          36.812  
R04  20598132.804   110301803.724          52.625    20598135.656    85791141.639          48.500  
R05  21003816.383   112277300.693          46.500    21003819.586    87327140.290          46.625  
R06  24775995.125   132209930.459          36.812    24775998.680   102829007.937          27.812  
R13  24256416.500   129527386.589          30.812    24256424.867   100743917.983          36.812  
R14  20941417.367   111629684.729          45.625    20941425.031    86823571.112          41.312  
R15  21044572.102   112455052.772          50.188    21044576.480    87465565.616          45.688  
R16  24632843.836   131584541.005          33.625    24632852.321   102343651.193          31.500  
R17  22551745.359   120255797.374          44.000    22551751.731    93532313.875          33.688  
R23  23525730.664   125846729.532          42.125    23525739.148    97881137.679          32.875  
R24  21908239.047   117153643.429          44.000    21908243.074    91118873.069          39.500  
E11  27031911.945   142052979.140                    27031914.445   106078801.273                    27031911.305   108845864.075                    27031912.883   107462437.280                  
S27  40093847.500   210693949.570          37.500    40093839.199   157336657.398          41.500                                                  
S28  38013933.407   199763914.243          46.000    38013922.105   149174665.594          44.875                                                  
S29  37584762.172   197509081.114          44.500                                                                                                  
S37  37823537.906   198763345.472          43.188                                                                                                  
J01  44119108.843   231847083.079          34.188                                                    44119115.039   180660083.153          35.125                                                    44119121.726   173132273.477          40.375  
C01  37532353.336   195441047.382          43.312    37532338.426   158811588.235          45.812    37532342.391   151127158.914          46.188  
C02  38185860.797   198843392.482          37.688    38185851.515   161576826.295          43.188    38185854.715   153758606.096          42.375  
C03  36982879.570   192580038.791          43.500    36982867.360   156486450.266          47.875    36982872.375   148914525.991          46.875  
C04  38769274.774   201881024.593          38.375    38769261.679   164045421.219          42.500    38769266.875   156107194.462          41.688  
C05  39747259.375   206973965.643          36.312    39747250.270   168183308.397          38.875    39747254.996   160045408.063          39.188  
C06  39287117.101   204578362.182          40.312    39287103.598   166236702.852          40.812    39287111.371   158192990.610          41.812  
C07  36418067.609   189638137.658          50.188    36418052.289   154096734.665          49.688    36418060.004   146640018.163          48.875  
C08  39655741.719   206497816.327          39.375    39655728.625   167795858.153          40.625    39655736.106   159676707.436          40.625  
C09  37680250.938   196210645.081          45.375    37680238.610   159437881.875          46.188    37680246.734   151723145.300          44.875  
C10  36779607.601   191521497.488          47.188    36779595.801   155627181.351          47.312    36779604.160   148096843.523          47.125  
> 2015 07 13 12 00 50.0000000  0 37
G05  23352121.203   122715579.362          44.812                                                    23352125.992    95623540.351          42.812    23352125.863    95623490.341          30.875                                                  
G07  25752184.797   135328481.555          37.625                                                    25752189.762   105450732.333          34.312    25752189.691   105451353.309          19.000                                                  
G12  25749118.648   135313266.963          36.125                                                    25749122.383   105438580.074          32.188    25749122.840   105438498.071          14.812                                                  
G13  20592824.422   108215681.182          50.688                                                                                                    20592825.801    84324006.646          44.125                                                  
G15  22242066.969   116882796.757          47.812                                                    22242070.059    91077533.852          46.375    22242069.988    91077414.863          38.375                                                  
G17  21898243.875   115075419.267          49.625                                                    21898246.672    89669533.045          46.188    21898246.836    89669694.049          38.875                                                  
G20  23401746.875   122977100.134          43.812                                                                                                    23401748.957    95826214.496          27.312                                                  
G24  24975357.265   131247181.793          38.625                                                    24975362.348   102269848.129          39.625    24975362.219   102269409.112          19.625    24975365.871    98008897.864          44.188  
G28  20839033.852   109510228.421          51.688                                                                                                    20839035.055    85332535.551          40.625                                                  
G30  23115398.734   121472752.493          45.375                                                    23115404.226    94653946.896          45.125    23115404.625    94653501.892          32.625    23115408.160    90710174.296          50.000  
R03  23957118.062   128243803.767          39.188    23957120.328    99745979.829          36.688  
R04  20602552.133   110325469.691          53.500    20602554.867    85809548.510          47.875  
R05  21000933.555   112261894.425          46.812    21000938.168    87315157.647          46.688  
R06  24768184.062   132168253.854          38.125    24768187.973   102796592.767          29.375  
R13  24260074.265   129546912.503          30.812    24260080.637   100759104.769          36.688  
R14  20943033.375   111638303.611          45.375    20943041.039    86830274.696          41.188  
R15  21042271.273   112442763.535          50.000    21042276.707    87456007.339          45.000  
R16  24627794.672   131557558.591          35.500    24627801.394   102322664.840          30.500  
R17  22544504.547   120217184.588          43.812    22544510.918    93502281.748          34.312  
R23  23528220.336   125860043.154          42.688    23528227.648    97891492.696          33.375  
R24  21905003.399   117136335.312          44.625    21905005.078    91105411.219          40.625  
E11  27030679.555   142046502.889                    27030681.875   106073965.121                    27030679.156   108840901.757                    27030680.398   107457538.041                  
S27  40093036.813   210689685.197          37.875    40093026.918   157333472.619          41.688                                                  
S28  38013133.422   199759707.813          45.188    38013122.238   149171507.384          44.875                                                  
S29  37583953.531   197504813.927          45.125                                                                                                  
S37  37822734.015   198759153.815          43.688                                                                                                  
J01  44119268.188   231847923.715          33.688                                                    44119274.207   180660738.198          35.000                                                    44119281.012   173132901.231          40.375  
C01  37531540.766   195436817.508          43.312    37531526.207   158808151.125          46.000    37531530.348   151123888.120          46.312  
C02  38185052.508   198839181.351          37.688    38185042.699   161573404.416          43.875    38185045.898   153755349.800          44.125  
C03  36981987.945   192575396.204          43.625    36981976.320   156482677.783          47.875    36981981.336   148910936.053          47.188  
C04  38768470.305   201876832.908          38.312    38768456.742   164042015.147          43.000    38768461.937   156103953.193          41.625  
C05  39746415.695   206969571.858          36.312    39746406.121   168179738.097          39.812    39746411.258   160042010.525          38.312  
C06  39289633.640   204591467.984          40.375    39289620.254   166247352.387          41.688    39289628.086   158203124.852          40.875  
C07  36417460.781   189634978.626          49.500    36417446.106   154094167.693          49.500    36417453.820   146637575.402          48.812  
C08  39651272.094   206474538.773          39.500    39651258.063   167776943.227          40.188    39651265.719   159658707.749          40.375  
C09  37682610.055   196222925.448          46.000    37682596.492   159447860.684          46.500    37682604.266   151732641.271          45.000  
C10  36778774.610   191517162.800          47.312    36778762.926   155623659.068          47.188    36778771.519   148093491.675          46.312  
> 2015 07 13 12 01  0.0000000  0 37
G05  23356568.703   122738945.258          44.500                                                    23356572.321    95641747.537          43.188    23356572.074    95641697.534          30.125                                                  
G07  25755957.867   135348314.046          35.875                                                    25755962.891   105466186.211          33.688    25755963.348   105466807.164          16.875                                                  
G12  25742313.844   135277507.102          35.188                                                    25742317.754   105410715.284          32.625    25742318.211   105410633.287          14.812                                                  
G13  20590580.899   108203889.429          51.188                                                                                                    20590582.629    84314818.271          44.375                                                  
G15  22236185.867   116851891.034          48.625                                                    22236188.723    91053451.482          46.375    22236188.886    91053332.493          38.625                                                  
G17  21892984.406   115047775.412          50.625                                                    21892986.266    89647992.373          47.000    21892986.898    89648153.391          39.188                                                  
G20  23402170.570   122979326.965          44.312                                                                                                    23402172.477    95827949.692          27.000                                                  
G24  24969915.851   131218581.613          38.688                                                    24969919.703   102247562.318          40.688    24969919.398   102247123.307          19.000    24969923.168    97987540.635          44.125  
G28  20842707.133   109529534.211          51.312                                                                                                    20842708.805    85347579.025          39.875                                                  
G30  23118330.680   121488157.873          45.188                                                    23118336.113    94665951.087          44.875    23118336.453    94665506.080          32.125    23118340.281    90721678.312          49.875  
R03  23964626.469   128284011.024          38.125    23964632.840    99777252.103          37.000  
R04  20606984.016   110349205.029          53.000    20606987.688    85828009.328          48.312  
R05  20998068.570   112246578.295          46.000    20998073.418    87303245.108          46.625  
R06  24760380.203   132126613.778          42.375    24760384.933   102764205.981          33.625  
R13  24263730.609   129566434.649          32.812    24263735.926   100774288.679          36.000  
R14  20944651.820   111646933.797          44.500    20944660.422    86836987.058          40.812  
R15  21039975.453   112430494.610          50.312    21039981.238    87446464.850          45.312  
R16  24622745.929   131530590.037          36.312    24622752.652   102301689.340          32.375  
R17  22537268.664   120178603.409          43.812    22537275.508    93472274.218          33.125  
R23  23530725.344   125873434.797          43.875    23530731.012    97901908.395          33.375  
R24  21901780.719   117119106.266          43.688    21901785.332    91092010.860          40.000  
E11  27029455.844   142040073.865                    27029458.516   106069164.230                    27029455.984   108835975.631                    27029457.106   107452674.532                  
S27  40092224.625   210685423.974          38.375    40092216.114   157330290.414          40.312                                                  
S28  38012334.578   199755506.229          45.625    38012323.652   149168352.956          44.688                                                  
S29  37583140.969   197500551.186          44.688                                                                                                  
S37  37821935.031   198754964.046          43.312                                                                                                  
J01  44119426.078   231848751.364          33.500                                                    44119432.215   180661383.125          35.125                                                    44119438.668   173133519.292          40.188  
C01  37530729.789   195432591.966          43.375    37530714.703   158804717.546          46.000    37530718.902   151120620.684          46.375  
C02  38184244.273   198834974.305          37.812    38184234.582   161569985.856          42.875    38184237.781   153752096.657          42.000  
C03  36981096.969   192570757.789          43.625    36981085.285   156478908.702          47.625    36981090.360   148907349.345          46.312  
C04  38767665.688   201872645.514          38.375    38767652.301   164038612.538          43.000    38767657.320   156100715.233          41.875  
C05  39745572.610   206965182.035          36.125    39745563.446   168176171.018          40.125    39745568.406   160038616.044          37.188  
C06  39292151.289   204604579.146          40.375    39292138.254   166258006.281          41.625    39292145.851   158213263.230          40.625  
C07  36416853.836   189631818.229          48.000    36416838.574   154091599.614          50.312    36416846.289   146635131.589          48.125  
C08  39646802.492   206451265.304          39.312    39646789.164   167758031.622          40.500    39646796.762   159640711.222          39.812  
C09  37684970.945   196235219.749          45.875    37684957.676   159457850.818          46.000    37684966.449   151742148.015          44.875  
C10  36777942.586   191512827.658          47.688    36777930.668   155620136.396          47.125    36777938.910   148090139.459          46.500  
> 2015 07 13 12 01 10.0000000  0 37
G05  23361017.640   122762328.989          44.125                                                    23361021.492    95659968.619          42.875    23361021.656    95659918.624          30.188                                                  
G07  25759734.914   135368147.782          34.812                                                    25759737.418   105481641.085          32.625    25759737.992   105482262.069          15.625                                                  
G12  25735509.750   135241761.124          37.500                                                    25735515.242   105382861.325          35.500    25735515.289   105382779.315          16.312                                                  
G13  20588347.039   108192148.550          51.000                                                                                                    20588348.535    84305669.541          44.375                                                  
G15  22230311.610   116821020.086          47.812                                                    22230314.523    91029396.210          46.875    22230314.277    91029277.216          38.375                                                  
G17  21887733.547   115020180.363          51.000                                                    21887735.816    89626489.759          47.500    21887735.629    89626650.771          39.312                                                  
G20  23402603.516   122981603.052          44.312                                                                                                    23402605.598    95829723.280          27.125                                                  
G24  24964471.844   131189978.732          39.375                                                    24964477.043   102225274.426          39.625    24964477.266   102224835.405          20.125    24964480.449    97966181.399          43.500  
G28  20846388.992   109548881.330          51.125                                                                                                    20846390.605    85362654.698          40.375                                                  
G30  23121263.086   121503573.093          45.875                                                    23121269.926    94677962.944          45.375    23121269.680    94677517.937          32.688    23121273.567    90733189.669          50.188  
R03  23972138.063   128324213.046          37.500    23972142.090    99808520.380          36.000  
R04  20611429.804   110373005.590          53.125    20611432.774    85846520.871          48.188  
R05  20995219.898   112231348.568          46.812    20995224.629    87291399.773          46.375  
R06  24752583.125   132085007.445          35.500    24752588.676   102731845.681          22.500  
R13  24267384.899   129585949.343          32.625    24267390.567   100789466.733          36.812  
R14  20946271.735   111655571.836          43.875    20946280.570    86843705.529          40.500  
R15  21037682.555   112418242.232          50.188    21037688.105    87436935.234          45.625  
R16  24617697.586   131503631.743          35.812    24617705.953   102280721.749          31.875  
R17  22530039.555   120140050.274          44.812    22530046.043    93442288.487          33.375  
R23  23533242.438   125886900.654          44.375    23533248.926    97912381.831          33.312  
R24  21898573.211   117101952.712          43.688    21898576.766    91078669.225          39.812  
E11  27028240.734   142033688.346                    27028243.570   106064395.847                    27028240.805   108831082.854                    27028242.117   107447843.957                  
S27  40091413.156   210681163.958          38.312    40091405.347   157327109.357          41.000                                                  
S28  38011534.422   199751305.356          46.812    38011522.793   149165198.821          44.688                                                  
S29  37582329.281   197496289.097          45.312                                                                                                  
S37  37821138.391   198750776.887          43.875                                                                                                  
J01  44119580.578   231849562.474          34.000                                                    44119586.891   180662015.164          34.812                                                    44119593.285   173134124.993          40.125  
C01  37529918.367   195428367.199          43.312    37529903.164   158801284.582          46.312    37529907.246   151117353.832          46.625  
C02  38183436.648   198830767.654          37.688    38183426.723   161566567.615          43.188    38183429.980   153748843.818          42.625  
C03  36980206.789   192566119.803          43.625    36980194.754   156475139.970          47.688    36980199.711   148903762.965          46.875  
C04  38766861.391   201868458.642          38.188    38766848.594   164035210.369          43.000    38766853.609   156097477.681          42.625  
C05  39744730.539   206960792.504          36.000    39744720.496   168172604.175          39.500    39744725.692   160035221.798          37.188  
C06  39294669.601   204617691.880          39.875    39294656.508   166268661.450          41.375    39294664.519   158223402.823          41.375  
C07  36416245.890   189628652.835          48.000    36416230.863   154089027.467          50.125    36416238.402   146632683.900          48.000  
C08  39642332.242   206427992.230          38.812    39642319.324   167739120.348          40.500    39642326.864   159622715.011          40.500  
C09  37687334.274   196247524.345          46.125    37687320.652   159467849.318          46.188    37687329.133   151751662.710          45.688  
C10  36777109.274   191508488.228          47.000    36777097.180   155616610.266          47.812    36777105.480   148086783.942          46.688  
> 2015 07 13 12 01 20.0000000  0 37
G05  23365470.945   122785733.211          44.625                                                    23365475.149    95678205.679          42.875    23365475.723    95678155.677          30.375                                                  
G07  25763508.453   135387985.744          33.688                                                    25763512.715   105497099.191          28.875    25763512.820   105497720.123          15.625                                                  
G12  25728711.422   135206031.707          35.688                                                    25728717.090   105355020.325          33.875    25728716.785   105354938.283          16.312                                                  
G13  20586122.773   108180461.419          51.500                                                                                                    20586124.211    84296562.683          44.312                                                  
G15  22224444.000   116790186.832          49.500                                                    22224447.265    91005370.306          46.312    22224446.961    91005251.311          38.688                                                  
G17  21882491.914   114992637.017          50.688                                                    21882495.649    89605027.420          48.125    21882494.992    89605188.424          39.875                                                  
G20  23403046.601   122983931.155          43.625                                                                                                    23403048.859    95831537.385          27.188                                                  
G24  24959028.766   131161375.609          36.188                                                    24959032.969   102202986.381          38.688    24959034.012   102202547.359          19.625    24959037.840    97944822.016          43.875  
G28  20850078.945   109568272.503          51.000                                                                                                    20850080.617    85377764.705          40.312                                                  
G30  23124200.726   121519000.935          45.312                                                    23124205.867    94689984.629          45.188    23124205.504    94689539.616          32.625    23124209.508    90744710.450          50.312  
R03  23979646.617   128364412.344          38.125    23979651.699    99839786.515          37.375  
R04  20615886.906   110396874.272          53.188    20615889.289    85865085.402          48.625  
R05  20992387.156   112216208.115          46.312    20992391.769    87279623.862          46.625  
R06  24744794.687   132043437.365          39.188    24744798.715   102699513.346          28.125  
R13  24271038.148   129605459.409          32.375    24271043.230   100804641.198          35.688  
R14  20947895.390   111664220.423          44.875    20947903.406    86850432.210          40.688  
R15  21035394.172   112406009.085          50.000    21035399.137    87427420.574          46.000  
R16  24612653.016   131476686.387          32.000    24612662.438   102259764.240          31.375  
R17  22522815.930   120101528.544          43.875    22522821.949    93412327.196          33.625  
R23  23535773.977   125900443.339          43.875    23535780.230    97922915.041          33.812  
R24  21895381.149   117084877.498          43.875    21895384.000    91065388.502          39.188  
E11  27027034.570   142027349.192                    27027037.321   106059662.072                    27027034.414   108826225.580                    27027035.668   107443048.428                  
S27  40090603.422   210676906.948          38.125    40090594.769   157323930.493          40.875                                                  
S28  38010735.125   199747106.830          45.000    38010723.754   149162046.585          44.688                                                  
S29  37581518.313   197492027.971          45.625                                                                                                  
S37  37820345.156   198746590.253          43.188                                                                                                  
J01  44119732.875   231850359.667          34.188                                                    44119738.309   180662636.348          34.375                                                    44119744.879   173134720.307          40.500  
C01  37529107.758   195424145.880          43.375    37529092.848   158797854.412          46.188    37529097.106   151114089.640          46.312  
C02  38182629.586   198826564.185          37.625    38182619.660   161563151.964          43.375    38182622.801   153745593.440          43.312  
C03  36979316.711   192561485.064          43.625    36979304.852   156471373.857          47.500    36979309.750   148900179.096          46.688  
C04  38766057.422   201864275.047          38.312    38766044.859   164031810.852          42.812    38766049.992   156094242.670          41.625  
C05  39743886.719   206956406.042          36.125    39743877.965   168169039.829          39.875    39743883.277   160031829.928          38.688  
C06  39297188.734   204630808.987          39.688    39297175.641   166279320.165          40.688    39297183.180   158233545.805          41.500  
C07  36415637.531   189625485.128          49.312    36415622.387   154086453.452          49.688    36415630.102   146630234.434          47.625  
C08  39637864.024   206404722.384          38.812    39637850.578   167720211.688          40.500    39637858.469   159604721.294          40.500  
C09  37689698.258   196259841.929          45.875    37689685.871   159477858.378          46.375    37689694.172   151761187.471          45.312  
C10  36776275.609   191504147.366          46.875    36776263.574   155613082.963          47.500    36776272.051   148083427.328          46.188  
> 2015 07 13 12 01 30.0000000  0 37
G05  23369929.383   122809159.198          44.625                                                    23369933.117    95696459.678          42.625    23369933.106    95696409.685          30.875                                                  
G07  25767284.226   135407829.548          33.500                                                    25767287.785   105512561.954          28.500    25767288.594   105513182.846          13.875                                                  
G12  25721915.336   135170320.482          32.000                                                    25721921.356   105327193.492          33.625    25721921.227   105327111.473          14.812                                                  
G13  20583909.071   108168829.616          51.125                                                                                                    20583910.566    84287498.948          44.500                                                  
G15  22218583.836   116759392.910          48.000                                                    22218586.574    90981375.050          46.312    22218586.504    90981256.058          38.125                                                  
G17  21877259.602   114965146.974          49.812                                                    21877264.097    89583606.648          47.188    21877263.676    89583767.637          38.875                                                  
G20  23403500.360   122986312.582          44.375                                                                                                    23403501.856    95833393.037          27.000                                                  
G24  24953585.805   131132773.935          36.375                                                    24953591.238   102180699.359          41.125    24953591.168   102180260.352          18.625    24953594.703    97923463.664          43.688  
G28  20853777.281   109587709.170          50.875                                                                                                    20853779.012    85392910.154          40.125                                                  
G30  23127139.172   121534442.942          46.125                                                    23127144.019    94702017.357          44.875    23127144.359    94701572.349          32.812    23127148.188    90756241.821          50.312  
R03  23987157.195   128404610.630          38.875    23987160.988    99871051.788          36.375  
R04  20620356.453   110420812.288          53.125    20620358.836    85883703.860          48.312  
R05  20989572.617   112201158.775          47.188    20989576.410    87267918.830          47.000  
R06  24737011.562   132001905.292          40.188    24737014.297   102667210.689          31.625  
R13  24274691.953   129624966.298          32.812    24274696.918   100819813.252          35.812  
R14  20949519.313   111672881.037          44.375    20949528.383    86857168.235          40.375  
R15  21033108.297   112393796.366          49.875    21033113.848    87417921.805          45.375  
R16  24607614.164   131449755.324          35.875    24607619.832   102238817.858          31.312  
R17  22515598.961   120063038.760          45.312    22515603.457    93382390.748          33.812  
R23  23538321.422   125914064.129          44.625    23538326.387    97933508.987          32.375  
R24  21892201.852   117067882.403          43.812    21892205.172    91052170.121          39.312  
E11  27025837.234   142021057.870                    27025840.078   106054964.008                    27025837.359   108821404.962                    27025838.570   107438289.094                  
S27  40089793.281   210672654.506          37.500    40089786.387   157320754.802          40.625                                                  
S28  38009936.812   199742913.950          46.188    38009926.496   149159096.596          44.875                                                  
S29  37580709.297   197487773.354          44.688                                                                                                  
S37  37819548.313   198742410.115          43.375                                                                                                  
J01  44119880.516   231851144.497          33.375                                                    44119887.355   180663247.911          34.812                                                    44119894.453   173135306.384          40.125  
C01  37528298.242   195419929.524          43.375    37528283.273   158794428.280          46.500    37528287.238   151110829.289          46.500  
C02  38181822.906   198822365.224          37.875    38181813.508   161559739.971          43.500    38181816.707   153742346.549          44.000  
C03  36978427.196   192556855.017          43.625    36978415.395   156467611.562          48.312    36978420.586   148896598.852          47.188  
C04  38765255.640   201860096.223          38.312    38765242.547   164028415.227          42.375    38765247.508   156091011.342          41.312  
C05  39743046.000   206952024.066          36.312    39743036.484   168165479.124          39.875    39743041.562   160028441.516          39.188  
C06  39299708.500   204643931.988          40.125    39299695.703   166289983.685          41.375    39299703.418   158243693.341          41.000  
C07  36415028.789   189622316.635          49.500    36415014.055   154083878.794          50.188    36415021.476   146627784.356          48.188  
C08  39633395.523   206381457.167          39.188    39633383.488   167701306.804          41.125    39633390.617   159586731.167          40.312  
C09  37692066.336   196272173.973          45.812    37692054.535   159487879.170          46.000    37692063.012   151770723.376          45.500  
C10  36775441.696   191499806.426          46.625    36775430.070   155609555.592          47.375    36775438.371   148080070.640          46.312  
> 2015 07 13 12 01 40.0000000  0 37
G05  23374390.695   122832600.791          44.625                                                    23374393.844    95714725.864          43.000    23374394.067    95714675.857          31.000                                                  
G07  25771062.867   135427672.870          32.625                                                    25771064.316   105528024.217          32.688    25771063.894   105528645.252          16.312                                                  
G12  25715122.133   135134621.494          36.125                                                    25715127.566   105299376.177          33.875    25715127.731   105299294.106          16.312                                                  
G13  20581705.070   108157247.128          50.500                                                                                                    20581706.918    84278473.637          44.875                                                  
G15  22212730.187   116728632.307          47.688                                                    22212732.867    90957405.759          46.375    22212732.973    90957286.763          38.188                                                  
G17  21872038.570   114937704.401          50.188                                                    21872041.074    89562222.828          46.375    21872041.473    89562383.825          39.188                                                  
G20  23403962.703   122988741.342          43.625                                                                                                    23403964.609    95835285.585          26.688                                                  
G24  24948142.477   131104167.695          38.625                                                    24948147.441   102158408.830          40.312    24948147.488   102157969.834          19.625    24948151.199    97902101.919          43.875  
G28  20857483.797   109607185.140          51.000                                                                                                    20857485.117    85408086.233          40.375                                                  
G30  23130078.352   121549893.087          45.375                                                    23130083.961    94714056.436          44.625    23130084.008    94713611.418          31.625    23130088.246    90767779.262          50.188  
R03  23994665.555   128444801.622          38.125    23994668.406    99902311.448          37.000  
R04  20624838.797   110444813.575          52.688    20624841.180    85902371.515          47.188  
R05  20986773.398   112186194.022          47.312    20986776.484    87256279.586          46.688  
R06  24729233.727   131960405.126          37.125    24729237.398   102634932.997          25.688  
R13  24278343.344   129644464.226          33.000    24278349.012   100834978.272          35.312  
R14  20951145.476   111681547.455          44.375    20951154.313    86863908.797          40.812  
R15  21030825.883   112381598.513          49.875    21030831.199    87408434.584          45.688  
R16  24602573.430   131422832.661          36.625    24602579.918   102217877.988          30.125  
R17  22508383.406   120024575.652          44.000    22508390.012    93352475.041          33.688  
R23  23540880.391   125927757.052          45.812    23540885.590    97944159.051          32.688  
R24  21889038.227   117050961.255          43.375    21889041.430    91039009.236          38.875  
E11  27024648.297   142014808.413                    27024650.515   106050297.221                    27024647.797   108816616.427                    27024649.109   107433561.433                  
S27  40088984.594   210668401.064          37.812    40088976.598   157317578.516          40.625                                                  
S28  38009139.469   199738719.118          46.000    38009127.770   149155947.257          44.625                                                  
S29  37579900.781   197483517.881          44.875                                                                                                  
S37  37818752.219   198738226.536          43.312                                                                                                  
J01  44120027.984   231851911.050          34.625                                                    44120033.653   180663845.235          34.875                                                    44120040.516   173135878.816          40.312  
C01  37527488.281   195415712.209          43.375    37527473.430   158791001.370          46.312    37527477.394   151107568.196          46.500  
C02  38181016.781   198818165.025          37.688    38181006.679   161556326.980          44.000    38181010.054   153739098.697          44.500  
C03  36977537.820   192552223.725          43.625    36977526.195   156463848.271          47.188    36977531.152   148893017.647          46.688  
C04  38764452.766   201855916.240          38.375    38764439.613   164025018.653          42.312    38764444.457   156087779.116          41.000  
C05  39742203.953   206947640.740          36.688    39742194.730   168161917.322          39.625    39742199.867   160025052.066          39.000  
C06  39302229.648   204657054.857          40.875    39302215.734   166300647.081          40.875    39302223.508   158253840.774          40.812  
C07  36414419.281   189619141.411          49.312    36414404.488   154081298.667          49.812    36414412.086   146625329.073          48.625  
C08  39628927.305   206358190.779          39.188    39628915.445   167682400.968          40.375    39628922.516   159568740.132          39.500  
C09  37694436.641   196284514.555          45.812    37694424.430   159497906.905          46.312    37694432.731   151780265.898          45.125  
C10  36774607.586   191495459.639          47.125    36774594.965   155606023.482          47.625    36774603.090   148076709.436          46.688  
> 2015 07 13 12 01 50.0000000  0 37
G05  23378853.438   122856056.614          43.875                                                    23378857.758    95733003.119          43.000    23378857.629    95732953.125          30.000                                                  
G07  25774836.164   135447514.375          34.312                                                    25774840.426   105543485.127          31.000                                                                                                  
G12  25708331.602   135098933.475          36.812                                                    25708336.098   105271567.402          33.875    25708336.438   105271485.348          16.312                                                  
G13  20579510.469   108145712.637          51.125                                                                                                    20579511.672    84269485.720          45.125                                                  
G15  22206883.289   116697903.754          48.125                                                    22206885.558    90933461.442          46.312    22206885.781    90933342.440          38.375                                                  
G17  21866826.133   114910307.990          51.312                                                    21866826.820    89540874.985          46.625    21866827.512    89541035.995          40.375                                                  
G20  23404432.844   122991216.018          43.375                                                                                                    23404435.043    95837213.915          27.625                                                  
G24  24942696.758   131075555.421          38.312                                                    24942703.305   102136113.626          41.625    24942702.707   102135674.588          20.375    24942706.125    97880735.680          44.625  
G28  20861197.235   109626699.002          51.188                                                                                                    20861198.789    85423291.837          40.500                                                  
G30  23133020.227   121565350.006          45.688                                                    23133024.898    94726100.764          45.000    23133024.887    94725655.761          32.688    23133029.184    90779321.754          50.500  
R03  24002171.399   128484983.401          38.500    24002175.426    99933563.971          37.000  
R04  20629333.437   110468876.403          53.500    20629334.765    85921087.054          47.812  
R05  20983989.008   112171312.880          47.000    20983993.269    87244705.370          46.688  
R06  24721460.148   131918935.817          37.125    24721466.871   102602679.046          26.500  
R13  24281991.156   129663951.482          33.125    24281998.234   100850135.023          37.812  
R14  20952771.359   111690218.336          44.312    20952780.781    86870652.810          40.500  
R15  21028544.992   112369413.966          49.875    21028551.363    87398957.728          46.000  
R16  24597533.992   131395916.838          38.375    24597540.715   102196943.439          31.875  
R17  22501175.211   119986138.447          43.500    22501181.934    93322579.476          34.125  
R23  23543453.539   125941520.535          44.875    23543459.090    97954863.988          32.375  
R24  21885886.969   117034112.825          44.625    21885889.938    91025904.914          39.125  
E11  27023466.672   142008599.502                    27023468.969   106045660.704                    27023466.203   108811858.960                    27023467.617   107428864.438                  
S27  40088176.031   210664143.914          38.188    40088166.770   157314399.434          40.812                                                  
S28  38008340.641   199734521.042          45.812    38008329.410   149152794.953          44.812                                                  
S29  37579088.078   197479257.583          44.875                                                                                                  
S37  37817954.578   198734044.355          43.125                                                                                                  
J01  44120172.094   231852657.814          34.500                                                    44120176.297   180664427.146          35.125                                                    44120182.985   173136436.488          40.375  
C01  37526677.516   195411492.501          43.375    37526662.899   158787572.520          46.625    37526667.039   151104305.260          46.312  
C02  38180208.492   198813962.138          37.688    38180199.387   161552911.755          43.188    38180202.293   153735848.770          43.500  
C03  36976648.062   192547589.795          43.500    36976636.203   156460082.824          47.312    36976641.277   148889434.406          47.500  
C04  38763649.696   201851733.732          38.625    38763636.957   164021620.029          42.812    38763642.149   156084544.946          41.812  
C05  39741362.414   206943254.601          36.125    39741352.723   168158353.236          39.875    39741357.508   160021660.434          38.688  
C06  39304749.031   204670176.194          40.500    39304735.879   166311309.252          41.125    39304743.711   158263987.027          41.125  
C07  36413807.765   189615958.073          49.125    36413793.266   154078711.943          50.000    36413800.629   146622867.517          48.500  
C08  39624459.656   206334921.750          39.375    39624446.445   167663492.972          41.312    39624453.574   159550747.035          40.188  
C09  37696807.883   196296862.243          45.375    37696795.848   159507940.407          46.312    37696804.324   151789813.915          46.000  
C10  36773771.539   191491105.480          47.500    36773758.860   155602485.375          47.312    36773767.336   148073342.525          46.812  
> 2015 07 13 12 02  0.0000000  0 37
G05  23383320.398   122879530.368          43.875                                                    23383323.371    95751294.352          42.188    23383323.945    95751244.351          29.625                                                  
G07  25778612.297   135467358.291          34.312                                                    25778616.734   105558947.835          33.625                                                                                                  
G12  25701543.234   135063260.188          36.625                                                    25701547.320   105243770.112          33.375    25701547.426   105243688.116          15.625                                                  
G13  20577325.031   108134230.203          51.125                                                                                                    20577326.527    84260538.379          44.625                                                  
G15  22201042.320   116667211.311          48.125                                                    22201045.117    90909545.265          46.312    22201044.930    90909426.262          38.312                                                  
G17  21861621.516   114882961.781          50.375                                                    21861623.668    89519566.243          46.875    21861623.949    89519727.255          39.500                                                  
G20  23404913.875   122993740.548          43.875                                                                                                    23404915.664    95839181.073          27.125                                                  
G24  24937252.055   131046941.433          39.125                                                    24937257.840   102113817.073          41.125    24937258.179   102113378.050          20.125    24937261.656    97859368.156          44.625  
G28  20864919.156   109646254.543          51.000                                                                                                    20864919.832    85438529.927          40.312                                                  
G30  23135963.367   121580817.574          46.188                                                    23135968.215    94738153.425          44.625    23135968.262    94737708.410          31.875    23135972.441    90790872.212          50.375  
R03  24009672.234   128525160.188          34.188    24009680.016    99964812.571          36.500  
R04  20633838.890   110493004.715          53.188    20633841.039    85939853.524          48.188  
R05  20981221.438   112156519.230          47.000    20981225.816    87233199.202          46.625  
R06  24713697.695   131877501.335          40.875    24713701.723   102570452.105          30.875  
R13  24285641.930   129683432.336          32.875    24285645.957   100865286.767          36.375  
R14  20954399.203   111698897.651          43.625    20954408.274    86877403.385          40.875  
R15  21026268.094   112357246.346          49.812    21026273.879    87389494.021          45.812  
R16  24592496.672   131369011.994          37.312    24592505.039   102176017.468          34.188  
R17  22493974.422   119947731.215          44.312    22493979.621    93292707.228          34.625  
R23  23546039.656   125955358.644          44.625    23546045.676    97965626.950          33.375  
R24  21882751.180   117017341.223          44.312    21882753.680    91012860.339          39.312  
E11  27022293.969   142002434.982                    27022296.367   106041057.330                    27022293.274   108807135.498                    27022294.609   107424201.024                  
S27  40087365.344   210659889.049          37.312    40087356.480   157311222.157          40.188                                                  
S28  38007541.312   199730324.753          46.375    38007530.856   149149644.431          44.875                                                  
S29  37578276.500   197474999.707          45.188                                                                                                  
S37  37817163.547   198729860.906          43.375                                                                                                  
J01  44120310.125   231853388.736          34.500                                                    44120314.445   180664996.704          34.312                                                    44120321.718   173136982.311          40.375  
C01  37525867.719   195407274.351          43.375    37525852.633   158784144.930          46.125    37525856.949   151101043.524          46.875  
C02  38179402.352   198809760.506          38.000    38179392.660   161549497.602          43.312    38179395.801   153732599.819          43.812  
C03  36975758.242   192542957.141          43.500    36975746.734   156456318.425          47.625    36975751.750   148885852.154          47.000  
C04  38762846.539   201847552.531          38.312    38762833.680   164018222.457          42.625    38762838.699   156081311.776          41.688  
C05  39740519.774   206938869.560          36.188    39740510.492   168154790.049          39.625    39740515.512   160018269.659          38.312  
C06  39307269.484   204683299.792          39.875    39307256.098   166321973.251          41.875    39307263.813   158274135.031          41.125  
C07  36413195.930   189612770.485          48.500    36413181.137   154076121.766          50.500    36413188.676   146620402.672          48.812  
C08  39619991.125   206311654.238          39.625    39619977.738   167644586.220          40.875    39619984.164   159532755.113          39.500  
C09  37699181.867   196309220.909          46.312    37699169.008   159517982.844          45.812    37699177.078   151799370.416          45.188  
C10  36772934.086   191486747.841          46.312    36772922.226   155598944.432          47.812    36772930.410   148069972.927          46.625  
> 2015 07 13 12 02 10.0000000  0 37
G05  23387791.899   122903023.247          43.875                                                    23387794.578    95769600.486          42.625    23387794.683    95769550.483          31.125                                                  
G07  25782389.680   135487205.553          38.812                                                    25782393.004   105574413.205          34.375    25782393.754   105574866.195          18.312                                                  
G12  25694757.398   135027603.021          37.812                                                    25694762.422   105215985.386          35.500    25694762.293   105215903.383          17.812                                                  
G13  20575150.375   108122801.131          50.375                                                                                                    20575151.871    84251632.604          44.312                                                  
G15  22195208.906   116636556.359          47.812                                                    22195211.586    90885658.295          46.125    22195211.340    90885539.299          38.188                                                  
G17  21856427.211   114855667.122          50.312                                                    21856430.184    89498297.701          46.812    21856430.172    89498458.713          39.812                                                  
G20  23405404.367   122996316.069          44.500                                                                                                    23405406.332    95841187.979          27.000                                                  
G24  24931807.781   131018326.612          39.500                                                    24931811.984   102091519.845          40.000    24931812.793   102091080.836          19.875    24931816.387    97838000.000          44.375  
G28  20868647.992   109665852.864          51.125                                                                                                    20868648.551    85453801.350          39.500                                                  
G30  23138908.805   121596297.172          45.625                                                    23138914.121    94750215.446          44.188    23138914.168    94749770.437          31.812    23138918.172    90802431.652          50.375  
R03  24017180.727   128565333.205          38.000    24017185.691    99996058.238          37.125  
R04  20638356.008   110517199.649          52.812    20638359.801    85958671.800          48.312  
R05  20978471.555   112141814.404          47.125    20978474.992    87221762.121          47.312  
R06  24705940.281   131836102.916          40.125    24705943.484   102538253.365          28.312  
R13  24289289.063   129702907.935          33.688    24289292.148   100880434.431          36.000  
R14  20956029.164   111707586.711          43.688    20956038.586    86884161.545          41.500  
R15  21023994.649   112345097.151          48.812    21024001.019    87380044.656          45.875  
R16  24587462.649   131342119.179          37.125    24587469.844   102155100.800          30.375  
R17  22486774.969   119909355.060          43.375    22486783.101    93262859.153          34.188  
R23  23548640.234   125969272.326          45.125    23548647.078    97976448.698          32.812  
R24  21879628.984   117000647.935          44.000    21879632.657    90999876.693          39.375  
E11  27021129.766   141996316.304                    27021132.047   106036488.197                    27021128.625   108802447.165                    27021130.195   107419572.290                  
S27  40086555.906   210655635.886          37.875    40086547.817   157308046.106          40.812                                                  
S28  38006743.781   199726131.087          46.625    38006733.160   149146496.383          44.875                                                  
S29  37577468.797   197470744.956          45.688                                                                                                  
S37  37816367.640   198725680.155          44.125                                                                                                  
J01  44120445.203   231854105.065          33.500                                                    44120451.516   180665554.892          35.188                                                    44120458.965   173137517.244          40.188  
C01  37525058.039   195403058.988          43.375    37525043.070   158780719.605          46.500    37525047.562   151097783.949          46.375  
C02  38178596.328   198805561.388          37.812    38178586.285   161546085.485          43.375    38178589.543   153729352.806          44.125  
C03  36974869.031   192538327.039          43.375    36974857.406   156452556.088          47.688    36974862.363   148882271.866          47.125  
C04  38762043.805   201843373.996          38.312    38762031.184   164014827.063          43.000    38762036.199   156078080.679          42.125  
C05  39739678.109   206934486.928          36.125    39739668.769   168151228.806          39.688    39739673.789   160014880.745          39.000  
C06  39309790.500   204696426.990          40.375    39309776.879   166332640.164          41.375    39309784.594   158284285.809          41.125  
C07  36412583.000   189609579.963          50.312    36412568.500   154073529.207          50.500    36412576.039   146617935.563          48.500  
C08  39615523.102   206288389.295          39.625    39615510.363   167625681.544          41.000    39615517.547   159514765.187          40.375  
C09  37701558.219   196321591.815          46.375    37701544.598   159528035.235          45.500    37701552.312   151808936.406          44.688  
C10  36772097.086   191482388.109          47.000    36772085.226   155595401.799          47.875    36772093.586   148066601.715          47.312  
> 2015 07 13 12 02 20.0000000  0 37
G05  23392265.664   122926530.419          44.312                                                    23392268.989    95787917.758          42.500    23392268.742    95787867.763          31.000                                                  
G07  25786165.484   135507051.691          37.688                                                    25786170.274   105589877.734          35.188    25786170.203   105590330.710          16.875                                                  
G12  25687974.539   134991957.179          35.812                                                    25687979.153   105188209.483          34.500    25687978.672   105188127.471          16.312                                                  
G13  20572984.899   108111420.756          50.812                                                                                                    20572986.453    84242764.783          44.125                                                  
G15  22189381.594   116605934.247          47.688                                                    22189384.156    90861796.920          46.000    22189384.437    90861677.924          38.312                                                  
G17  21851241.726   114828419.411          50.000                                                    21851245.285    89477065.739          47.625    21851244.981    89477226.742          39.312                                                  
G20  23405903.164   122998937.767          43.812                                                                                                    23405904.836    95843230.857          26.000                                                  
G24  24926360.555   130989706.316          38.500                                                    24926365.637   102069218.386          40.500    24926366.504   102068779.357          19.625    24926369.278    97816627.747          43.812  
G28  20872385.101   109685489.215          50.688                                                                                                    20872386.246    85469102.404          40.188                                                  
G30  23141856.281   121611783.998          45.812                                                    23141860.543    94762283.092          44.500    23141860.590    94761838.082          32.125    23141864.828    90813996.473          50.500  
R03  24024680.109   128605497.264          34.375    24024688.711   100027296.948          37.812  
R04  20642886.821   110541456.104          53.000    20642887.797    85977537.922          47.500  
R05  20975735.305   112127193.676          46.312    20975739.684    87210390.442          47.125  
R06  24698186.219   131794736.133          37.312    24698191.066   102506079.210          24.812  
R13  24292931.867   129722373.503          33.500    24292938.473   100895574.329          36.312  
R14  20957660.844   111716280.450          43.875    20957669.680    86890923.342          41.000  
R15  21021723.969   112332961.562          50.188    21021729.871    87370605.872          45.875  
R16  24582430.789   131315233.669          37.812    24582437.750   102134189.841          33.125  
R17  22479585.859   119871005.684          44.188    22479591.059    93233031.913          33.812  
R23  23551255.359   125983256.973          43.812    23551261.613    97987325.624          32.312  
R24  21876521.922   116984028.061          44.312    21876523.836    90986950.139          39.000  
E11  27019973.117   141990238.584                    27019975.625   106031949.650                    27019972.016   108797790.215                    27019973.699   107414974.538                  
S27  40085745.375   210651381.640          37.500    40085737.543   157304869.098          40.312                                                  
S28  38005946.188   199721934.867          46.312    38005934.066   149143345.844          44.625                                                  
S29  37576657.265   197466487.995          45.188                                                                                                  
S37  37815569.578   198721495.611          43.312                                                                                                  
J01  44120577.641   231854802.141          34.000                                                    44120584.188   180666098.081          35.125                                                    44120591.285   173138037.806          40.812  
C01  37524248.336   195398841.738          43.500    37524233.191   158777292.744          46.688    37524237.332   151094522.905          45.000  
C02  38177789.515   198801359.933          37.625    38177779.531   161542671.463          43.000    38177782.555   153726103.985          43.625  
C03  36973979.313   192533694.813          43.500    36973967.805   156448792.023          47.812    36973972.879   148878689.938          46.375  
C04  38761240.742   201839193.284          38.000    38761228.238   164011429.892          42.812    38761233.196   156074847.888          42.375  
C05  39738835.844   206930101.916          36.312    39738826.563   168147665.638          39.875    39738831.348   160011489.989          38.812  
C06  39312311.164   204709553.045          39.688    39312297.309   166343306.165          41.125    39312305.082   158294435.721          40.812  
C07  36411969.133   189606381.823          50.312    36411953.695   154070930.463          50.188    36411961.293   146615462.559          48.688  
C08  39611054.352   206265122.247          38.125    39611042.141   167606775.186          40.375    39611049.387   159496773.655          39.625  
C09  37703934.242   196333970.235          46.312    37703921.563   159538093.717          46.312    37703929.805   151818508.192          45.375  
C10  36771258.407   191478021.507          47.000    36771245.961   155591853.579          48.000    36771254.379   148063225.183          46.875  
> 2015 07 13 12 02 30.0000000  0 37
G05  23396740.203   122950051.056          44.125                                                    23396743.645    95806245.521          42.625    23396743.691    95806195.522          29.375                                                  
G07  25789942.250   135526895.927          38.812                                                    25789946.277   105605340.741          35.500    25789946.793   105605793.724          19.000                                                  
G12  25681193.352   134956322.094          34.375                                                    25681196.910   105160441.983          31.812    25681197.308   105160360.031          14.812                                                  
G13  20570828.086   108100088.400          50.312                                                                                                    20570829.524    84233934.387          44.312                                                  
G15  22183561.125   116575344.376          48.000                                                    22183563.219    90837960.665          46.000    22183563.383    90837841.669          38.312                                                  
G17  21846066.172   114801218.036          50.125                                                    21846068.559    89455869.903          47.125    21846068.430    89456030.899          39.812                                                  
G20  23406409.992   123001604.871          44.312                                                                                                    23406412.074    95845309.130          27.125                                                  
G24  24920913.930   130961079.784          39.125                                                    24920918.191   102046912.050          40.188    24920918.824   102046473.043          19.875    24920922.711    97795250.857          44.500  
G28  20876128.429   109705162.811          50.375                                                                                                    20876129.809    85484432.486          40.125                                                  
G30  23144804.109   121627277.404          45.812                                                    23144809.191    94774355.881          44.375    23144809.238    94773910.870          31.812    23144813.359    90825566.230          50.500  
R03  24032185.273   128645651.528          38.375    24032188.594   100058528.021          36.188  
R04  20647427.789   110565773.331          53.312    20647429.820    85996451.326          47.500  
R05  20973015.211   112112656.467          47.000    20973019.941    87199083.733          46.375  
R06  24690440.461   131753400.627          39.125    24690445.308   102473929.342          29.875  
R13  24296574.688   129741828.381          31.312    24296582.117   100910705.862          36.688  
R14  20959292.633   111724978.510          44.375    20959301.000    86897688.498          40.875  
R15  21019455.719   112320839.124          49.812    21019460.918    87361177.303          45.688  
R16  24577399.531   131288354.706          36.500    24577405.434   102113283.991          33.312  
R17  22472397.297   119832682.507          43.688    22472403.551    93203225.013          33.625  
R23  23553882.133   125997311.624          43.375    23553888.621    97998257.040          33.000  
R24  21873426.547   116967481.029          44.375    21873428.930    90974080.228          39.125  
E11  27018824.297   141984201.297                    27018826.656   106027441.291                    27018823.656   108793164.250                    27018825.008   107410407.377                  
S27  40084932.781   210647123.609          38.125    40084927.293   157301689.945          40.812                                                  
S28  38005145.797   199717736.440          46.312    38005134.777   149140193.771          44.875                                                  
S29  37575846.063   197462227.233          44.688                                                                                                  
S37  37814774.250   198717310.566          42.500                                                                                                  
J01  44120706.688   231855479.226          32.812                                                    44120712.414   180666625.688          35.188                                                    44120719.395   173138543.435          40.625  
C01  37523438.234   195394621.874          43.312    37523422.973   158773863.775          46.375    37523426.996   151091259.851          45.875  
C02  38176981.469   198797155.634          37.625    38176972.129   161539255.138          43.125    38176975.445   153722852.967          43.688  
C03  36973089.234   192529059.719          43.500    36973077.668   156445025.633          47.812    36973082.801   148875105.801          46.312  
C04  38760437.438   201835009.898          38.125    38760424.934   164008030.553          42.875    38760429.891   156071613.032          42.000  
C05  39737993.203   206925713.959          36.312    39737983.805   168144100.079          40.000    39737988.942   160008096.965          39.188  
C06  39314831.070   204722677.342          39.312    39314818.508   166353970.728          41.312    39314826.574   158304584.247          41.500  
C07  36411353.227   189603175.317          50.500    36411338.024   154068324.914          50.125    36411345.680   146612983.084          48.688  
C08  39606585.812   206241852.416          39.000    39606573.191   167587866.541          40.812    39606580.731   159478779.935          40.375  
C09  37706312.922   196346355.450          46.188    37706300.242   159548157.718          45.812    37706308.191   151828085.233          44.312  
C10  36770418.828   191473647.281          47.812    36770406.383   155588299.172          47.375    36770414.684   148059842.763          47.625  
> 2015 07 13 12 02 40.0000000  0 37
G05  23401219.563   122973589.152          44.125                                                    23401222.594    95824586.900          42.312    23401222.465    95824536.890          30.188                                                  
G07  25793717.937   135546742.149          37.375                                                    25793723.313   105620805.340          35.375    25793723.594   105621258.308          18.625                                                  
G12  25674415.437   134920701.882          37.312                                                    25674419.289   105132685.993          33.812    25674419.336   105132603.974          16.312                                                  
G13  20568681.680   108088808.294          50.375                                                                                                    20568683.000    84225144.693          44.188                                                  
G15  22177745.906   116544790.976          48.375                                                    22177748.762    90814152.834          45.875    22177748.457    90814033.832          37.875                                                  
G17  21840899.961   114774067.223          50.875                                                    21840901.293    89434713.428          46.375    21840901.808    89434874.423          39.875                                                  
G20  23406927.164   123004321.521          43.188                                                                                                    23406928.953    95847426.003          27.812                                                  
G24  24915464.102   130932451.179          38.500                                                    24915470.942   102024604.071          39.688    24915470.930   102024165.057          20.125    24915474.524    97773872.377          45.000  
G28  20879880.102   109724877.667          50.188                                                                                                    20879881.305    85499794.710          39.812                                                  
G30  23147755.312   121642781.530          46.125                                                    23147759.867    94786437.014          44.125    23147759.856    94785991.997          31.875    23147763.859    90837143.977          50.688  
R03  24039681.687   128685800.004          34.312    24039690.289   100089754.645          38.188  
R04  20651979.797   110590155.499          52.688    20651983.234    86015415.244          47.875  
R05  20970312.508   112098206.832          46.375    20970317.590    87187845.137          46.375  
R06  24682701.985   131712100.638          38.875    24682705.539   102441807.077          30.312  
R13  24300218.438   129761276.688          32.625    24300224.574   100925832.312          36.688  
R14  20960926.633   111733684.812          44.000    20960934.648    86904460.077          41.500  
R15  21017189.515   112308733.561          49.875    21017195.184    87351761.869          45.688  
R16  24572369.844   131261486.657          36.188    24572376.215   102092386.678          33.000  
R17  22465218.117   119794389.512          44.812    22465222.496    93173441.629          34.500  
R23  23556522.453   126011440.715          42.375    23556530.117    98009246.325          32.875  
R24  21870346.953   116951011.223          44.500    21870349.922    90961270.394          39.312  
E11  27017683.516   141978208.490                    27017686.398   106022966.155                    27017683.305   108788572.366                    27017684.516   107405873.870                  
S27  40084127.031   210642867.110          36.688    40084117.254   157298511.235          41.312                                                  
S28  38004347.422   199713538.463          45.625    38004336.543   149137041.445          44.812                                                  
S29  37575037.969   197457967.510          44.688                                                                                                  
S37  37813977.437   198713126.035          43.188                                                                                                  
J01  44120833.718   231856140.410          32.625                                                    44120839.270   180667140.896          34.688                                                    44120846.308   173139037.177          40.812  
C01  37522627.961   195390403.559          43.375    37522612.992   158770436.049          46.375    37522617.133   151087997.986          46.188  
C02  38176174.695   198792952.494          37.688    38176165.004   161535839.759          43.375    38176168.203   153719602.847          43.625  
C03  36972199.539   192524425.867          43.375    36972188.090   156441260.259          47.625    36972192.930   148871522.614          47.188  
C04  38759634.586   201830827.861          38.125    38759622.023   164004632.311          42.375    38759626.804   156068379.229          42.312  
C05  39737150.679   206921327.059          36.312    39737141.340   168140535.381          40.188    39737146.476   160004704.754          39.000  
C06  39317351.602   204735803.778          39.688    39317338.863   166364637.027          41.375    39317347.574   158314734.435          41.125  
C07  36410736.352   189599964.584          49.625    36410721.852   154065715.929          50.188    36410729.449   146610500.341          48.625  
C08  39602117.195   206218584.140          39.188    39602104.457   167568959.172          40.625    39602112.406   159460787.459          41.000  
C09  37708692.188   196358751.579          45.500    37708680.797   159558230.594          46.000    37708688.922   151837670.720          45.188  
C10  36769577.875   191469269.559          47.312    36769565.547   155584741.917          47.188    36769573.906   148056457.643          47.000  
> 2015 07 13 12 02 50.0000000  0 37
G05  23405702.625   122997144.585          43.875                                                    23405705.422    95842941.778          42.375    23405705.059    95842891.779          30.375                                                  
G07  25797494.445   135566590.596          36.000                                                    25797499.586   105636271.626          35.500    25797499.398   105636724.616          17.375                                                  
G12  25667639.688   134885096.593          36.125                                                    25667643.188   105104941.682          33.125    25667643.879   105104859.707          14.812                                                  
G13  20566544.930   108077580.327          51.125                                                                                                    20566546.192    84216395.633          44.000                                                  
G15  22171939.078   116514273.968          48.625                                                    22171941.524    90790373.349          45.375    22171941.453    90790254.350          38.125                                                  
G17  21835743.351   114746966.977          51.500                                                    21835744.097    89413596.359          46.500    21835744.613    89413757.355          39.875                                                  
G20  23407453.531   123007087.503          43.688                                                                                                    23407454.500    95849581.311          27.125                                                  
G24  24910016.164   130903820.505          37.875                                                    24910023.121   102002294.475          41.312    24910022.758   102001855.461          20.375    24910026.586    97752492.367          45.000  
G28  20883638.945   109744633.568          50.500                                                                                                    20883640.617    85515188.919          40.000                                                  
G30  23150707.289   121658296.255          46.688                                                    23150712.254    94798526.401          44.688    23150711.715    94798081.391          31.312    23150715.836    90848729.639          50.312  
R03  24047182.156   128725942.863          37.375    24047187.824   100120976.776          35.812  
R04  20656544.563   110614602.218          51.875    20656548.590    86034429.351          48.125  
R05  20967625.133   112083844.795          46.688    20967629.512    87176674.661          46.312  
R06  24674968.422   131670836.203          39.188    24674973.504   102409712.571          30.375  
R13  24303859.844   129780718.416          33.125    24303865.277   100940953.636          36.375  
R14  20962560.305   111742399.338          43.188    20962569.726    86911238.041          40.812  
R15  21014926.953   112296644.789          49.375    21014932.973    87342359.495          45.812  
R16  24567339.203   131234629.012          36.375    24567347.922   102071497.419          33.688  
R17  22458040.820   119756127.112          44.125    22458047.781    93143682.007          34.375  
R23  23559178.961   126025643.756          43.312    23559185.684    98020293.132          34.500  
R24  21867281.273   116934618.604          44.125    21867284.125    90948520.586          38.875  
E11  27016551.820   141972260.150                    27016554.101   106018524.212                    27016551.195   108784014.552                    27016552.414   107401373.987                  
S27  40083314.953   210638611.108          36.812    40083308.387   157295333.207          40.375                                                  
S28  38003548.938   199709341.006          46.312    38003537.355   149133890.447          44.875                                                  
S29  37574224.797   197453709.822          45.188                                                                                                  
S37  37813181.156   198708943.331          43.000                                                                                                  
J01  44120954.687   231856785.682          31.812                                                    44120960.356   180667643.724          33.688                                                    44120968.215   173139519.055          40.625  
C01  37521817.969   195386186.622          43.188    37521802.883   158767009.449          46.375    37521806.906   151084737.189          46.000  
C02  38175367.437   198788750.447          37.875    38175357.629   161532425.259          43.188    38175360.887   153716353.567          43.812  
C03  36971309.679   192519793.169          43.500    36971297.996   156437495.815          47.688    36971302.953   148867940.325          46.812  
C04  38758832.015   201826647.038          38.000    38758819.278   164001235.052          42.812    38758824.000   156065146.349          41.500  
C05  39736308.062   206916941.196          36.125    39736299.191   168136971.525          40.188    39736304.445   160001313.347          38.375  
C06  39319873.446   204748932.323          39.875    39319860.000   166375305.043          40.812    39319868.008   158324886.255          41.312  
C07  36410119.227   189596749.450          49.375    36410104.317   154063103.369          49.688    36410112.031   146608014.202          48.812  
C08  39597649.867   206195317.297          39.500    39597636.481   167550052.962          40.625    39597643.961   159442796.059          40.812  
C09  37711075.055   196371158.466          45.688    37711063.313   159568312.206          46.000    37711071.613   151847264.502          45.625  
C10  36768736.008   191464888.244          47.000    36768724.207   155581181.739          47.375    36768732.625   148053069.721          47.188  
> 2015 07 13 12 03  0.0000000  0 37
G05  23410187.508   123020713.514          43.500                                                    23410190.481    95861307.170          42.125    23410190.645    95861257.179          28.875                                                  
G07  25801273.203   135586437.522          36.188                                                    25801276.821   105651736.736          32.625    25801276.340   105652189.719          15.625                                                  
G12  25660866.914   134849502.493          37.000                                                    25660870.356   105077206.082          34.188    25660870.168   105077124.064          16.312                                                  
G13  20564417.836   108066400.856          51.000                                                                                                    20564419.566    84207684.363          44.688                                                  
G15  22166138.375   116483789.803          47.875                                                    22166140.879    90766619.462          45.812    22166140.516    90766500.466          38.125                                                  
G17  21830593.406   114719913.777          50.312                                                    21830595.852    89392515.933          47.000    21830596.543    89392676.944          39.125                                                  
G20  23407988.235   123009899.085          43.875                                                                                                    23407990.199    95851772.157          27.188                                                  
G24  24904567.899   130875183.997          38.812                                                    24904573.156   101979980.363          40.625    24904573.555   101979541.369          20.375    24904576.738    97731108.026          44.875  
G28  20887405.929   109764426.738          50.812                                                                                                    20887407.191    85530612.170          39.812                                                  
G30  23153661.274   121673817.865          45.875                                                    23153666.238    94810621.164          44.000    23153665.641    94810176.161          31.312    23153669.762    90860320.454          50.188  
R03  24054680.742   128766075.540          36.312    24054685.707   100152191.205          36.500  
R04  20661122.086   110639109.532          52.875    20661125.172    86053490.581          47.688  
R05  20964954.914   112069566.681          46.625    20964959.059    87165569.468          46.625  
R06  24667242.156   131629603.387          40.312    24667245.828   102377642.513          32.125  
R13  24307499.742   129800149.832          32.812    24307504.121   100956066.941          36.312  
R14  20964196.469   111751118.208          43.812    20964205.422    86918019.389          40.688  
R15  21012668.156   112284569.305          50.125    21012673.121    87332967.464          45.312  
R16  24562313.758   131207778.295          37.625    24562321.187   102050613.602          31.875  
R17  22450870.438   119717891.676          44.125    22450877.043    93113943.374          33.625  
R23  23561847.719   126039916.817          43.125    23561853.504    98031394.402          32.625  
R24  21864230.687   116918299.452          44.625    21864232.836    90935827.927          38.625  
E11  27015427.297   141966352.517                    27015430.117   106014112.674                    27015427.164   108779487.927                    27015428.278   107396904.906                  
S27  40082505.547   210634354.084          36.625    40082497.386   157292154.334          41.375                                                  
S28  38002749.656   199705141.631          45.812    38002738.238   149130737.428          44.625                                                  
S29  37573417.891   197449449.446          44.688                                                                                                  
S37  37812381.313   198704755.443          43.500                                                                                                  
J01  44121073.719   231857411.152          31.625                                                    44121079.679   180668131.110          35.312                                                    44121087.363   173139986.130          40.375  
C01  37521007.664   195381967.454          43.375    37520992.988   158763581.028          46.500    37520996.894   151081474.665          45.500  
C02  38174560.266   198784545.891          37.875    38174550.164   161529008.722          43.375    38174553.363   153713102.349          43.688  
C03  36970419.469   192515157.945          43.375    36970407.902   156433729.314          47.688    36970412.742   148864356.078          46.812  
C04  38758028.516   201822463.755          38.125    38758016.187   163997835.795          43.312    38758020.969   156061911.568          41.000  
C05  39735465.445   206912552.635          36.312    39735456.164   168133405.472          39.875    39735461.183   159997919.846          38.688  
C06  39322394.234   204762059.281          40.625    39322380.848   166385971.784          41.312    39322388.973   158335036.861          41.188  
C07  36409500.258   189593526.334          50.000    36409485.055   154060484.328          49.812    36409492.828   146605521.890          48.875  
C08  39593181.969   206172047.939          39.812    39593168.113   167531144.697          40.875    39593175.418   159424802.707          40.125  
C09  37713459.805   196383572.411          46.000    37713447.535   159578399.553          45.812    37713455.778   151856863.751          45.500  
C10  36767893.961   191460499.642          47.000    36767881.101   155577615.648          48.000    36767889.523   148049676.186          47.125  
> 2015 07 13 12 03 10.0000000  0 37
G05  23414674.094   123044295.861          43.625                                                    23414678.180    95879683.015          41.875    23414677.817    95879633.012          29.688                                                  
G07  25805049.406   135606283.011          30.125                                                    25805054.371   105667200.742          28.000    25805053.422   105667653.277          14.812                                                  
G12  25654095.969   134813919.731          36.312                                                    25654099.000   105049479.311          35.000    25654099.047   105049397.269          15.625                                                  
G13  20562299.703   108055270.008          50.312                                                                                                    20562300.731    84199010.981          44.500                                                  
G15  22160343.695   116453338.660          49.000                                                    22160346.140    90742891.306          45.688    22160346.012    90742772.310          38.312                                                  
G17  21825454.828   114692907.697          50.625                                                    21825457.684    89371472.269          47.188    21825457.555    89371633.279          39.188                                                  
G20  23408532.398   123012756.221          43.375                                                                                                    23408534.656    95853998.506          27.188                                                  
G24  24899116.000   130846541.539          39.188                                                    24899123.016   101957661.618          40.375    24899123.414   101957222.589          19.000    24899126.539    97709719.218          44.875  
G28  20891179.297   109784257.086          50.625                                                                                                    20891180.793    85546064.381          40.188                                                  
G30  23156615.562   121689346.457          46.312                                                    23156619.590    94822721.356          43.875    23156619.988    94822276.356          30.500    23156624.168    90871916.469          50.312  
R03  24062174.375   128806198.623          37.625    24062181.219   100183397.891          37.688  
R04  20665711.133   110663677.279          53.625    20665712.461    86072598.840          47.625  
R05  20962298.938   112055372.437          46.375    20962304.254    87154529.512          46.375  
R06  24659519.687   131588402.175          38.875    24659523.832   102345597.096          30.625  
R13  24311136.711   129819570.909          33.812    24311141.207   100971172.198          37.500  
R14  20965833.539   111759841.459          43.875    20965841.789    86924804.139          40.875  
R15  21010410.109   112272506.664          50.312    21010416.246    87323585.408          46.000  
R16  24557290.172   131180934.423          37.875    24557295.488   102029735.042          32.312  
R17  22443705.789   119679682.913          44.125    22443711.926    93084225.498          33.812  
R23  23564526.774   126054260.146          41.625    23564534.789    98042550.326          34.000  
R24  21861192.000   116902054.043          44.688    21861194.851    90923192.614          39.312  
E11  27014310.758   141960485.722                    27014313.742   106009731.624                    27014310.461   108774992.594                    27014311.770   107392466.714                  
S27  40081694.984   210630092.278          36.500    40081686.613   157288971.856          41.125                                                  
S28  38001950.312   199700940.922          46.625    38001939.199   149127583.476          44.875                                                  
S29  37572603.328   197445185.646          45.688                                                                                                  
S37  37811593.797   198700568.073          43.312                                                                                                  
J01  44121188.750   231858017.042          32.188                                                    44121194.887   180668603.235          34.375                                                    44121202.805   173140438.579          40.500  
C01  37520197.039   195377746.016          43.375    37520182.364   158760150.769          46.375    37520186.270   151078210.381          46.625  
C02  38173752.211   198780338.663          37.625    38173742.344   161525590.008          43.188    38173745.543   153709849.065          44.125  
C03  36969529.094   192510520.223          43.500    36969517.352   156429960.801          47.000    36969522.426   148860769.902          47.188  
C04  38757224.258   201818278.096          38.312    38757211.813   163994434.610          42.875    38757216.652   156058674.964          41.625  
C05  39734622.328   206908161.375          36.188    39734612.988   168129837.229          39.875    39734617.832   159994524.272          38.375  
C06  39324914.789   204775184.667          40.625    39324901.344   166396637.242          41.000    39324909.293   158345186.252          41.000  
C07  36408879.352   189590295.227          48.500    36408864.559   154057858.789          49.625    36408872.215   146603023.391          48.500  
C08  39588711.836   206148776.352          39.812    39588699.156   167512234.650          40.625    39588707.105   159406807.671          40.688  
C09  37715845.601   196395993.511          45.688    37715833.273   159588492.720          46.000    37715841.691   151866468.529          45.188  
C10  36767049.672   191456103.816          46.812    36767037.109   155574043.677          48.188    36767045.527   148046277.045          46.312  
> 2015 07 13 12 03 20.0000000  0 37
G05  23419165.727   123067895.793          44.125                                                    23419168.465    95898072.584          42.625    23419168.746    95898022.573          29.125                                                  
G07  25808825.094   135626131.423          29.375                                                    25808830.586   105682667.165          32.625                                                                                                  
G12  25647326.234   134778352.583          37.188                                                    25647329.910   105021764.704          34.875    25647330.250   105021682.678          17.375                                                  
G13  20560191.469   108044192.105          50.500                                                                                                    20560193.141    84190378.851          44.500                                                  
G15  22154556.429   116422924.797          48.188                                                    22154557.293    90719192.197          45.500    22154557.340    90719073.201          38.312                                                  
G17  21820325.484   114665953.380          51.125                                                    21820329.102    89350468.924          47.625    21820328.914    89350629.928          39.812                                                  
G20  23409084.375   123015663.073          43.875                                                                                                    23409087.688    95856263.579          27.188                                                  
G24  24893665.258   130817897.630          38.812                                                    24893671.336   101935341.713          40.312    24893671.383   101934902.711          20.125    24893675.211    97688329.331          45.312  
G28  20894960.890   109804128.747          50.812                                                                                                    20894961.976    85561548.802          39.188                                                  
G30  23159573.961   121704886.285          47.000                                                    23159577.402    94834830.320          43.125    23159577.684    94834385.310          31.188    23159581.805    90883520.884          50.000  
R03  24069670.313   128846315.881          37.125    24069674.691   100214600.261          35.500  
R04  20670310.265   110688309.732          52.312    20670312.180    86091757.427          47.625  
R05  20959660.476   112041266.729          45.812    20959664.148    87143558.406          46.625  
R06  24651805.570   131547237.686          36.188    24651810.418   102313580.119          28.688  
R13  24314770.484   129838986.002          32.500    24314776.973   100986272.801          37.500  
R14  20967471.961   111768573.397          44.312    20967479.391    86931595.656          40.375  
R15  21008156.562   112260461.502          50.500    21008161.527    87314216.957          45.688  
R16  24552265.391   131154101.656          35.312    24552273.055   102008865.161          31.688  
R17  22436547.586   119641505.471          44.500    22436551.496    93054531.954          34.000  
R23  23567224.930   126068677.834          43.125    23567230.480    98053764.055          34.000  
R24  21858168.680   116885886.697          44.625    21858170.242    90910618.021          39.375  
E11  27013203.734   141954664.003                    27013206.055   106005384.236                    27013202.867   108770531.795                    27013204.059   107388062.625                  
S27  40080884.672   210625833.215          36.688    40080875.832   157285791.517          41.125                                                  
S28  38001150.766   199696740.155          46.188    38001139.465   149124626.803          44.875                                                  
S29  37571794.281   197440923.448          45.125                                                                                                  
S37  37810791.969   198696380.752          42.625                                                                                                  
J01  44121302.500   231858607.474          31.812                                                    44121307.055   180669063.315          34.812                                                    44121314.973   173140879.495          40.812  
C01  37519387.000   195373526.606          43.312    37519371.328   158756722.148          46.312    37519375.703   151074947.667          45.688  
C02  38172944.234   198776133.197          37.688    38172934.894   161522172.738          43.500    38172938.328   153706597.142          44.125  
C03  36968638.508   192505884.243          43.500    36968627.176   156426193.695          47.312    36968632.484   148857185.076          47.000  
C04  38756421.133   201814094.219          38.125    38756408.395   163991034.877          42.375    38756413.469   156055439.729          42.125  
C05  39733779.492   206903771.742          36.125    39733769.859   168126270.311          39.375    39733774.820   159991129.946          39.000  
C06  39327435.680   204788312.712          39.812    39327422.644   166407304.846          41.875    39327430.301   158355337.684          41.125  
C07  36408258.266   189587060.289          48.500    36408243.531   154055230.144          50.188    36408251.129   146600521.937          47.500  
C08  39584243.461   206125506.856          40.000    39584230.664   167493326.273          41.000    39584237.613   159388814.230          40.188  
C09  37718233.500   196408425.871          45.812    37718220.582   159598595.037          45.688    37718228.476   151876082.025          45.375  
C10  36766204.851   191451704.919          46.500    36766192.172   155570469.226          47.625    36766200.707   148042875.551          45.875  
> 2015 07 13 12 03 30.0000000  0 37
G05  23423659.508   123091512.481          44.125                                                    23423663.887    95916475.176          41.812    23423663.699    95916425.174          29.375                                                  
G07  25812602.789   135645981.932          34.688                                                    25812607.578   105698134.939          33.375                                                                                                  
G12  25640561.688   134742800.472          36.875                                                    25640564.719   104994061.797          33.312    25640565.703   104993979.815          18.625                                                  
G13  20558093.719   108033166.607          50.188                                                                                                    20558095.156    84181787.559          44.500                                                  
G15  22148776.656   116392547.783          48.000                                                    22148777.988    90695521.800          45.812    22148777.742    90695402.803          38.125                                                  
G17  21815207.352   114639050.065          50.688                                                    21815209.094    89329505.323          46.375    21815208.672    89329666.319          40.188                                                  
G20  23409648.023   123018618.973          43.312                                                                                                    23409648.992    95858566.888          28.500                                                  
G24  24888212.828   130789251.580          38.375                                                    24888220.664   101913020.144          40.688    24888220.125   101912581.130          20.375    24888224.012    97666937.841          45.312  
G28  20898750.492   109824041.022          50.125                                                                                                    20898751.578    85577064.856          39.875                                                  
G30  23162532.172   121720436.715          46.500                                                    23162536.843    94846947.536          44.125    23162536.715    94846502.526          29.875    23162540.836    90895133.216          50.188  
R03  24077163.539   128886426.631          36.125    24077167.801   100245797.482          37.688  
R04  20674920.492   110713006.187          51.625    20674924.637    86110965.769          48.188  
R05  20957037.867   112027248.699          46.312    20957042.597    87132655.496          46.625  
R06  24644097.055   131506109.123          37.188    24644104.015   102281591.193          29.500  
R13  24318408.016   129858394.508          34.188    24318411.570   101001368.271          37.688  
R14  20969110.836   111777313.486          44.125    20969118.852    86938393.505          40.812  
R15  21005905.633   112248432.888          50.625    21005911.183    87304861.381          45.625  
R16  24547245.305   131127279.293          36.375    24547252.266   101988003.441          32.625  
R17  22429392.234   119603359.511          44.375    22429399.781    93024862.917          34.625  
R23  23569931.125   126083169.153          41.688    23569940.313    98065035.054          33.812  
R24  21855160.617   116869796.966          45.188    21855161.945    90898103.800          39.125  
E11  27012103.555   141948886.765                    27012106.453   106001070.070                    27012103.172   108766105.082                    27012104.461   107383692.182                  
S27  40080074.219   210621575.567          37.000    40080065.684   157282611.966          40.812                                                  
S28  38000351.469   199692541.611          46.312    38000340.426   149121474.732          44.875                                                  
S29  37570983.016   197436663.130          45.000                                                                                                  
S37  37810001.187   198692194.796          42.375                                                                                                  
J01  44121411.813   231859181.914          32.312                                                    44121417.129   180669510.943          34.875                                                    44121424.520   173141308.468          40.875  
C01  37518576.734   195369308.509          43.188    37518561.824   158753294.619          45.625    37518566.023   151071685.985          45.625  
C02  38172137.031   198771928.722          37.812    38172127.047   161518756.267          43.188    38172130.363   153703345.992          43.875  
C03  36967748.781   192501249.399          43.375    36967736.922   156422427.503          47.812    36967741.762   148853601.127          47.000  
C04  38755617.914   201809911.571          38.000    38755605.527   163987636.136          43.312    38755610.192   156052205.448          42.188  
C05  39732936.547   206899383.009          36.312    39732926.973   168122704.123          39.312    39732932.109   159987736.325          39.375  
C06  39329957.422   204801442.672          39.688    39329944.445   166417974.013          41.312    39329952.574   158365490.606          42.000  
C07  36407636.438   189583821.013          49.625    36407621.234   154052597.965          49.812    36407628.891   146598017.124          48.812  
C08  39579775.977   206102238.734          39.188    39579761.945   167474419.035          40.688    39579769.016   159370821.847          40.375  
C09  37720622.938   196420868.928          46.000    37720609.785   159608706.048          46.688    37720617.676   151885703.799          45.125  
C10  36765359.320   191447302.459          47.188    36765346.875   155566891.869          48.000    36765355.410   148039471.295          47.000  
> 2015 07 13 12 03 40.0000000  0 37
G05  23428155.930   123115141.418          43.875                                                    23428159.957    95934887.331          42.188    23428159.535    95934837.340          29.125                                                  
G07  25816379.852   135665830.258          38.625                                                    25816384.055   105713601.144          34.312    25816384.863   105714055.159          17.812                                                  
G12  25633798.070   134707258.980          37.875                                                    25633801.101   104966367.148          34.625    25633801.617   104966285.129          17.812                                                  
G13  20556004.899   108022189.101          50.688                                                                                                    20556005.457    84173233.660          44.500                                                  
G15  22143001.531   116362203.261          49.125                                                    22143003.508    90671876.720          45.500    22143003.262    90671757.729          38.125                                                  
G17  21810095.664   114612193.508          50.875                                                    21810098.109    89308578.141          46.500    21810098.215    89308739.138          39.812                                                  
G20  23410217.930   123021619.424          42.812                                                                                                    23410220.656    95860904.917          25.625                                                  
G24  24882763.227   130760599.000          39.188                                                    24882767.781   101890693.498          40.500    24882768.180   101890254.474          19.875    24882771.832    97645541.470          44.812  
G28  20902546.727   109843989.335          51.625                                                                                                    20902547.637    85592609.001          40.000                                                  
G30  23165493.422   121735993.379          46.312                                                    23165496.805    94859069.606          43.500    23165496.734    94858624.603          31.125    23165500.914    90906750.198          50.000  
R03  24084655.461   128926526.263          38.125    24084660.192   100276986.093          38.125  
R04  20679545.742   110737761.933          53.000    20679548.008    86130220.230          47.625  
R05  20954431.039   112013314.065          45.812    20954436.004    87121817.451          46.812  
R06  24636398.695   131465012.120          37.875    24636401.547   102249626.735          27.375  
R13  24322040.086   129877792.202          32.625    24322043.172   101016455.353          36.000  
R14  20970749.437   111786057.130          44.125    20970759.328    86945194.120          40.875  
R15  21003657.695   112236416.524          50.812    21003662.192    87295515.319          45.312  
R16  24542225.437   131100462.881          35.688    24542231.926   101967146.276          32.688  
R17  22422244.742   119565240.100          44.688    22422249.473    92995214.520          33.375  
R23  23572650.727   126097729.727          41.188    23572662.144    98076359.928          33.688  
R24  21852164.063   116853780.292          44.312    21852166.914    90885646.393          39.000  
E11  27011011.804   141943149.617                    27011014.813   105996785.854                    27011011.531   108761709.102                    27011012.750   107379352.084                  
S27  40079262.188   210617314.473          36.312    40079254.988   157279430.205          40.688                                                  
S28  37999552.578   199688339.937          45.500    37999541.207   149118320.296          44.688                                                  
S29  37570168.234   197432399.055          44.688                                                                                                  
S37  37809198.297   198688005.793          42.625                                                                                                  
J01  44121517.140   231859735.880          32.875                                                    44121522.105   180669942.618          35.188                                                    44121529.145   173141722.156          40.000  
C01  37517766.219   195365087.493          43.312    37517751.133   158749864.684          46.375    37517755.391   151068422.023          46.125  
C02  38171328.976   198767721.024          37.812    38171319.578   161515337.178          43.125    38171322.895   153700092.351          43.875  
C03  36966858.031   192496611.332          43.375    36966846.289   156418658.692          47.812    36966851.305   148850014.685          47.125  
C04  38754813.774   201805725.770          38.000    38754801.211   163984234.830          42.375    38754805.992   156048968.724          42.125  
C05  39732092.696   206894990.919          35.875    39732083.766   168119135.206          39.500    39732088.492   159984340.101          38.812  
C06  39332478.625   204814570.336          39.875    39332465.121   166428641.319          41.125    39332473.363   158375641.748          41.000  
C07  36407012.602   189580572.994          50.000    36406997.398   154049958.685          49.875    36407005.055   146595505.552          48.312  
C08  39575305.680   206078967.799          39.375    39575293.059   167455509.515          41.125    39575300.184   159352827.311          40.375  
C09  37723012.679   196433318.265          45.125    37723000.234   159618822.155          45.688    37723008.477   151895330.420          45.500  
C10  36764512.601   191442891.885          47.500    36764500.097   155563307.928          47.875    36764508.457   148036060.768          46.625  
> 2015 07 13 12 03 50.0000000  0 37
G05  23432655.422   123138783.856          43.875                                                    23432658.453    95953310.011          41.812    23432658.442    95953260.004          29.375                                                  
G07  25820157.304   135685677.692          37.625                                                    25820160.922   105729066.699          35.875    25820161.320   105729520.678          19.312                                                  
G12  25627036.039   134671729.469          37.875                                                    25627040.887   104938681.870          36.125    25627041.051   104938599.858          18.312                                                  
G13  20553925.102   108011261.005          50.625                                                                                                    20553925.836    84164718.260          45.000                                                  
G15  22137233.414   116331892.672          48.000                                                    22137235.625    90648258.091          45.188    22137235.554    90648139.096          38.625                                                  
G17  21804994.578   114585385.091          50.688                                                    21804995.852    89287688.470          46.625    21804996.308    89287849.475          39.812                                                  
G20  23410797.797   123024665.624          42.875                                                                                                    23410800.699    95863278.594          27.125                                                  
G24  24877308.375   130731941.020          38.688                                                    24877314.687   101868362.620          40.188    24877315.086   101867923.608          20.375    24877318.270    97624141.058          44.875  
G28  20906349.781   109863974.930          51.188                                                                                                    20906350.809    85608182.195          39.812                                                  
G30  23168455.000   121751557.585          47.188                                                    23168458.676    94871197.554          44.125    23168459.074    94870752.547          32.188    23168462.785    90918372.807          50.188  
R03  24092137.390   128966616.118          32.312    24092147.164   100308167.076          34.312  
R04  20684179.554   110762578.111          53.188    20684181.351    86149521.711          46.875  
R05  20951840.211   111999464.083          46.625    20951844.707    87111045.254          46.875  
R06  24628701.805   131423948.452          37.125    24628707.121   102217688.297          29.125  
R13  24325667.336   129897180.386          32.375    24325674.059   101031535.044          36.000  
R14  20972392.297   111794805.557          44.188    20972400.312    86951998.444          40.375  
R15  21001410.805   112224413.988          50.188    21001415.887    87286180.025          45.312  
R16  24537205.750   131073653.787          37.125    24537212.711   101946294.859          30.688  
R17  22415100.359   119527149.283          44.000    22415106.262    92965588.350          33.500  
R23  23575390.227   126112360.633          43.188    23575395.894    98087739.519          34.000  
R24  21849184.078   116837838.216          45.000    21849185.406    90873247.015          39.312  
E11  27009928.281   141937453.947                    27009930.781   105992532.583                    27009928.016   108757344.878                    27009928.984   107375043.333                  
S27  40078452.094   210613049.964          36.375    40078443.629   157276245.154          40.188                                                  
S28  37998752.172   199684135.355          45.812    37998741.059   149115163.545          44.875                                                  
S29  37569357.172   197428133.497          45.375                                                                                                  
S37  37808402.984   198683815.244          42.312                                                                                                  
J01  44121617.672   231860270.765          32.188                                                    44121623.808   180670359.416          34.625                                                    44121631.199   173142121.594          39.875  
C01  37516955.071   195360864.774          43.375    37516940.219   158746433.383          45.812    37516944.184   151065156.746          46.812  
C02  38170520.945   198763511.309          37.812    38170510.961   161511916.452          42.812    38170514.043   153696837.149          43.188  
C03  36965966.703   192491971.322          43.375    36965955.078   156414888.301          48.188    36965959.977   148846426.732          47.312  
C04  38754009.727   201801538.071          38.312    38753996.988   163980831.990          43.000    38754002.063   156045730.539          42.688  
C05  39731249.086   206890596.689          36.312    39731239.688   168115564.556          39.688    39731244.766   159980942.220          39.000  
C06  39334999.539   204827696.818          40.312    39334985.625   166439307.665          41.375    39334993.808   158385791.974          40.875  
C07  36406387.649   189577317.503          49.500    36406372.563   154047313.339          49.812    36406380.277   146592988.203          47.812  
C08  39570836.656   206055695.248          40.125    39570823.563   167436598.669          41.312    39570830.398   159334831.507          40.375  
C09  37725404.211   196445775.173          45.312    37725392.410   159628944.415          45.875    37725400.125   151904962.892          44.688  
C10  36763664.078   191438474.640          46.875    36763651.574   155559718.555          47.312    36763659.933   148032645.079          46.625  
> 2015 07 13 12 04  0.0000000  0 37
G05  23437156.687   123162444.057          42.875                                                    23437161.125    95971746.522          41.812    23437160.937    95971696.519          29.875                                                  
G07  25823935.922   135705528.765          35.688                                                    25823940.242   105744535.001          36.125    25823939.820   105744988.994          17.375                                                  
G12  25620277.211   134636216.611          36.375                                                    25620283.055   104911009.544          34.812    25620283.805   104910927.525          18.625                                                  
G13  20551855.500   108000386.912          50.188                                                                                                    20551857.348    84156244.939          44.688                                                  
G15  22131472.562   116301620.509          48.125                                                    22131475.301    90624669.399          45.812    22131474.645    90624550.402          38.312                                                  
G17  21799901.406   114558629.355          50.000                                                    21799904.789    89266839.861          46.625    21799905.129    89267000.865          38.625                                                  
G20  23411388.102   123027762.192          43.688                                                                                                    23411389.656    95865691.483          25.625                                                  
G24  24871854.758   130703282.075          38.625                                                    24871860.543   101846031.023          39.688    24871860.355   101845592.016          20.875    24871864.360    97602739.955          44.812  
G28  20910160.399   109884002.256          50.688                                                                                                    20910161.601    85623787.910          39.188                                                  
G30  23171418.727   121767133.771          46.312                                                    23171422.461    94883334.838          43.625    23171422.449    94882889.824          31.312    23171426.687    90930004.376          50.000  
R03  24099631.898   129006700.387          38.500    24099637.567   100339343.752          37.875  
R04  20688824.476   110787459.220          52.188    20688827.563    86168873.686          47.000  
R05  20949266.461   111985703.412          45.875    20949270.371    87100342.518          46.875  
R06  24621013.883   131382922.591          37.188    24621018.496   102185779.286          30.125  
R13  24329299.242   129916563.168          33.188    24329304.324   101046610.534          36.312  
R14  20974035.312   111803563.378          44.125    20974043.328    86958810.092          40.812  
R15  20999168.008   112212429.063          50.188    20999172.855    87276858.423          45.312  
R16  24532189.313   131046856.455          36.312    24532196.508   101925452.565          32.375  
R17  22407965.367   119489091.133          45.188    22407969.746    92935987.604          34.125  
R23  23578139.227   126127066.253          44.188    23578145.949    98099177.208          33.375  
R24  21846216.844   116821975.355          45.375    21846218.875    90860909.239          39.312  
E11  27008852.914   141931804.157                    27008855.773   105988313.583                    27008852.680   108753015.819                    27008853.828   107370769.307                  
S27  40077641.109   210608789.227          36.312    40077633.043   157273063.740          40.812                                                  
S28  37997952.906   199679933.782          46.188    37997941.910   149112009.080          45.000                                                  
S29  37568549.047   197423869.388          44.812                                                                                                  
S37  37807600.828   198679624.595          42.625                                                                                                  
J01  44121716.750   231860790.924          32.500                                                    44121723.180   180670764.742          34.812                                                    44121729.926   173142510.030          39.875  
C01  37516144.570   195356644.811          43.375    37516129.836   158743004.330          46.625    37516133.801   151061893.617          47.188  
C02  38169712.758   198759304.018          37.688    38169703.242   161508497.702          43.188    38169706.266   153693583.825          43.875  
C03  36965075.953   192487333.764          43.375    36965064.328   156411119.921          47.625    36965069.402   148842840.688          47.188  
C04  38753205.812   201797352.934          38.125    38753193.543   163977431.231          42.500    38753198.324   156042494.329          42.188  
C05  39730405.180   206886204.802          36.312    39730396.309   168111995.804          39.312    39730401.035   159977546.161          38.812  
C06  39337521.242   204840826.591          40.000    39337507.738   166449976.685          41.375    39337515.746   158395944.754          41.125  
C07  36405761.656   189574059.007          49.625    36405746.511   154044665.548          49.812    36405754.344   146590468.532          48.688  
C08  39566367.633   206032425.588          39.188    39566354.774   167417690.172          40.375    39566362.195   159316837.952          40.812  
C09  37727799.422   196458243.985          45.812    37727787.270   159639076.348          46.125    37727795.394   151914604.580          45.500  
C10  36762815.453   191434055.084          47.375    36762802.949   155556127.306          48.125    36762811.602   148029227.601          47.000  
> 2015 07 13 12 04 10.0000000  0 37
G05  23441663.156   123186120.197          43.375                                                    23441665.953    95990195.456          41.688    23441665.883    95990145.454          29.688                                                  
G07  25827713.695   135725381.622          34.312                                                    25827716.961   105760004.734          34.000    25827717.418   105760458.692          13.875                                                  
G12  25613523.523   134600718.514          36.500                                                    25613528.547   104883348.722          34.625    25613528.535   104883266.732          17.375                                                  
G13  20549796.461   107989565.026          50.688                                                                                                    20549797.488    84147812.307          44.312                                                  
G15  22125719.453   116271385.124          48.812                                                    22125720.551    90601109.366          45.625    22125720.773    90600990.372          38.500                                                  
G17  21794821.508   114531924.636          51.375                                                    21794823.133    89246031.009          47.000    21794823.414    89246192.014          39.812                                                  
G20  23411985.398   123030907.136          42.875                                                                                                    23411988.008    95868142.105          27.125                                                  
G24  24866399.586   130674620.638          38.000                                                    24866406.836   101823697.438          40.375    24866406.648   101823258.439          20.375    24866411.121    97581336.958          45.125  
G28  20913978.727   109904069.421          49.875                                                                                                    20913980.457    85639424.665          39.625                                                  
G30  23174384.281   121782720.225          46.312                                                    23174389.539    94895480.124          43.188    23174389.117    94895035.121          30.688    23174393.414    90941643.607          50.188  
R03  24107116.203   129046777.233          34.875    24107124.804   100370514.564          38.312  
R04  20693483.679   110812403.251          52.188    20693485.476    86188274.580          47.312  
R05  20946708.031   111972030.234          45.875    20946713.348    87089707.830          47.125  
R06  24613332.219   131341932.931          37.875    24613336.832   102153898.493          27.688  
R13  24332926.797   129935938.956          31.625    24332932.582   101061680.556          35.812  
R14  20975679.305   111812328.828          44.312    20975687.438    86965627.663          40.625  
R15  20996929.555   112200460.613          50.812    20996932.758    87267549.644          45.375  
R16  24527174.562   131020068.985          37.625    24527181.406   101904617.958          32.375  
R17  22400832.367   119451064.642          45.375    22400839.211    92906411.462          34.125  
R23  23580901.875   126141845.007          42.812    23580909.305    98110671.776          34.125  
R24  21843264.016   116806190.072          44.688    21843266.633    90848631.815          38.812  
E11  27007786.351   141926198.551                    27007789.109   105984127.597                    27007785.969   108748720.631                    27007787.070   107366528.720                  
S27  40076830.703   210604528.586          36.625    40076821.371   157269881.710          40.688                                                  
S28  37997152.719   199675733.467          46.500    37997141.535   149108855.563          44.688                                                  
S29  37567734.344   197419606.524          45.125                                                                                                  
S37  37806811.812   198675436.762          42.125                                                                                                  
J01  44121814.422   231861295.151          32.812                                                                                                                                                                                                  
C01  37515334.641   195352425.822          43.375    37515319.789   158739576.056          46.812    37515323.695   151058631.225          46.125  
C02  38168905.000   198755097.378          37.688    38168894.723   161505079.474          42.812    38168898.157   153690330.992          43.688  
C03  36964185.648   192482696.936          43.312    36964174.141   156407352.122          47.188    36964179.039   148839255.201          47.188  
C04  38752402.352   201793168.602          38.000    38752389.906   163974031.117          42.312    38752394.864   156039258.737          41.125  
C05  39729561.906   206881813.442          35.812    39729553.094   168108427.478          40.000    39729557.937   159974150.502          37.625  
C06  39340042.375   204853957.879          39.875    39340029.105   166460646.928          41.375    39340037.114   158406098.699          41.375  
C07  36405135.476   189570795.737          48.812    36405120.215   154042013.867          49.688    36405127.813   146587945.165          48.812  
C08  39561898.906   206009156.886          39.375    39561886.578   167398782.459          40.812    39561894.176   159298845.130          40.125  
C09  37730195.867   196470723.029          45.312    37730184.242   159649216.587          45.688    37730192.426   151924254.166          44.812  
C10  36761966.242   191429631.397          47.312    36761953.266   155552532.693          47.625    36761962.156   148025806.920          47.375  
> 2015 07 13 12 04 20.0000000  0 37
G05  23446169.430   123209808.235          43.688                                                    23446174.043    96008653.671          42.125    23446173.855    96008603.668          28.188                                                  
G07  25831488.133   135745232.429          31.625                                                    25831495.207   105775472.869          34.188    25831495.312   105775926.885          15.625                                                  
G12  25606770.195   134565231.273          35.875                                                    25606774.808   104855696.372          32.688    25606775.148   104855614.391          15.625                                                  
G13  20547746.547   107978791.492          50.500                                                                                                    20547747.399    84139417.345          45.000                                                  
G15  22119971.812   116241182.688          48.625                                                    22119973.438    90577575.006          45.375    22119973.719    90577456.010          38.188                                                  
G17  21789748.000   114505267.214          50.500                                                    21789750.797    89225259.000          47.312    21789750.785    89225420.012          39.188                                                  
G20  23412592.351   123034096.588          43.188                                                                                                    23412595.019    95870627.398          25.188                                                  
G24  24860945.531   130645952.814          38.188                                                    24860951.316   101801358.946          39.875    24860951.422   101800919.962          20.875    24860956.129    97559929.240          45.312  
G28  20917804.453   109924172.378          49.875                                                                                                    20917805.715    85655089.301          40.188                                                  
G30  23177351.672   121798312.995          45.875                                                    23177355.992    94907630.330          43.625    23177355.746    94907185.323          31.188    23177359.867    90953287.546          50.125  
R03  24114604.281   129086842.567          39.625    24114606.195   100401676.522          33.875  
R04  20698153.469   110837405.975          53.375    20698155.266    86207721.154          47.188  
R05  20944165.891   111958440.694          45.688    20944170.269    87079138.199          47.125  
R06  24605657.172   131300975.375          38.875    24605660.844   102122042.607          31.000  
R13  24336553.766   129955303.886          33.125    24336558.731   101076742.126          37.000  
R14  20977325.695   111821097.848          44.812    20977331.832    86972448.021          40.625  
R15  20994691.562   112188504.337          50.812    20994694.883    87258250.320          45.375  
R16  24522159.735   130993287.407          37.188    24522167.164   101883787.913          32.688  
R17  22393705.961   119413065.687          44.500    22393712.922    92876856.759          34.625  
R23  23583677.148   126156692.586          44.375    23583684.226    98122219.927          33.312  
R24  21840326.109   116790478.415          45.188    21840328.375    90836411.649          39.312  
E11  27006727.078   141920633.198                    27006730.125   105979971.643                    27006727.078   108744456.259                    27006728.148   107362318.561                  
S27  40076019.156   210600265.688          36.312    40076010.762   157266698.787          40.688                                                  
S28  37996353.734   199671529.038          46.000    37996342.364   149105699.042          44.625                                                  
S29  37566924.641   197415339.370          44.688                                                                                                  
S37  37806005.406   198671244.604          42.500                                                                                                  
J01  44121906.406   231861778.045          32.188                                                    44121911.723   180671533.949          34.188                                                    44121918.000   173143247.193          40.125  
C01  37514523.781   195348203.923          43.375    37514508.695   158736145.418          46.375    37514512.543   151055366.585          45.500  
C02  38168096.695   198750887.449          37.688    38168086.594   161501658.570          43.000    38168089.852   153687075.623          43.375  
C03  36963294.578   192478056.944          43.375    36963283.305   156403581.756          47.812    36963288.086   148835667.274          46.375  
C04  38751597.734   201788981.192          37.875    38751585.758   163970628.509          43.188    38751590.598   156036020.775          40.688  
C05  39728718.117   206877418.751          36.188    39728708.953   168104856.458          39.875    39728713.797   159970752.279          37.688  
C06  39342564.352   204867086.706          40.188    39342550.789   166471315.179          40.812    39342558.855   158416250.741          41.312  
C07  36404507.039   189567523.812          49.812    36404491.660   154039355.164          49.875    36404499.492   146585415.103          48.625  
C08  39557430.985   205985885.503          39.375    39557417.773   167379872.579          41.375    39557425.195   159280850.246          40.500  
C09  37732594.469   196483208.427          45.625    37732581.848   159659362.004          46.188    37732589.738   151933908.670          44.875  
C10  36761115.219   191425199.730          46.812    36761102.359   155548931.605          47.375    36761110.957   148022380.076          46.812  
> 2015 07 13 12 04 30.0000000  0 37
G05  23450680.586   123233510.136          43.625                                                    23450683.910    96027122.670          41.812    23450683.781    96027072.672          29.312                                                  
G07  25835267.383   135765083.095          39.375                                                    25835271.410   105790940.920          34.375    25835271.633   105791394.922          19.875                                                  
G12  25600021.047   134529757.125          36.625                                                    25600023.961   104828054.208          33.688    25600024.184   104827972.204          16.875                                                  
G13  20545705.773   107968068.340          50.500                                                                                                    20545707.445    84131061.647          44.500                                                  
G15  22114231.781   116211015.355          49.000                                                    22114233.817    90554068.000          45.812    22114233.629    90553949.004          38.688                                                  
G17  21784685.391   114478659.187          51.375                                                    21784688.129    89204525.494          47.000    21784687.942    89204686.490          39.688                                                  
G20  23413207.586   123037332.410          43.375                                                                                                    23413211.485    95873148.823          26.188                                                  
G24  24855490.328   130617280.355          39.625                                                    24855495.234   101779016.806          40.125    24855495.516   101778577.777          22.188    24855499.051    97538518.008          44.688  
G28  20921636.813   109944313.005          50.875                                                                                                    20921638.015    85670783.298          38.812                                                  
G30  23180320.469   121813914.153          47.312                                                    23180324.555    94919787.067          43.312    23180324.484    94919342.058          31.500    23180328.781    90964937.749          50.188  
R03  24122086.047   129126898.176          36.625    24122092.301   100432830.880          38.812  
R04  20702832.641   110862469.438          52.312    20702835.023    86227214.957          47.375  
R05  20941641.258   111944936.756          46.125    20941644.109    87068635.140          46.875  
R06  24597987.992   131260052.361          36.688    24597992.840   102090213.579          29.500  
R13  24340179.703   129974660.098          33.875    24340184.199   101091796.917          36.875  
R14  20978970.672   111829872.427          44.625    20978979.156    86979272.686          40.375  
R15  20992455.766   112176562.262          50.125    20992461.433    87248962.045          45.500  
R16  24517148.250   130966513.941          35.875    24517155.914   101862964.187          32.625  
R17  22386586.828   119375096.072          45.375    22386592.145    92847324.863          34.375  
R23  23586465.242   126171610.930          44.125    23586472.438    98133823.084          33.125  
R24  21837402.492   116774842.421          43.812    21837405.813    90824250.335          38.875  
E11  27005676.656   141915110.159                    27005679.375   105975847.281                    27005676.000   108740224.311                    27005677.199   107358140.403                  
S27  40075207.516   210596000.823          36.125    40075198.394   157263514.012          41.125                                                  
S28  37995553.141   199667323.505          46.312    37995541.699   149102541.344          44.875                                                  
S29  37566112.656   197411071.946          44.500                                                                                                  
S37  37805212.469   198667052.969          42.500                                                                                                  
J01  44121993.625   231862243.476          33.000                                                                                                                                                                                                  
C01  37513712.812   195343981.153          43.312    37513697.844   158732714.086          46.625    37513701.808   151052101.288          46.375  
C02  38167287.360   198746676.292          37.875    38167277.785   161498236.668          43.125    38167280.984   153683819.297          43.375  
C03  36962403.359   192473415.823          43.188    36962392.262   156399810.468          47.688    36962397.336   148832078.473          46.625  
C04  38750793.375   201784792.725          38.000    38750781.340   163967225.042          42.500    38750786.238   156032781.994          40.812  
C05  39727874.398   206873022.748          36.000    39727864.707   168101284.364          39.500    39727869.609   159967353.029          38.125  
C06  39345085.398   204880215.173          40.688    39345071.367   166481983.144          41.375    39345079.199   158426402.507          41.125  
C07  36403877.453   189564245.241          49.688    36403861.840   154036691.054          49.875    36403869.848   146582879.912          48.188  
C08  39552961.836   205962613.570          39.875    39552948.391   167360962.240          41.375    39552955.636   159262854.933          40.625  
C09  37734993.266   196495702.028          45.688    37734981.054   159669514.083          46.312    37734989.472   151943569.520          45.375  
C10  36760262.680   191420762.142          47.312    36760250.176   155545325.704          48.125    36760258.887   148018948.658          47.500  
> 2015 07 13 12 04 40.0000000  0 37
G05  23455193.086   123257228.331          43.688                                                    23455197.699    96045604.388          41.625    23455197.512    96045554.385          29.125                                                  
G07  25839045.484   135784936.266          39.188                                                    25839049.629   105806410.941          35.875    25839049.734   105806864.920          19.875                                                  
G12  25593273.500   134494298.747          37.500                                                    25593277.117   104800424.352          35.000    25593276.344   104800342.333          18.312                                                  
G13  20543675.234   107957398.289          51.375                                                                                                    20543676.379    84122747.323          45.000                                                  
G15  22108497.359   116180885.879          49.812                                                    22108499.395    90530590.489          45.875    22108499.500    90530471.495          38.125                                                  
G17  21779630.547   114452103.231          50.500                                                    21779633.754    89183832.557          46.875    21779633.391    89183993.548          39.125                                                  
G20  23413833.828   123040617.092          43.312                                                                                                    23413836.028    95875708.320          27.500                                                  
G24  24850033.492   130588606.062          37.500                                                    24850037.988   101756673.207          40.500    24850038.211   101756234.201          21.125    24850042.156    97517105.411          45.188  
G28  20925477.437   109964493.827          51.375                                                                                                    20925478.758    85686508.617          39.000                                                  
G30  23183291.141   121829526.299          46.125                                                    23183296.281    94931952.385          43.875    23183296.035    94931507.366          31.312    23183300.449    90976596.173          50.312  
R03  24129568.469   129166946.788          38.312    24129572.613   100463979.706          36.188  
R04  20707524.805   110887596.103          52.125    20707526.250    86246757.904          47.000  
R05  20939130.976   111931521.232          46.812    20939135.121    87058200.850          46.875  
R06  24590328.117   131219166.584          39.500    24590330.852   102058413.526          30.688  
R13  24343802.133   129994010.322          33.188    24343807.567   101106847.094          37.500  
R14  20980618.000   111838655.230          44.875    20980626.601    86986103.765          40.375  
R15  20990223.047   112164637.039          50.000    20990228.949    87239686.882          45.500  
R16  24512138.867   130939751.071          36.188    24512144.886   101842148.713          32.875  
R17  22379473.094   119337159.226          45.312    22379477.707    92817818.429          33.688  
R23  23589269.125   126186602.946          44.312    23589275.379    98145483.527          32.875  
R24  21834492.961   116759285.063          44.625    21834495.344    90812150.182          39.000  
E11  27004633.898   141909632.061                    27004637.109   105971756.506                    27004633.547   108736026.816                    27004634.762   107353996.270                  
S27  40074395.156   210591737.349          36.625    40074387.418   157260330.328          41.125                                                  
S28  37994753.031   199663119.069          46.625    37994741.238   149099385.272          44.875                                                  
S29  37565300.688   197406805.776          45.312                                                                                                  
S37  37804418.156   198662860.403          42.500                                                                                                  
J01  44122077.297   231862692.240          33.000                                                    44122084.723   180672246.330          34.812                                                    44122091.645   173143929.891          40.188  
C01  37512902.492   195339760.036          43.375    37512887.230   158729284.089          45.812    37512891.312   151048837.255          46.875  
C02  38166479.320   198742466.557          37.812    38166469.277   161494815.925          43.125    38166472.594   153680564.080          43.188  
C03  36961511.992   192468776.144          43.312    36961500.719   156396040.349          47.688    36961505.793   148828490.783          47.000  
C04  38749989.383   201780605.756          38.125    38749977.406   163963822.785          43.188    38749982.012   156029544.362          41.625  
C05  39727030.219   206868628.051          36.000    39727020.528   168097713.337          39.875    39727025.137   159963954.808          38.625  
C06  39347605.945   204893345.828          39.688    39347593.266   166492652.874          40.875    39347601.098   158436555.975          40.688  
C07  36403247.180   189560962.601          49.688    36403231.508   154034023.654          50.188    36403239.282   146580341.569          48.688  
C08  39548493.594   205939343.278          39.500    39548479.504   167342053.229          40.688    39548487.395   159244860.872          40.875  
C09  37737395.117   196508206.515          45.000    37737382.379   159679675.007          46.125    37737390.445   151953238.785          45.625  
C10  36759409.985   191416321.186          47.375    36759397.363   155541717.063          47.625    36759406.015   148015514.630          46.812  
> 2015 07 13 12 04 50.0000000  0 37
G05  23459709.742   123280962.206          43.875                                                    23459713.125    96064098.304          41.312    23459713.172    96064048.303          28.625                                                  
G07  25842824.445   135804791.497          36.188                                                    25842827.828   105821882.490          33.188    25842828.109   105822336.469          17.812                                                  
G12  25586526.813   134458855.385          37.312                                                    25586533.008   104772806.187          34.875    25586531.883   104772724.175          19.625                                                  
G13  20541655.062   107946780.779          51.312                                                                                                    20541656.266    84114473.940          44.688                                                  
G15  22102771.266   116150793.739          48.125                                                    22102773.769    90507142.077          46.375    22102773.582    90507023.083          38.875                                                  
G17  21774587.867   114425598.971          50.812                                                    21774589.902    89163179.894          46.312    21774590.184    89163340.897          39.500                                                  
G20  23414468.063   123043950.033          43.188                                                                                                    23414469.617    95878305.410          27.188                                                  
G24  24844574.984   130559929.297          38.000                                                    24844581.590   101734327.705          40.500    24844581.637   101733888.690          20.625    24844584.586    97495690.961          44.875  
G28  20929325.078   109984714.139          50.812                                                                                                    20929326.281    85702264.701          39.500                                                  
G30  23186264.515   121845148.905          46.312                                                    23186268.191    94944125.822          43.688    23186268.531    94943680.811          31.500    23186272.887    90988262.390          50.312  
R03  24137048.274   129206987.412          38.000    24137050.539   100495122.537          35.312  
R04  20712229.664   110912785.123          52.875    20712231.110    86266349.369          47.125  
R05  20936637.039   111918193.537          46.375    20936641.652    87047834.865          47.188  
R06  24582674.594   131178317.608          39.688    24582675.098   102026642.138          26.625  
R13  24347424.977   130013353.661          32.000    24347429.707   101121891.893          36.188  
R14  20982267.852   111847445.693          45.375    20982275.164    86992940.789          40.875  
R15  20987995.766   112152727.934          50.688    20988000.613    87230424.252          45.875  
R16  24507128.766   130912998.185          36.125    24507137.719   101821341.079          34.000  
R17  22372363.179   119299254.910          44.000    22372369.551    92788337.334          34.000  
R23  23592084.687   126201667.520          43.688    23592091.766    98157200.379          33.188  
R24  21831598.008   116743805.886          44.500    21831601.211    90800110.832          39.625  
E11  27003599.961   141904198.383                    27003603.156   105967698.886                    27003599.828   108731863.347                    27003600.813   107349885.726                  
S27  40073584.406   210587475.092          36.688    40073576.340   157257147.469          40.875                                                  
S28  37993952.922   199658915.595          46.000    37993941.832   149096229.578          44.875                                                  
S29  37564487.266   197402541.319          45.000                                                                                                  
S37  37803612.344   198658670.021          42.625                                                                                                  
J01  44122161.593   231863125.167          32.188                                                    44122167.203   180672583.684          35.000                                                    44122174.535   173144253.193          40.375  
C01  37512091.899   195335540.038          43.312    37512077.164   158725854.993          46.625    37512081.070   151045574.095          46.312  
C02  38165670.867   198738257.645          37.875    38165660.883   161491395.845          43.000    38165663.906   153677309.492          43.188  
C03  36960621.578   192464137.344          43.312    36960609.660   156392270.951          47.625    36960614.734   148824903.772          47.000  
C04  38749185.461   201776419.747          38.125    38749172.898   163960421.316          42.875    38749177.680   156026307.481          41.625  
C05  39726186.024   206864234.081          36.000    39726177.035   168094142.899          39.500    39726181.527   159960557.136          38.375  
C06  39350127.836   204906478.017          40.312    39350115.039   166503323.862          41.312    39350123.105   158446710.611          41.125  
C07  36402615.414   189557675.291          49.188    36402600.504   154031352.448          50.125    36402608.219   146577799.615          48.812  
C08  39544024.109   205916074.583          39.188    39544011.313   167323145.524          41.312    39544019.144   159226868.066          40.188  
C09  37739797.344   196520721.249          45.188    37739785.367   159689844.259          46.125    37739794.019   151962915.970          45.500  
C10  36758556.125   191411876.237          47.125    36758543.445   155538105.191          47.875    36758552.156   148012077.527          47.625  
> 2015 07 13 12 05  0.0000000  0 37
G05  23464228.594   123304707.994          43.875                                                    23464232.621    96082601.521          41.000    23464231.965    96082551.518          27.688                                                  
G07  25846602.000   135824645.599          31.000                                                                                                                                                                                                  
G12  25579784.687   134423423.563          35.188                                                    25579790.063   104745197.021          34.000    25579789.524   104745114.987          15.625                                                  
G13  20539643.633   107936212.286          51.812                                                                                                    20539645.188    84106238.755          44.625                                                  
G15  22097051.187   116120735.462          49.312                                                    22097054.043    90483720.045          46.188    22097053.973    90483601.051          38.812                                                  
G17  21769552.555   114399142.861          50.688                                                    21769555.703    89142564.755          46.312    21769555.984    89142725.767          39.188                                                  
G20  23415110.351   123047327.707          43.375                                                                                                    23415112.316    95880937.388          25.188                                                  
G24  24839119.125   130531246.500          39.188                                                    24839123.153   101711977.481          40.812    24839123.375   101711538.467          22.000    24839127.027    97474272.017          44.875  
G28  20933180.352   110004970.242          50.875                                                                                                    20933181.086    85718048.687          39.875                                                  
G30  23189238.750   121860778.285          46.312                                                    23189242.074    94956304.567          43.688    23189242.121    94955859.555          31.312    23189246.535    90999933.684          50.188  
R03  24144525.078   129247016.640          37.500    24144530.629   100526256.261          37.812  
R04  20716944.172   110938032.786          52.875    20716946.086    86285986.447          46.875  
R05  20934159.547   111904950.094          46.875    20934164.278    87037534.418          47.188  
R06  24575021.656   131137501.895          35.688    24575026.386   101994896.566          28.375  
R13  24351044.961   130032686.679          32.188    24351049.691   101136928.646          35.812  
R14  20983917.648   111856240.007          45.875    20983925.664    86999780.810          40.625  
R15  20985769.328   112140830.949          50.188    20985774.645    87221171.048          45.688  
R16  24502123.492   130886251.692          37.625    24502130.336   101800538.383          33.125  
R17  22365261.734   119261379.405          44.875    22365266.816    92758878.633          34.312  
R23  23594913.695   126216801.153          42.625    23594920.539    98168970.987          32.375  
R24  21828716.133   116728400.969          43.812    21828719.805    90788129.247          39.688  
E11  27002573.539   141898805.468                    27002576.828   105963671.701                    27002573.359   108727731.104                    27002574.469   107345806.012                  
S27  40072772.187   210583209.398          36.875    40072764.355   157253962.063          40.812                                                  
S28  37993152.109   199654709.381          46.500    37993141.160   149093071.768          44.688                                                  
S29  37563673.828   197398273.044          45.125                                                                                                  
S37  37802818.422   198654476.690          42.500                                                                                                  
J01  44122238.766   231863538.654          32.000                                                                                                                                                                                                  
C01  37511280.953   195331317.627          43.375    37511265.867   158722423.947          45.875    37511270.008   151042309.067          46.312  
C02  38164861.610   198734046.030          37.625    38164852.270   161487973.570          43.688    38164855.469   153674052.812          43.625  
C03  36959729.969   192459495.831          43.312    36959718.519   156388499.347          47.312    36959723.301   148821314.668          46.688  
C04  38748381.406   201772231.114          38.125    38748368.961   163957017.708          42.875    38748373.801   156023068.572          42.188  
C05  39725341.711   206859837.253          35.875    39725332.430   168090570.134          40.000    39725337.039   159957157.260          38.875  
C06  39352650.195   204919608.173          40.812    39352636.750   166513993.188          41.625    39352644.523   158456863.685          41.375  
C07  36401982.976   189554379.800          49.000    36401967.832   154028674.589          50.000    36401975.312   146575251.333          48.375  
C08  39539554.640   205892803.713          38.875    39539542.137   167304236.060          41.125    39539549.852   159208873.582          40.500  
C09  37742201.758   196533242.670          45.375    37742190.133   159700018.933          46.375    37742197.789   151972598.321          44.312  
C10  36757701.227   191407423.777          47.688    36757688.547   155534487.192          47.875    36757696.906   148008634.591          46.812  
> 2015 07 13 12 05 10.0000000  0 37
G05  23468750.305   123328467.499          43.875                                                    23468754.039    96101115.414          41.688    23468753.852    96101065.405          29.188                                                  
G07  25850381.469   135844498.981          33.312                                                    25850383.738   105852823.434          30.375    25850383.844   105853277.426          15.625                                                  
G12  25573046.024   134388005.270          36.500                                                    25573049.875   104717598.361          32.125    25573049.746   104717516.334          16.312                                                  
G13  20537642.125   107925694.830          50.500                                                                                                    20537643.270    84098043.334          44.375                                                  
G15  22091338.235   116090712.962          48.125                                                    22091340.328    90460325.902          46.312    22091340.492    90460206.906          38.812                                                  
G17  21764529.328   114372736.961          51.688                                                    21764530.895    89121988.741          46.688    21764530.824    89122149.751          40.125                                                  
G20  23415761.586   123050751.894          43.688                                                                                                    23415763.844    95883605.581          25.688                                                  
G24  24833658.000   130502559.566          38.188                                                    24833665.426   101689624.058          41.000    24833664.945   101689185.051          20.625    24833667.895    97452849.980          44.625  
G28  20937041.820   110025264.016          50.688                                                                                                    20937042.672    85733862.012          39.375                                                  
G30  23192214.078   121876416.426          47.000                                                    23192218.984    94968490.125          44.688    23192218.738    94968045.110          31.688    23192223.094    91011611.502          50.500  
R03  24152000.594   129287035.972          39.188    24152005.910   100557382.414          36.188  
R04  20721669.766   110963340.910          52.125    20721673.086    86305670.538          47.625  
R05  20931699.422   111891792.823          46.875    20931703.094    87027300.981          47.312  
R06  24567377.164   131096721.570          36.812    24567384.359   101963178.494          31.875  
R13  24354663.656   130052011.344          32.875    24354669.910   101151958.926          37.125  
R14  20985569.313   111865040.065          45.625    20985576.625    87006625.300          40.812  
R15  20983545.156   112128948.158          50.188    20983550.590    87211928.884          46.000  
R16  24497117.430   130859513.274          36.500    24497123.801   101779741.923          30.000  
R17  22358164.898   119223534.724          44.812    22358169.629    92729443.917          34.500  
R23  23597755.922   126232005.737          42.375    23597763.468    98180796.793          32.688  
R24  21825850.906   116713072.608          44.000    21825853.523    90776207.200          39.375  
E11  27001555.375   141893455.296                    27001558.727   105959676.449                    27001555.726   108723631.627                    27001556.551   107341758.647                  
S27  40071959.359   210578943.075          36.312    40071953.027   157250776.410          41.125                                                  
S28  37992352.500   199650503.056          46.500    37992341.059   149089913.758          44.812                                                  
S29  37562864.766   197394003.613          44.500                                                                                                  
S37  37802016.266   198650281.883          42.625                                                                                                  
J01  44122314.078   231863933.553          31.625                                                                                                                                                                                                  
C01  37510469.875   195327094.649          43.188    37510454.906   158718992.436          46.312    37510458.988   151039043.593          46.125  
C02  38164052.859   198729833.418          37.875    38164043.227   161484550.491          43.812    38164046.602   153670795.367          43.500  
C03  36958838.445   192454853.482          43.312    36958827.113   156384727.068          47.625    36958832.363   148817724.912          47.312  
C04  38747576.242   201768041.739          38.125    38747564.383   163953613.506          42.625    38747569.515   156019829.084          41.188  
C05  39724496.891   206855439.409          36.625    39724488.254   168086996.549          40.000    39724492.570   159953756.593          39.188  
C06  39355170.438   204932738.087          39.812    39355157.699   166524662.326          41.500    39355165.883   158467016.583          41.125  
C07  36401348.766   189551077.993          48.812    36401333.445   154025991.600          50.000    36401341.277   146572698.167          48.188  
C08  39535085.469   205869532.520          39.688    39535073.082   167285326.328          40.875    39535080.207   159190878.845          40.500  
C09  37744608.805   196545772.609          45.125    37744596.242   159710200.540          45.812    37744603.899   151982287.277          44.688  
C10  36756845.164   191402965.670          46.688    36756832.305   155530864.625          47.500    36756841.078   148005187.310          46.625  
> 2015 07 13 12 05 20.0000000  0 37
G05  23473273.758   123352244.029          43.625                                                    23473278.898    96119642.568          41.000    23473278.711    96119592.571          28.312                                                  
G07  25854161.398   135864356.649          32.812                                                    25854163.492   105868296.811          34.000    25854162.719   105868750.790          14.812                                                  
G12  25566309.828   134352603.983          37.375                                                    25566313.563   104690012.957          34.625    25566312.848   104689930.944          18.625                                                  
G13  20535651.015   107915231.838          51.188                                                                                                    20535652.981    84089890.353          44.688                                                  
G15  22085632.836   116060729.934          48.625                                                    22085635.516    90436962.507          46.812    22085635.387    90436843.513          39.312                                                  
G17  21759513.399   114346384.793          50.688                                                    21759516.195    89101454.596          46.875    21759516.066    89101615.602          39.125                                                  
G20  23416423.844   123054225.960          43.188                                                                                                    23416425.808    95886312.648          26.688                                                  
G24  24828198.953   130473871.861          37.688                                                    24828206.144   101667270.026          40.688    24828205.898   101666831.015          21.812    24828209.903    97431427.376          45.188  
G28  20940911.258   110045598.781          50.312                                                                                                    20940912.871    85749707.286          40.000                                                  
G30  23195192.008   121892066.742          45.875                                                    23195197.324    94980685.154          43.812    23195197.137    94980240.149          31.625    23195201.551    91023298.417          50.625  
R03  24159473.602   129327049.035          34.625    24159478.918   100588503.697          35.625  
R04  20726408.625   110988712.743          52.000    20726409.601    86325404.175          47.188  
R05  20929254.461   111878725.220          47.375    20929258.840    87017137.294          47.188  
R06  24559746.805   131055980.173          38.500    24559748.836   101931490.796          29.625  
R13  24358282.938   130071331.159          32.312    24358287.199   101166985.449          36.500  
R14  20987221.063   111873849.497          45.188    20987228.727    87013477.083          40.812  
R15  20981324.641   112117083.279          50.312    20981331.012    87202700.639          46.375  
R16  24492114.055   130832786.535          36.312    24492121.133   101758954.501          32.188  
R17  22351073.211   119185724.556          45.000    22351078.645    92700036.013          33.688  
R23  23600611.711   126247284.760          42.875    23600619.140    98192680.470          32.500  
R24  21822998.797   116697824.291          44.188    21823001.883    90764347.415          39.125  
E11  27000546.610   141888151.252                    27000549.008   105955715.643                    27000546.148   108719567.497                    27000546.914   107337746.182                  
S27  40071148.203   210574678.920          36.500    40071141.168   157247591.959          41.312                                                  
S28  37991551.250   199646298.304          46.375    37991540.652   149086959.820          45.000                                                  
S29  37562053.406   197389737.432          45.188                                                                                                  
S37  37801220.812   198646090.631          42.688                                                                                                  
J01  44122387.484   231864313.405          32.312                                                    44122393.562   180673509.581          34.188                                                    44122400.426   173145140.519          40.188  
C01  37509659.648   195322874.545          43.375    37509644.270   158715563.244          46.375    37509648.528   151035780.327          45.812  
C02  38163244.508   198725623.359          37.500    38163234.465   161481129.483          43.125    38163237.781   153667539.893          43.625  
C03  36957947.375   192450213.753          43.375    36957935.984   156380956.907          47.625    36957941.117   148814137.189          47.812  
C04  38746772.781   201763855.045          38.312    38746760.394   163950211.477          43.000    38746765.176   156016591.674          41.188  
C05  39723652.813   206851043.999          36.125    39723644.058   168083424.942          39.375    39723648.492   159950357.808          39.000  
C06  39357693.672   204945871.317          40.125    39357679.992   166535334.155          41.188    39357687.649   158477172.030          40.375  
C07  36400714.156   189547773.274          48.688    36400699.012   154023306.251          50.188    36400706.844   146570142.754          48.125  
C08  39530616.429   205846264.493          38.875    39530604.571   167266419.178          40.875    39530611.816   159172886.563          41.125  
C09  37747017.344   196558314.512          45.875    37747004.898   159720391.862          46.125    37747012.555   151991985.478          44.375  
C10  36755988.461   191398505.353          46.312    36755975.722   155527240.257          47.625    36755984.316   148001738.327          46.125  
> 2015 07 13 12 05 30.0000000  0 37
G05  23477801.961   123376035.137          43.375                                                    23477805.461    96138181.096          41.625    23477805.449    96138131.105          29.125                                                  
G07  25857937.656   135884215.807          38.625                                                    25857942.621   105883771.505          34.188    25857942.609   105884225.484          18.312                                                  
G12  25559575.492   134317217.406          37.312                                                    25559579.461   104662439.047          36.188    25559579.625   104662357.013          19.625                                                  
G13  20533670.203   107904821.134          50.688                                                                                                    20533671.582    84081778.125          44.375                                                  
G15  22079934.047   116030783.984          48.188                                                    22079936.492    90413628.007          46.375    22079936.363    90413509.018          39.000                                                  
G17  21754508.234   114320084.247          50.875                                                    21754511.617    89080960.676          47.312    21754511.606    89081121.680          39.688                                                  
G20  23417092.273   123057747.559          42.688                                                                                                    23417095.469    95889056.756          24.688                                                  
G24  24822740.570   130445181.304          38.625                                                    24822746.004   101644913.765          41.125    24822746.051   101644474.758          22.000    24822750.113    97410002.638          44.812  
G28  20944787.351   110065972.179          49.625                                                                                                    20944788.965    85765582.660          39.000                                                  
G30  23198172.938   121907726.975          46.625                                                    23198176.672    94992887.925          43.625    23198176.953    94992442.922          32.188    23198181.426    91034992.738          50.625  
R03  24166950.414   129367053.079          40.000    24166954.676   100619617.958          37.125  
R04  20731158.406   111014145.896          52.500    20731159.266    86345185.518          47.000  
R05  20926826.610   111865745.095          47.500    20926830.520    87007041.649          47.000  
R06  24552115.156   131015275.882          38.375    24552122.000   101899832.026          30.312  
R13  24361900.695   130090643.583          33.875    24361904.250   101182006.191          36.688  
R14  20988875.765   111882665.828          45.500    20988882.727    87020334.218          40.188  
R15  20979107.117   112105234.090          50.000    20979113.020    87193484.612          45.875  
R16  24487111.422   130806069.222          37.000    24487118.851   101738174.474          32.125  
R17  22343987.141   119147946.467          43.875    22343994.219    92670653.093          34.375  
R23  23603481.273   126262635.734          41.875    23603487.879    98204620.128          31.375  
R24  21820161.898   116682653.952          44.625    21820164.164    90752548.269          39.125  
E11  26999545.352   141882891.165                    26999548.187   105951787.655                    26999545.281   108715537.036                    26999546.070   107333766.955                  
S27  40070337.922   210570416.039          36.875    40070330.183   157244408.959          40.875                                                  
S28  37990752.797   199642093.506          46.625    37990740.629   149083802.920          45.000                                                  
S29  37561240.453   197385471.757          45.000                                                                                                  
S37  37800417.453   198641899.350          42.812                                                                                                  
J01  44122453.937   231864676.890          32.375                                                    44122460.895   180673792.829          35.000                                                    44122468.051   173145411.958          40.188  
C01  37508849.961   195318655.039          43.188    37508834.465   158712134.551          46.375    37508838.547   151032517.541          46.625  
C02  38162435.727   198721413.628          37.375    38162426.094   161477708.751          43.312    38162429.351   153664284.677          43.000  
C03  36957056.719   192445574.356          43.312    36957045.094   156377187.032          47.625    36957050.051   148810549.723          47.188  
C04  38745968.735   201759668.791          38.125    38745956.406   163946809.808          43.188    38745961.539   156013354.599          41.625  
C05  39722808.547   206846648.764          36.312    39722799.910   168079853.475          39.812    39722804.519   159946959.160          39.125  
C06  39360215.586   204959005.458          39.688    39360202.551   166546006.721          41.688    39360210.148   158487328.189          41.125  
C07  36400078.282   189544463.385          50.188    36400062.902   154020616.699          50.312    36400070.617   146567583.338          48.125  
C08  39526149.164   205822997.205          39.375    39526136.543   167247512.619          41.000    39526143.551   159154894.836          39.812  
C09  37749427.766   196570866.055          44.875    37749415.731   159730591.026          45.375    37749423.328   152001691.135          44.875  
C10  36755131.461   191394040.545          46.688    36755118.722   155523612.241          47.375    36755127.258   147998285.858          47.000  
> 2015 07 13 12 05 40.0000000  0 37
G05  23482330.758   123399837.233          44.312                                                    23482335.664    96156728.192          41.375    23482335.301    96156678.186          29.375                                                  
G07  25861716.266   135904073.123          35.125                                                    25861721.113   105899244.754          35.375    25861720.867   105899698.740          18.312                                                  
G12  25552843.648   134281842.236          37.625                                                    25552847.500   104634874.038          34.500    25552848.016   104634792.042          17.812                                                  
G13  20531698.203   107894459.335          50.500                                                                                                    20531699.347    84073703.992          44.312                                                  
G15  22074241.758   116000871.834          48.500                                                    22074245.082    90390319.849          46.812    22074244.895    90390200.856          39.000                                                  
G17  21749512.078   114293831.874          49.688                                                    21749515.754    89060504.309          47.000    21749515.860    89060665.305          38.875                                                  
G20  23417771.656   123061313.029          42.875                                                                                                    23417773.328    95891835.044          24.875                                                  
G24  24817279.930   130416484.292          38.812                                                    24817284.953   101622552.491          41.125    24817284.648   101622113.470          21.688    24817288.652    97388573.085          44.688  
G28  20948671.094   110086380.700          49.625                                                                                                    20948673.293    85781485.408          39.375                                                  
G30  23201152.680   121923393.708          46.688                                                    23201157.937    95005095.777          43.875    23201158.160    95004650.763          31.312    23201162.867    91046691.920          50.500  
R03  24174417.414   129407044.541          34.812    24174424.492   100650722.374          35.812  
R04  20735917.524   111039636.670          52.312    20735919.672    86365011.690          46.812  
R05  20924413.203   111852848.871          46.688    20924418.168    86997011.255          47.000  
R06  24544496.211   130974604.957          39.188    24544499.883   101868199.055          31.875  
R13  24365513.953   130109945.647          33.688    24365519.387   101197018.884          36.812  
R14  20990529.828   111891485.759          46.125    20990537.258    87027194.161          40.812  
R15  20976891.977   112093396.881          50.000    20976898.230    87184277.907          45.875  
R16  24482111.196   130779357.707          37.125    24482118.625   101717398.946          32.125  
R17  22336909.047   119110197.585          45.500    22336914.949    92641292.868          34.812  
R23  23606361.086   126278054.998          41.188    23606368.984    98216612.904          30.188  
R24  21817338.117   116667558.127          44.125    21817341.555    90740807.091          39.312  
E11  26998551.726   141877671.580                    26998554.875   105947889.917                    26998552.016   108711537.621                    26998552.906   107329818.378                  
S27  40069525.656   210566149.831          36.875    40069518.199   157241223.123          40.500                                                  
S28  37989951.984   199637887.195          47.000    37989940.801   149080644.370          44.688                                                  
S29  37560429.688   197381201.935          44.625                                                                                                  
S37  37799623.109   198637704.306          42.875                                                                                                  
J01  44122521.516   231865020.126          32.188                                                    44122526.832   180674060.304          34.688                                                    44122533.519   173145668.288          39.688  
C01  37508038.273   195314432.695          43.188    37508023.246   158708703.550          46.375    37508027.269   151029252.564          45.812  
C02  38161627.055   198717200.711          37.812    38161617.129   161474285.415          42.500    38161620.387   153661026.990          42.812  
C03  36956164.938   192440931.926          43.188    36956153.723   156373414.674          47.812    36956158.621   148806959.906          46.312  
C04  38745163.789   201755479.549          38.125    38745151.813   163943405.702          42.188    38745156.711   156010115.215          41.500  
C05  39721964.086   206842250.282          36.375    39721955.097   168076279.371          39.375    39721959.648   159943558.005          37.812  
C06  39362736.609   204972137.155          39.812    39362724.164   166556677.300          41.312    39362731.644   158497482.444          39.875  
C07  36399440.758   189541144.932          50.000    36399425.613   154017920.184          50.312    36399433.504   146565017.305          48.500  
C08  39521680.883   205799727.748          39.500    39521667.555   167228604.294          40.812    39521674.859   159136901.439          40.312  
C09  37751839.070   196583423.814          45.375    37751827.152   159740795.236          45.875    37751834.867   152011401.599          45.188  
C10  36754272.703   191389567.821          47.375    36754260.140   155519977.783          47.812    36754268.441   147994827.269          46.812  
> 2015 07 13 12 05 50.0000000  0 37
G05  23486863.101   123423652.960          44.125                                                    23486866.367    96175285.887          42.000    23486866.531    96175235.877          27.688                                                  
G07  25865495.258   135923931.168          33.375                                                    25865500.808   105914718.471          33.000    25865500.562   105915172.472          16.312                                                  
G12  25546114.203   134246481.107          36.688                                                    25546118.406   104607319.928          34.000    25546118.805   104607237.924          17.812                                                  
G13  20529736.133   107884149.132          50.188                                                                                                    20529737.980    84065670.070          44.375                                                  
G15  22068557.266   115970996.243          49.312                                                    22068559.770    90367040.177          47.312    22068559.817    90366921.186          39.188                                                  
G17  21744527.117   114267630.433          51.000                                                    21744529.387    89040087.618          47.125    21744529.668    89040248.614          39.625                                                  
G20  23418459.211   123064925.101          43.688                                                                                                    23418461.058    95894649.660          25.500                                                  
G24  24811817.586   130387783.525          37.625                                                    24811823.313   101600188.268          40.312    24811823.301   101599749.290          21.688    24811827.305    97367140.705          44.500  
G28  20952562.219   110106826.830          49.625                                                                                                    20952564.066    85797417.459          39.188                                                  
G30  23204136.789   121939069.578          47.125                                                    23204140.817    95017310.732          44.125    23204140.336    95016865.719          31.500    23204145.277    91058397.919          50.688  
R03  24181891.586   129447026.073          39.812    24181891.152   100681819.179          35.312  
R04  20740689.211   111065187.676          51.875    20740691.946    86384884.683          46.500  
R05  20922016.945   111840039.423          46.812    20922022.379    86987048.362          47.125  
R06  24536882.938   130933970.039          36.625    24536885.203   101836594.226          28.375  
R13  24369127.422   130129239.498          34.188    24369130.976   101212025.183          36.000  
R14  20992187.172   111900311.856          46.000    20992193.543    87034058.909          40.375  
R15  20974680.016   112081574.172          49.688    20974685.918    87175082.466          46.000  
R16  24477112.844   130752654.767          36.875    24477120.859   101696630.116          34.000  
R17  22329835.610   119072480.647          44.625    22329842.332    92611957.494          34.688  
R23  23609259.258   126293545.122          43.000    23609265.629    98228660.800          31.688  
R24  21814530.914   116652539.473          44.000    21814533.180    90729125.921          39.125  
E11  26997566.250   141872495.136                    26997569.695   105944024.401                    26997567.024   108707571.262                    26997567.860   107325902.440                  
S27  40068712.953   210561882.084          36.125    40068705.332   157238036.284          40.312                                                  
S28  37989151.781   199633679.154          46.625    37989139.801   149077484.983          44.875                                                  
S29  37559617.515   197376932.391          44.688                                                                                                  
S37  37798822.844   198633508.759          42.500                                                                                                  
J01  44122583.125   231865345.945          31.188                                                                                                                                                                                                  
C01  37507227.305   195310210.156          43.188    37507212.219   158705272.398          46.500    37507216.125   151025987.437          46.688  
C02  38160817.539   198712987.300          37.875    38160808.082   161470861.680          43.500    38160811.398   153657768.927          43.312  
C03  36955273.289   192436289.072          43.188    36955261.899   156369641.972          47.875    36955266.680   148803369.766          46.812  
C04  38744359.821   201751289.965          38.000    38744347.316   163940001.329          42.500    38744352.039   156006875.571          41.188  
C05  39721119.351   206837851.243          36.125    39721110.070   168072704.814          39.875    39721114.504   159940156.416          37.188  
C06  39365259.844   204985268.986          40.375    39365245.871   166567347.988          41.125    39365253.879   158507636.813          40.688  
C07  36398802.742   189537820.493          49.688    36398787.305   154015218.812          49.875    36398795.195   146562446.639          48.500  
C08  39517210.985   205776458.402          39.125    39517198.949   167209696.051          41.188    39517206.254   159118908.102          41.125  
C09  37754252.133   196595990.439          44.875    37754240.625   159751006.650          45.812    37754248.985   152021118.918          45.000  
C10  36753412.133   191385089.717          47.188    36753399.746   155516338.959          47.625    36753408.047   147991364.514          46.375  
