     3.02           Observation data    Mixed               RINEX VERSION / TYPE
BNC 2.8             Weber               20130126 142124 UTC PGM / RUN BY / DATE
CUT0                                                        MARKER NAME
59945M001                                                   MARKER NUMBER
Noor Raziq          GNSS @ Curtin                           OBSERVER / AGENCY
5023K67889          TRIMBLE NETR9       4.62                REC # / TYPE / VERS
4928353386          TRM59800.00     SCIS                    ANT # / TYPE
 -2364339.9636  4870289.3269 -3360812.6932                  APPROX POSITION XYZ
        0.0000        0.0000        0.0000                  ANTENNA: DELTA H/E/N
C    9 C2I L2I S2I C7I L7I S7I C6I L6I S6I                  SYS / # / OBS TYPES
E   12 C1X L1X S1X C5X L5X S5X C7X L7X S7X C8X L8X S8X      SYS / # / OBS TYPES
G   12 C1C L1C S1C C2W L2W S2W C2X L2X S2X C5X L5X S5X      SYS / # / OBS TYPES
J   15 C1C L1C S1C C1X L1X S1X C2X L2X S2X C5X L5X S5X C6X  SYS / # / OBS TYPES
       L6X S6X                                              SYS / # / OBS TYPES
R   12 C1C L1C S1C C1P L1P S1P C2C L2C S2C C2P L2P S2P      SYS / # / OBS TYPES
S    3 C1C L1C S1C                                          SYS / # / OBS TYPES
    30.000                                                  INTERVAL
  2012    12    15     0     0    0.0000000     GPS         TIME OF FIRST OBS
                                                            END OF HEADER
> 2012 12 15 00 00  0.0000000  0 33
G28  26003178.44515 136647647.24615        35.100                                                                                                                                                  
R02  22282006.797 7 118901206.206 7        46.700    22282006.523 7 118901020.187 7        45.600    22282016.375 6  92478632.193 6        36.500    22282016.926 5  92478639.192 5        35.700  
R15  23642970.625 6 126340839.750 6        38.800    23642970.820 6 126340814.761 6        37.600    23642983.844 6  98265150.664 6        38.400    23642984.391 6  98265152.667 6        37.800  
G10  21504109.148 8 113004800.304 8        50.800    21504113.457 6  88055725.58046        40.200                                                                                                  
G04  22342578.609 8 117410975.815 8        48.700    22342583.738 5  91489088.38845        32.300                                                                                                  
G20  23597190.195 7 124004072.862 7        42.700    23597199.484 3  96626535.75843        22.300                                                                                                  
R13  20328240.875 8 108551610.478 8        53.700    20328240.836 8 108551617.480 8        52.000    20328247.754 8  84429094.350 8        48.600    20328247.719 8  84429100.356 8        48.200  
R04  21149334.250 8 113253698.345 8        50.100    21149333.625 8 113253622.347 8        48.200    21149338.785 7  88086226.745 7        46.000    21149339.215 7  88086232.747 7        46.100  
G13  21399931.859 8 112457474.966 8        51.500    21399935.758 6  87629166.39946        40.500                                                                                                  
R12  24676901.820 6 131819367.816 6        39.700    24676902.719 6 131819482.807 6        38.000    24676913.160 5 102526263.816 5        35.500    24676914.410 5 102526257.815 5        33.500  
R03  19614643.328 8 104998764.717 8        51.900    19614642.230 8 104998707.719 8        49.800    19614647.512 8  81665702.680 8        50.700    19614648.059 8  81665703.684 8        49.900  
G07  20121147.328 8 105737352.561 8        51.600    20121151.344 7  82392755.23747        46.100    20121151.297 8  82392754.238 8        52.300                                                  
G23  23008544.508 7 120910558.594 7        44.600    23008549.578 5  94216174.63345        31.400                                                                                                  
G02  23477640.234 7 123375800.282 7        43.000    23477642.785 4  96137017.52244        28.700                                                                                                  
G16  24087944.711 7 126583178.580 7        44.200    24087951.305 3  98636095.24543        22.300                                                                                                  
R14  19463309.820 8 103750148.499 8        50.100    19463310.367 8 103750347.505 8        49.100    19463319.516 7  80694792.326 7        44.700    19463319.949 7  80694794.324 7        44.400  
J01  41432940.156 6 217731721.653 6        40.500    41432940.215 7 217731699.652 7        42.500    41432949.691 6 169661167.145 6        40.400    41432956.086 7 162591983.474 7        44.900    41432943.172 6 176730345.440 6        40.900  
S29  37515970.109 6 197147642.831 6        41.800  
S27  40050543.703 6 210467028.644 6        36.800  
G08  21247538.305 8 111656655.540 8        48.400    21247543.668 6  87005160.19546        38.200                                                                                                  
C01  37499591.63317 195270209.45417        46.500    37499585.63317 150995286.78317        47.700    37499579.83217 158673020.17917        45.900  
C03  37181095.969 8 193611694.001 8        48.000    37181091.727 7 149712825.176 7        47.500    37181086.80517 157325342.74717        47.900  
C04  38651914.78117 201270639.92917        42.000    38651911.53516 155635198.43516        41.300    38651905.79317 163548843.00517        42.100  
C05  39597588.75816 206194978.14316        38.700    39597587.15216 159443014.53716        39.400    39597580.88316 167550287.73816        39.600  
C30  22195749.60916 115579088.47816        37.300    22195758.08616  89373097.35316        40.200    22195746.42216  93917453.23116        40.100  
C07  36200903.617 8 188507697.618 8        48.800    36200898.672 8 145766126.192 8        48.300    36200890.28918 153177923.67618        51.500  
C13  24232162.34417 126183223.76917        45.800    24232163.26217  97572855.09317        45.800                                                  
C10  37052354.10917 192941347.65517        47.600    37052353.44117 149194491.39517        46.800    37052344.12517 156780603.26717        47.800  
C09  36258523.22718 188807799.56118        49.100    36258521.09418 145998245.88818        49.000    36258512.24618 153421827.04518        50.300  
C02  37932274.10216 197523278.14316        41.700    37932270.09417 152737492.37717        44.100    37932265.40617 160503807.13517        43.600  
C06  36802993.74218 191642982.81418        48.100    36802991.43417 148190567.71317        47.700    36802983.69917 155725639.09717        47.800  
S37  37751199.391 7 198383830.912 7        42.100  
S28  37966084.250 7 199513167.009 7        43.300  
> 2012 12 15 00 00 30.0000000  0 33
G28  25981659.24215 136534558.10015        34.400                                                                                                                                                  
R02  22297367.555 7 118983173.351 7        46.700    22297367.047 7 118982987.353 7        46.000    22297377.723 5  92542384.281 5        35.900    22297377.684 5  92542391.263 5        35.900  
R15  23619360.922 6 126214674.901 6        39.800    23619361.586 6 126214649.927 6        38.700    23619374.609 6  98167022.540 6        39.400    23619374.102 6  98167024.551 6        37.900  
G10  21489852.938 8 112929881.565 8        51.600    21489856.777 6  87997347.32546        40.500                                                                                                  
G04  22349765.484 7 117448756.349 7        47.600    22349772.898 5  91518527.70245        31.300                                                                                                  
G20  23614675.039 7 124095951.687 7        42.600    23614683.684 4  96698129.43244        24.200                                                                                                  
R13  20341960.727 9 108624871.109 9        54.100    20341960.805 8 108624878.104 8        50.700    20341967.605 8  84486074.795 8        48.600    20341967.570 7  84486080.795 7        47.700  
R04  21131082.125 8 113155959.102 8        50.400    21131081.500 8 113155883.124 8        49.100    21131087.012 7  88010207.354 7        46.500    21131087.559 7  88010213.356 7        46.000  
G13  21404134.867 8 112479562.887 8        50.700    21404139.234 6  87646377.72546        40.400                                                                                                  
R12  24699780.820 6 131941578.086 6        37.300    24699780.078 5 131941693.099 5        35.400    24699790.867 5 102621316.287 5        33.600    24699791.652 5 102621310.293 5        32.300  
R03  19614299.172 8 104996924.549 8        52.300    19614299.836 8 104996867.564 8        50.500    19614304.879 8  81664271.400 8        50.000    19614305.543 8  81664272.404 8        50.000  
G07  20120182.039 8 105732279.342 8        51.500    20120186.055 7  82388802.06647        46.100    20120185.891 8  82388801.066 8        52.700                                                  
G23  23019191.469 7 120966505.115 7        46.000    23019196.363 5  94259769.22945        31.500                                                                                                  
G02  23475110.805 7 123362521.269 7        42.900    23475116.051 4  96126670.21844        27.600                                                                                                  
G16  24095227.570 7 126621455.061 7        43.100    24095234.750 3  98665921.04543        21.300                                                                                                  
R14  19455288.883 8 103707388.546 8        50.300    19455288.961 8 103707587.554 8        49.500    19455297.758 7  80661534.592 7        44.600    19455298.188 7  80661536.590 7        43.800  
J01  41442446.859 6 217781676.769 6        38.600    41442446.281 7 217781654.768 7        42.500    41442455.457 6 169700093.097 6        38.300    41442462.848 7 162629287.498 7        45.100    41442450.168 6 176770893.339 6        41.600  
S29  37514985.594 6 197142520.008 6        41.800  
S27  40049546.109 6 210461788.748 6        37.700  
G08  21232948.125 8 111579982.494 8        49.200    21232953.430 6  86945414.99646        38.400                                                                                                  
C01  37498491.227 7 195264480.801 7        46.900    37498485.578 7 150990857.007 7        47.500    37498479.660 7 158668365.172 7        45.700  
C03  37179934.680 7 193605647.597 7        47.500    37179930.672 8 149708149.701 8        48.200    37179925.750 8 157320429.542 8        48.200  
C04  38650981.906 7 201265779.155 7        42.100    38650978.309 7 155631439.714 7        42.300    38650972.391 7 163544893.181 7        42.600  
C05  39596450.180 6 206189049.535 6        38.200    39596448.926 6 159438430.144 6        39.600    39596441.953 6 167545470.239 6        39.000  
C30  22174791.570 6 115469946.608 6        38.100    22174799.227 7  89288701.937 7        42.000    22174786.977 6  93828766.528 6        40.700  
C07  36201460.508 8 188510599.161 8        50.900    36201455.973 8 145768369.826 8        50.200    36201447.828 8 153180281.397 8        51.100  
C13  24246105.227 7 126255827.806 7        45.900    24246107.727 7  97628997.009 7        46.300                                                  
C10  37051124.867 7 192934946.767 7        46.700    37051123.965 7 149189541.787 7        47.200    37051114.707 8 156775401.997 8        48.000  
C09  36259527.930 8 188813031.333 8        51.500    36259525.680 8 146002291.409 8        50.700    36259516.656 8 153426078.267 8        49.800  
C02  37931216.289 7 197517768.517 7        42.200    37931211.578 7 152733231.939 7        44.200    37931207.301 7 160499330.074 7        43.200  
C06  36807322.438 8 191665521.024 8        48.200    36807319.836 7 148207995.639 7        47.900    36807311.574 8 155743953.197 8        48.400  
S37  37750233.734 6 198378727.720 6        41.400  
S28  37965111.563 7 199508094.532 7        43.300  
> 2012 12 15 00 01  0.0000000  0 33
G28  25960097.375 5 136421249.207 5        34.900                                                                                                                                                  
R02  22312799.344 7 119065520.601 7        46.200    22312799.305 7 119065334.585 7        45.200    22312809.156 5  92606431.958 5        35.600    22312809.707 5  92606438.947 5        35.200  
R15  23595792.914 6 126088731.774 6        39.900    23595792.758 6 126088706.809 6        38.400    23595805.660 6  98069066.938 6        39.000    23595805.270 6  98069068.938 6        38.000  
G10  21475655.680 8 112855274.572 8        53.000    21475659.871 6  87939211.99546        40.300                                                                                                  
G04  22357037.992 8 117486967.202 8        48.600    22357044.176 5  91548302.31245        32.300                                                                                                  
G20  23632200.000 7 124188046.835 7        43.300    23632208.645 3  96769891.65143        22.900                                                                                                  
R13  20355772.398 8 108698633.688 8        52.500    20355772.594 8 108698640.697 8        50.200    20355780.102 8  84543445.629 8        48.500    20355780.297 8  84543451.629 8        48.300  
R04  21112864.648 8 113058410.032 8        50.800    21112865.078 8 113058334.050 8        49.500    21112869.887 7  87934335.872 7        46.700    21112870.668 7  87934341.880 7        46.200  
G13  21408358.820 8 112501762.455 8        50.300    21408363.656 6  87663676.04446        40.500                                                                                                  
R12  24722649.789 6 132063740.621 6        37.700    24722650.336 6 132063855.642 6        36.100    24722660.309 5 102716331.666 5        33.500    24722661.910 5 102716325.673 5        33.700  
R03  19614059.695 8 104995638.615 8        52.500    19614059.539 8 104995581.616 8        50.600    19614064.348 8  81663271.197 8        50.500    19614064.895 8  81663272.193 8        50.300  
G07  20119314.109 8 105727716.436 8        52.100    20119318.125 7  82385246.54047        46.400    20119317.844 8  82385245.541 8        52.400                                                  
G23  23029851.805 7 121022519.905 7        45.900    23029856.348 5  94303417.00745        32.300                                                                                                  
G02  23472683.273 7 123349755.686 7        43.700    23472687.172 4  96116722.98344        28.300                                                                                                  
G16  24102606.672 7 126660235.979 7        42.500    24102614.730 3  98696139.89243        22.000                                                                                                  
R14  19447402.242 8 103665353.640 8        50.300    19447402.906 8 103665552.661 8        49.500    19447411.703 7  80628840.791 7        43.900    19447412.133 7  80628842.782 7        43.600  
J01  41451941.656 6 217831572.000 6        39.800    41451941.684 7 217831549.999 7        43.200    41451950.547 6 169738972.412 6        38.800    41451957.703 7 162666546.804 7        44.900    41451944.379 6 176811392.631 6        41.400  
S29  37514015.172 7 197137403.304 7        42.200  
S27  40048558.859 6 210456552.354 6        37.700  
G08  21218447.594 8 111503782.447 8        51.500    21218453.309 6  86886038.36046        38.900                                                                                                  
C01  37497392.578 7 195258758.653 7        46.700    37497386.578 7 150986432.267 7        47.300    37497380.660 7 158663715.442 7        46.000  
C03  37178774.336 8 193599605.124 8        48.000    37178770.152 8 149703477.268 8        48.000    37178765.172 8 157315519.524 8        48.000  
C04  38650049.047 6 201260923.853 6        41.700    38650045.742 7 155627685.222 7        42.200    38650040.176 7 163540947.791 7        42.400  
C05  39595312.094 6 206183125.519 6        38.300    39595311.016 6 159433849.301 6        39.500    39595304.688 6 167540656.478 6        39.400  
C30  22153836.016 6 115360826.472 6        37.400    22153843.086 6  89204323.305 6        40.500    22153832.359 6  93740097.459 6        41.600  
C07  36202026.180 8 188513543.146 8        50.800    36202021.703 8 145770646.285 8        49.800    36202013.203 8 153182673.607 8        50.900  
C13  24260093.273 7 126328669.717 7        44.900    24260095.598 7  97685322.878 7        46.200                                                  
C10  37049908.883 7 192928614.070 7        47.600    37049907.863 7 149184644.915 7        47.400    37049898.605 7 156770256.136 7        47.400  
C09  36260559.414 8 188818403.839 8        50.900    36260557.809 8 146006445.746 8        50.000    36260548.902 8 153430443.851 8        50.300  
C02  37930159.750 6 197512265.561 6        41.700    37930155.273 7 152728976.668 7        43.800    37930150.762 7 160494858.446 7        43.400  
C06  36811676.250 8 191688189.153 8        48.100    36811673.707 7 148225524.012 7        47.800    36811665.680 8 155762372.856 8        48.800  
S37  37749265.500 7 198373628.884 7        42.100  
S28  37964150.250 7 199503024.995 7        43.000  
> 2012 12 15 00 01 30.0000000  0 34
G28  25938494.563 5 136307728.287 5        34.600                                                                                                                                                  
R02  22328303.641 7 119148252.082 7        46.900    22328303.484 7 119148066.074 7        45.500    22328312.750 6  92670778.478 6        36.300    22328313.531 6  92670785.474 6        36.000  
R15  23572266.320 6 125963018.973 6        39.400    23572266.633 6 125962993.984 6        37.700    23572279.891 6  97971290.509 6        39.200    23572279.852 6  97971292.509 6        37.100  
G10  21461518.664 8 112780987.010 8        53.300    21461522.855 6  87881325.57346        40.400                                                                                                  
G05  26036115.50016 136820698.47616        36.900    26036123.73412 106613572.68552        14.800    26036123.45315 106613567.64915        31.000                                                  
G04  22364390.750 7 117525611.354 7        47.300    22364398.164 5  91578414.58545        31.500                                                                                                  
G20  23649767.305 7 124280361.945 7        43.400    23649775.832 3  96841825.29843        23.900                                                                                                  
R13  20369680.781 8 108772899.699 8        51.700    20369681.445 8 108772906.701 8        50.300    20369689.188 8  84601208.013 8        48.200    20369689.500 8  84601214.013 8        48.000  
R04  21094685.844 8 112961059.672 8        51.200    21094685.219 8 112960983.681 8        49.600    21094690.379 7  87858618.937 7        45.800    21094691.043 7  87858624.938 7        46.300  
G13  21412605.813 8 112524078.974 8        50.900    21412610.414 6  87681065.49846        39.800                                                                                                  
R12  24745510.711 6 132185858.536 6        38.800    24745510.320 6 132185973.556 6        36.600    24745521.113 5 102811312.296 5        34.100    24745522.012 5 102811306.296 5        34.500  
R03  19613924.484 8 104994914.031 8        52.100    19613923.859 8 104994857.041 8        50.400    19613928.785 8  81662707.590 8        49.800    19613929.566 8  81662708.587 8        49.700  
G07  20118543.609 9 105723668.120 9        54.100    20118548.270 7  82382091.99847        46.400    20118548.223 8  82382090.998 8        52.800                                                  
G23  23040524.688 7 121078608.257 7        47.900    23040529.816 5  94347122.09045        32.400                                                                                                  
G02  23470352.563 7 123337508.524 7        43.000    23470356.461 4  96107179.71944        29.700                                                                                                  
G16  24110083.297 7 126699525.323 7        42.600    24110091.590 3  98726754.93843        21.800                                                                                                  
R14  19439654.906 8 103624049.562 8        50.900    19439654.867 8 103624248.583 8        49.300    19439663.547 7  80596715.413 7        44.700    19439663.742 7  80596717.409 7        44.600  
J01  41461425.016 6 217881412.374 6        38.400    41461425.141 7 217881390.365 7        42.100    41461434.668 6 169777808.943 6        38.600    41461441.473 7 162703765.140 7        44.900    41461429.086 6 176851847.390 6        41.200  
S29  37513034.516 7 197132294.221 7        42.600  
S27  40047555.922 6 210451325.392 6        37.500  
G08  21204037.914 8 111428062.033 8        51.400    21204044.801 6  86827035.45546        38.700                                                                                                  
C01  37496295.461 7 195253048.374 7        46.600    37496289.754 7 150982016.692 7        47.100    37496284.188 7 158659075.346 7        46.200  
C03  37177615.672 8 193593571.883 8        48.100    37177611.313 7 149698811.963 7        47.300    37177606.625 8 157310617.009 8        48.200  
C04  38649119.148 6 201256079.367 6        41.800    38649115.434 6 155623939.105 6        41.700    38649109.457 7 163537011.210 7        42.500  
C05  39594176.383 6 206177211.577 6        38.300    39594175.305 6 159429276.257 6        39.700    39594168.684 6 167535850.911 6        39.500  
C30  22132887.750 6 115251745.847 6        36.900    22132895.230 6  89119975.260 6        41.600    22132883.625 6  93651460.526 6        40.600  
C07  36202600.680 8 188516534.442 8        49.300    36202595.676 8 145772959.321 8        49.200    36202587.469 8 153185104.263 8        51.200  
C13  24274128.570 7 126401753.965 7        45.000    24274131.305 7  97741836.094 7        46.300                                                  
C10  37048706.719 7 192922354.482 7        47.200    37048705.934 7 149179804.580 7        46.600    37048696.910 7 156765169.690 7        47.300  
C09  36261619.258 8 188823922.545 8        49.800    36261617.945 8 146010713.127 8        49.300    36261608.688 8 153434928.228 8        50.500  
C02  37929105.211 7 197506774.522 7        42.000    37929100.793 7 152724730.616 7        43.400    37929096.340 7 160490396.506 7        42.700  
C06  36816055.477 8 191710992.389 8        48.700    36816052.523 8 148243156.882 8        48.000    36816044.555 8 155780902.323 8        48.800  
S37  37748291.547 7 198368539.677 7        42.000  
S28  37963169.531 7 199497965.391 7        43.200  
> 2012 12 15 00 02  0.0000000  0 34
G28  25916853.305 6 136193997.086 6        36.800                                                                                                                                                  
R02  22343879.250 7 119231366.100 7        47.600    22343879.211 7 119231180.098 7        45.300    22343888.828 5  92735422.521 5        35.900    22343889.262 6  92735429.517 6        36.200  
R15  23548787.336 6 125837538.954 6        40.600    23548786.355 6 125837513.968 6        38.300    23548798.793 6  97873695.113 6        38.600    23548798.051 6  97873697.113 6        37.300  
G10  21447443.391 8 112707021.045 8        51.700    21447448.109 6  87823689.74646        40.200                                                                                                  
G05  26015234.078 4                        28.300                                                                                                                                                  
G04  22371828.078 8 117564686.295 8        48.300    22371833.910 5  91608862.51045        31.900                                                                                                  
G20  23667375.938 7 124372894.572 7        42.200    23667384.641 3  96913928.44143        22.500                                                                                                  
R13  20383682.195 8 108847664.497 8        51.700    20383682.039 8 108847671.521 8        50.500    20383689.547 8  84659358.348 8        48.900    20383689.977 7  84659364.347 7        47.600  
R04  21076544.234 8 112863910.709 8        51.500    21076542.785 8 112863834.717 8        49.100    21076548.184 7  87783058.629 7        46.600    21076548.613 7  87783064.638 7        46.300  
G13  21416874.148 8 112546512.341 8        50.800    21416879.570 6  87698545.99946        39.800                                                                                                  
R12  24768363.070 6 132307928.776 6        38.300    24768361.621 6 132308043.763 6        37.200    24768372.648 5 102906255.787 5        34.100    24768373.785 5 102906249.802 5        32.900  
R03  19613893.766 8 104994752.042 8        51.800    19613893.375 8 104994695.056 8        50.200    19613898.535 8  81662581.564 8        50.500    19613899.199 8  81662582.567 8        50.300  
G07  20117870.766 8 105720132.544 8        52.200    20117874.781 7  82379336.99847        46.800    20117874.793 8  82379335.999 8        53.200                                                  
G23  23051211.938 7 121134770.200 7        47.600    23051217.359 5  94390884.52845        32.800                                                                                                  
G02  23468121.242 7 123325779.217 7        44.100    23468123.910 4  96098039.97144        29.200                                                                                                  
G16  24117656.531 7 126739321.739 7        42.500    24117664.121 3  98757765.07943        21.300                                                                                                  
R14  19432042.797 8 103583476.231 8        50.600    19432043.930 8 103583675.229 8        49.200    19432052.727 7  80565158.395 7        44.600    19432052.926 7  80565160.392 7        43.900  
J01  41470899.563 6 217931197.045 6        39.400    41470899.520 7 217931175.043 7        42.400    41470907.809 6 169816602.121 6        38.500    41470915.258 7 162740941.896 7        44.700    41470903.047 6 176892256.955 6        41.700  
S29  37512067.266 7 197127193.631 7        42.200  
S27  40046564.563 6 210446107.058 6        36.200  
G08  21189720.516 8 111352822.257 8        50.200    21189726.582 6  86768407.06846        39.600                                                                                                  
C01  37495201.148 7 195247349.396 7        46.500    37495195.383 7 150977609.863 7        47.300    37495189.934 7 158654444.449 7        46.000  
C03  37176458.758 8 193587547.471 8        48.600    37176454.867 8 149694153.489 8        48.300    37176449.945 8 157305721.661 8        48.600  
C04  38648190.531 6 201251245.217 6        41.600    38648187.168 6 155620200.997 6        41.600    38648181.250 7 163533083.036 7        42.200  
C05  39593043.563 6 206171307.175 6        38.200    39593041.313 6 159424710.576 6        39.200    39593034.750 6 167531053.083 6        39.400  
C30  22111945.281 6 115142695.835 6        37.200    22111953.406 6  89035650.933 6        40.800    22111941.742 6  93562848.507 6        40.700  
C07  36203184.063 8 188519572.228 8        51.600    36203179.117 8 145775308.299 8        50.700    36203170.617 8 153187572.692 8        51.000  
C13  24288210.055 7 126475079.037 7        45.600    24288212.438 7  97798535.576 7        45.800                                                  
C10  37047518.305 7 192916167.033 7        47.800    37047517.988 7 149175020.036 7        47.200    37047508.730 7 156760141.868 7        47.900  
C09  36262706.945 8 188829587.258 8        51.500    36262705.516 8 146015093.428 8        50.200    36262696.316 8 153439531.257 8        50.200  
C02  37928052.758 6 197501294.981 6        41.700    37928048.164 7 152720493.460 7        44.000    37928043.594 7 160485943.897 7        43.100  
C06  36820459.266 8 191733930.350 8        48.700    36820457.426 7 148260893.923 7        47.700    36820449.691 8 155799541.261 8        48.400  
S37  37747324.016 6 198363459.813 6        41.600  
S28  37962220.875 7 199492915.537 7        43.000  
> 2012 12 15 00 02 30.0000000  0 34
G28  25895171.016 6 136080054.818 6        36.000                                                                                                                                                  
R02  22359524.766 7 119314859.756 7        46.100    22359525.664 7 119314673.767 7        45.100    22359535.988 6  92800361.839 6        36.600    22359536.770 5  92800368.837 5        35.600  
R15  23525345.383 6 125712292.046 6        39.600    23525347.102 6 125712267.045 6        38.500    23525359.422 6  97776281.063 6        38.000    23525359.383 6  97776283.066 6        36.900  
G10  21433428.875 8 112633376.920 8        50.400    21433433.770 6  87766304.70346        39.700                                                                                                  
G05  25994352.219 6 136601228.221 6        38.700    25994359.28112 106442556.54052        16.900    25994359.23415 106442551.58015        33.300                                                  
G04  22379344.813 7 117604187.218 7        47.300    22379351.758 5  91639642.39745        32.800                                                                                                  
G20  23685024.586 7 124465641.070 7        42.500    23685033.758 3  96986198.21743        22.600                                                                                                  
R13  20397776.078 8 108922922.180 8        52.500    20397775.805 8 108922929.175 8        51.200    20397783.430 8  84717892.043 8        48.500    20397783.508 8  84717898.043 8        48.300  
R04  21058439.781 8 112766964.460 8        50.500    21058439.391 8 112766888.469 8        49.200    21058444.434 7  87707655.997 7        46.100    21058445.215 7  87707661.998 7        46.100  
G13  21421164.867 8 112569060.037 8        50.500    21421170.406 6  87716115.60046        39.400                                                                                                  
R12  24791206.188 5 132429946.767 5        35.800    24791205.563 5 132430061.758 5        35.400    24791215.180 5 103001158.755 5        30.400    24791216.316 4 103001152.755 4        27.700  
R03  19613968.055 8 104995152.130 8        51.900    19613967.664 8 104995095.146 8        51.000    19613973.059 8  81662892.708 8        50.600    19613973.605 8  81662893.711 8        49.800  
G07  20117295.031 8 105717106.589 8        52.000    20117299.281 7  82376979.10247        46.700    20117298.941 8  82376978.103 8        52.500                                                  
G23  23061913.781 7 121191003.309 7        46.500    23061918.500 5  94434702.42645        32.900                                                                                                  
G02  23465987.992 7 123314564.576 7        43.500    23465990.426 4  96089301.24344        29.500                                                                                                  
G16  24125325.586 6 126779621.649 6        41.800    24125332.707 3  98789167.57143        22.200                                                                                                  
R14  19424567.688 8 103543631.261 8        50.500    19424568.469 8 103543830.258 8        48.900    19424577.500 7  80534167.879 7        44.500    19424577.699 7  80534169.877 7        43.600  
J01  41480362.609 6 217980923.582 6        38.700    41480362.813 7 217980901.571 7        42.600    41480371.441 6 169855349.953 6        39.200    41480378.539 7 162778075.229 7        44.500    41480365.684 7 176932619.310 7        42.100  
S29  37511096.281 6 197122102.487 6        41.800  
S27  40045571.563 6 210440894.814 6        37.300  
G08  21175494.281 8 111278062.217 8        48.700    21175500.348 6  86710152.49346        39.000                                                                                                  
C01  37494108.820 7 195241659.674 7        46.300    37494102.293 7 150973210.189 7        46.700    37494096.961 7 158649821.065 7        46.000  
C03  37175303.117 8 193581529.753 8        48.400    37175299.227 8 149689500.191 8        48.000    37175294.012 8 157300831.766 8        48.100  
C04  38647263.805 7 201246419.239 7        42.000    38647260.617 6 155616469.201 6        41.700    38647254.641 7 163529161.499 7        42.200  
C05  39591910.438 6 206165410.236 6        38.100    39591909.418 6 159420150.684 6        39.600    39591902.563 6 167526261.326 6        39.200  
C30  22091010.070 6 115033676.375 6        38.700    22091018.605 6  88951350.262 6        41.600    22091006.004 6  93474261.340 6        41.600  
C07  36203775.742 8 188522653.701 8        50.700    36203771.031 8 145777691.071 8        50.300    36203762.648 8 153190076.625 8        50.200  
C13  24302337.078 7 126548641.754 7        44.500    24302339.637 7  97855418.808 7        45.500                                                  
C10  37046343.523 7 192910049.395 7        47.100    37046342.914 7 149170289.463 7        46.600    37046333.832 7 156755170.764 7        47.500  
C09  36263822.750 8 188835396.164 8        50.400    36263820.910 8 146019585.228 8        50.700    36263811.887 8 153444251.460 8        50.300  
C02  37927001.867 6 197495824.811 6        41.800    37926997.566 7 152716263.539 7        44.200    37926993.289 7 160481498.915 7        42.900  
C06  36824889.805 7 191757000.819 7        47.500    36824887.613 7 148278733.432 7        47.600    36824880.172 8 155818287.872 8        48.400  
S37  37746365.938 6 198358388.054 6        40.900  
S28  37961259.656 7 199487872.737 7        44.500  
> 2012 12 15 00 03  0.0000000  0 34
G28  25873449.117 5 135965905.317 5        35.600                                                                                                                                                  
R02  22375244.648 7 119398732.604 7        47.600    22375244.844 7 119398546.615 7        45.200    22375254.578 6  92865596.088 6        36.700    22375254.539 5  92865603.084 5        35.900  
R15  23501953.320 6 125587282.364 6        40.100    23501953.047 6 125587257.360 6        38.500    23501965.012 6  97679051.519 6        38.300    23501964.855 6  97679053.525 6        37.100  
G10  21419477.703 8 112560058.351 8        51.700    21419481.836 6  87709173.34046        40.400                                                                                                  
G05  25973461.33615 136491501.55415        34.400                                                    25973468.52715 106357010.33615        34.200                                                  
G04  22386942.133 7 117644113.308 7        47.800    22386948.785 5  91670753.55445        31.700                                                                                                  
G20  23702715.102 7 124558601.031 7        42.900    23702723.336 3  97058634.31843        22.500                                                                                                  
R13  20411961.328 8 108998669.998 8        52.600    20411961.406 8 108998676.993 8        51.200    20411968.680 8  84776806.955 8        49.000    20411968.992 8  84776812.955 8        48.700  
R04  21040374.000 8 112670225.175 8        49.900    21040374.078 8 112670149.190 8        49.200    21040379.121 7  87632414.350 7        46.200    21040379.902 7  87632420.345 7        46.700  
G13  21425477.641 8 112591723.262 8        51.300    21425483.121 6  87733775.21246        39.700                                                                                                  
R12  24814035.539 5 132551912.111 5        34.300    24814036.08615 132552027.17415        32.600    24814046.410 5 103096020.797 5        30.200    24814047.895 4                        28.400  
R03  19614148.289 8 104996117.093 8        52.500    19614148.016 8 104996060.108 8        49.800    19614153.527 8  81663643.197 8        50.000    19614154.074 8  81663644.195 8        50.300  
G07  20116816.070 8 105714590.260 8        53.500    20116820.379 7  82375018.31347        46.200    20116820.332 8  82375017.313 8        52.900                                                  
G23  23072627.922 7 121247308.996 7        47.000    23072632.934 5  94478576.86445        32.300                                                                                                  
G02  23463951.898 7 123303865.804 7        44.400    23463955.094 4  96080964.51244        29.300                                                                                                  
G16  24133090.453 6 126820425.034 6        40.900    24133098.160 3  98820962.39343        22.900                                                                                                  
R14  19417230.234 8 103504516.321 8        50.800    19417230.313 8 103504715.329 8        49.100    19417238.758 7  80503745.166 7        44.600    19417239.305 7  80503747.163 7        44.400  
J01  41489814.828 6 218030592.800 6        38.600    41489814.680 7 218030570.789 7        42.500    41489822.840 6 169894053.155 6        39.000    41489830.055 7 162815165.771 7        44.300    41489817.434 6 176972935.158 6        41.100  
S29  37510135.891 6 197117017.243 6        41.800  
S27  40044582.656 6 210435691.106 6        37.200  
G08  21161359.813 8 111203784.326 8        50.000    21161365.762 6  86652273.62846        39.300                                                                                                  
C01  37493017.945 7 195235980.356 7        46.400    37493011.945 7 150968818.566 7        46.800    37493006.262 7 158645206.149 7        46.100  
C03  37174149.297 7 193575519.884 7        47.900    37174144.996 7 149684852.955 7        47.600    37174140.074 8 157295948.240 8        48.500  
C04  38646338.742 6 201241602.685 6        41.800    38646335.496 6 155612744.697 6        40.700    38646329.578 7 163525247.627 7        42.600  
C05  39590779.617 6 206159521.787 6        38.100    39590778.363 6 159415597.348 6        38.900    39590771.449 6 167521476.465 6        39.200  
C30  22070081.055 6 114924697.728 6        37.900    22070089.883 7  88867081.165 7        42.000    22070077.574 6  93385707.349 6        40.800  
C07  36204376.227 8 188525779.621 8        50.300    36204371.574 8 145780108.209 8        50.000    36204363.074 8 153192616.673 8        50.700  
C13  24316508.375 7 126622442.286 7        44.300    24316512.398 7  97912485.941 7        45.200                                                  
C10  37045182.242 7 192904002.218 7        47.000    37045181.984 7 149165613.387 7        46.200    37045172.727 7 156750256.925 7        47.200  
C09  36264966.047 8 188841350.607 8        50.400    36264964.676 8 146024189.561 8        50.700    36264955.359 8 153449089.913 8        50.300  
C02  37925953.891 7 197490365.165 7        42.000    37925949.473 7 152712041.764 7        43.400    37925944.961 7 160477062.462 7        43.300  
C06  36829346.813 8 191780204.793 8        48.600    36829343.684 7 148296676.174 7        47.800    36829336.242 8 155837142.964 8        48.600  
S37  37745394.234 7 198353325.393 7        42.300  
S28  37960301.016 7 199482837.624 7        43.400  
> 2012 12 15 00 03 30.0000000  0 34
G28  25851687.516 6 135851546.837 6        36.900                                                                                                                                                  
R02  22391032.148 7 119482980.081 7        46.400    22391031.758 7 119482794.092 7        45.300    22391041.023 6  92931121.724 6        36.000    22391042.395 5  92931128.713 5        35.600  
R15  23478603.195 6 125462509.098 6        40.600    23478603.508 6 125462484.127 6        38.700    23478614.652 6  97582005.828 6        38.800    23478614.496 6  97582007.840 6        36.800  
G10  21405586.820 8 112487064.010 8        51.500    21405590.836 6  87652294.61946        40.200                                                                                                  
G05  25952565.063 5 136381687.787 5        35.400    25952571.59812 106271442.08652        12.600    25952570.848 4 106271441.118 4        28.900                                                  
G04  22394619.773 7 117684458.477 7        47.000    22394626.191 5  91702191.29245        32.000                                                                                                  
G20  23720445.297 7 124651768.900 7        43.100    23720452.945 3  97131232.41343        22.600                                                                                                  
R13  20426236.344 8 109074900.226 8        52.300    20426236.539 8 109074907.234 8        51.100    20426244.164 8  84836097.077 8        49.100    20426244.359 8  84836103.069 8        48.000  
R04  21022347.586 8 112573692.390 8        51.300    21022346.961 8 112573616.406 8        49.100    21022352.590 7  87557333.301 7        46.600    21022353.254 7  87557339.310 7        47.600  
G13  21429811.602 8 112614498.470 8        51.100    21429817.023 6  87751522.07846        39.800                                                                                                  
R12  24836855.22715 132674107.13215        32.200    24836855.89115 132673979.15515        32.500    24836868.20715 103190834.99415        33.100    24836869.22715 103190959.99515        33.100  
R03  19614433.836 8 104997644.841 8        51.900    19614434.031 8 104997587.842 8        50.500    19614439.426 8  81664831.408 8        49.800    19614440.207 8  81664832.405 8        49.800  
G07  20116433.266 8 105712578.761 8        52.000    20116437.691 7  82373450.89947        47.200    20116437.410 8  82373449.899 8        52.500                                                  
G23  23083355.805 7 121303683.985 7        45.600    23083361.578 5  94522505.30945        31.800                                                                                                  
G02  23462012.672 7 123293678.718 7        43.900    23462016.805 4  96073026.47544        29.600                                                                                                  
G16  24140949.781 6 126861727.052 6        41.700    24140957.723 3  98853145.75543        23.800                                                                                                  
R14  19410028.539 8 103466127.941 8        50.100    19410028.969 8 103466326.962 8        49.200    19410038.000 7  80473887.552 7        44.700    19410038.313 7  80473889.549 7        44.100  
J01  41499254.578 6 218080200.826 6        38.800    41499253.734 7 218080178.822 7        42.300    41499263.645 6 169932708.674 6        39.200    41499270.215 7 162852210.615 7        44.200    41499258.121 6 177013201.340 6        41.100  
S29  37509162.766 6 197111938.159 6        41.600  
S27  40043605.141 6 210430491.108 6        36.000  
G08  21147316.008 8 111129986.016 8        49.600    21147322.074 6  86594768.46346        39.400                                                                                                  
C01  37491928.836 7 195230307.957 7        46.300    37491922.543 7 150964432.288 7        46.900    37491917.035 7 158640596.848 7        46.300  
C03  37172995.867 7 193569514.403 7        47.900    37172991.977 7 149680209.121 7        47.600    37172986.938 8 157291068.278 8        48.100  
C04  38645414.945 6 201236792.052 6        41.500    38645411.582 6 155609024.779 6        41.100    38645405.781 7 163521338.564 7        43.000  
C05  39589649.211 6 206153638.539 6        37.800    39589648.660 6 159411048.039 6        38.900    39589641.922 6 167516695.840 6        39.800  
C30  22049158.500 6 114815751.427 6        37.200    22049169.320 7  88782837.089 7        42.200    22049155.488 6  93297179.631 6        40.900  
C07  36204984.445 8 188528946.051 8        50.800    36204979.617 8 145782556.673 8        49.700    36204970.941 8 153195189.645 8        50.700  
C13  24330727.516 7 126696476.254 7        45.100    24330729.840 7  97969733.590 7        45.300                                                  
C10  37044034.203 7 192898021.550 7        47.500    37044032.773 7 149160988.739 7        46.800    37044023.633 8 156745397.125 8        48.500  
C09  36266136.781 8 188847447.247 8        50.900    36266135.293 8 146028903.853 8        50.300    36266126.152 8 153454043.922 8        50.100  
C02  37924907.016 7 197484912.536 7        42.100    37924902.129 7 152707825.404 7        43.600    37924897.676 7 160472631.735 7        43.600  
C06  36833828.164 8 191803538.665 8        48.900    36833825.387 7 148314719.364 7        47.600    36833817.359 8 155856103.620 8        48.300  
S37  37744434.156 6 198348267.631 6        41.700  
S28  37959344.563 7 199477807.439 7        43.000  
> 2012 12 15 00 04  0.0000000  0 34
G28  25829886.305 6 135736980.322 6        36.400                                                                                                                                                  
R02  22406889.586 7 119567599.643 7        46.600    22406888.844 7 119567413.666 7        45.000    22406900.457 6  92996936.728 6        37.100    22406900.184 6  92996943.726 6        36.300  
R15  23455296.594 6 125337973.666 6        39.700    23455297.844 6 125337948.691 6        38.100    23455309.574 6  97485145.164 6        37.700    23455309.418 6  97485147.175 6        37.400  
G10  21391758.656 8 112414395.363 8        52.300    21391762.730 6  87595669.68846        40.400                                                                                                  
G05  25931659.039 5                        31.600                                                                                                                                                  
G04  22402377.164 8 117725219.234 8        48.500    22402382.527 5  91733952.84545        32.400                                                                                                  
G20  23738213.195 6 124745141.929 6        41.800    23738221.723 3  97203990.40543        23.900                                                                                                  
R13  20440600.836 8 109151607.930 8        51.800    20440601.266 8 109151614.939 8        50.600    20440609.477 8  84895758.558 8        48.800    20440609.672 7  84895764.551 7        47.400  
R04  21004359.492 8 112477368.289 8        50.700    21004359.336 8 112477292.297 8        49.300    21004364.730 7  87482414.570 7        47.200    21004365.277 7  87482420.580 7        47.000  
G13  21434167.258 8 112637384.251 8        51.200    21434172.152 6  87769355.11046        39.900                                                                                                  
R12  24859665.38315 132795947.99315        35.700    24859665.578 5 132795819.944 5        35.800    24859677.30915 103285600.05515        31.300    24859678.09014 103285725.06214        29.300  
R03  19614824.523 8 104999735.780 8        51.800    19614824.602 8 104999678.789 8        50.400    19614830.348 8  81666457.655 8        50.500    19614830.777 8  81666458.652 8        50.300  
G07  20116146.164 8 105711069.407 8        52.500    20116150.238 7  82372274.77547        46.800    20116150.074 8  82372273.775 8        53.500                                                  
G23  23094096.516 7 121360127.105 7        45.100    23094101.762 5  94566486.85045        31.900                                                                                                  
G02  23460170.750 7 123284001.486 7        43.700    23460174.707 4  96065485.76844        29.400                                                                                                  
G16  24148903.773 7 126903525.232 7        43.800    24148911.832 4  98885715.72544        26.200                                                                                                  
R14  19402963.297 8 103428465.084 8        50.500    19402963.609 8 103428664.081 8        48.900    19402972.289 7  80444594.229 7        44.500    19402972.719 7  80444596.227 7        44.000  
J01  41508682.109 6 218129746.041 6        37.700    41508681.969 7 218129724.036 7        42.600    41508691.820 6 169971315.224 6        38.900    41508698.625 7 162889208.559 7        44.600    41508686.063 6 177053416.528 6        41.100  
S29  37508198.734 7 197106863.664 7        42.000  
S27  40042610.453 5 210425294.378 5        35.800  
G08  21133364.094 8 111056667.046 8        51.700    21133370.336 6  86537636.81046        38.800                                                                                                  
C01  37490840.320 7 195224641.292 7        46.800    37490834.438 7 150960050.440 7        46.800    37490828.930 7 158635992.199 7        45.800  
C03  37171843.453 7 193563512.032 7        47.500    37171838.801 7 149675567.677 7        47.800    37171833.938 8 157286190.844 8        48.600  
C04  38644491.867 6 201231986.003 6        41.800    38644488.855 6 155605308.420 6        41.300    38644482.996 7 163517433.236 7        42.900  
C05  39588520.141 6 206147759.125 6        37.600    39588519.473 6 159406501.682 6        39.300    39588512.734 6 167511918.313 6        40.000  
C30  22028245.195 6 114706845.218 6        38.400    22028252.324 6  88698624.052 6        41.400    22028241.656 6  93208684.533 6        40.900  
C07  36205599.648 8 188532151.242 8        51.000    36205594.938 8 145785035.112 8        50.400    36205586.496 8 153197794.111 8        50.500  
C13  24344990.328 7 126770741.403 7        45.000    24344991.422 7  98027159.960 7        45.500                                                  
C10  37042897.938 7 192892105.729 7        47.300    37042896.625 7 149156414.231 7        47.600    37042887.719 7 156740590.017 7        47.400  
C09  36267334.781 8 188853685.052 8        51.100    36267333.117 8 146033727.292 8        50.200    36267323.918 8 153459112.623 8        50.400  
C02  37923860.695 7 197479465.753 7        42.000    37923856.512 7 152703613.578 7        43.600    37923852.059 7 160468205.760 7        43.500  
C06  36838333.031 7 191827001.125 7        47.900    36838330.957 7 148332861.992 7        47.500    36838323.105 8 155875168.766 8        48.600  
S37  37743471.672 6 198343211.446 6        41.200  
S28  37958385.844 7 199472778.689 7        44.000  
> 2012 12 15 00 04 30.0000000  0 33
G28  25808047.711 6 135622211.468 6        38.800                                                                                                                                                  
R02  22422817.813 7 119652593.625 7        47.200    22422818.008 7 119652407.630 7        45.900    22422828.566 6  93063042.983 6        37.500    22422829.348 6  93063049.973 6        36.200  
R15  23432037.000 6 125213682.278 6        40.200    23432038.133 6 125213657.297 6        38.500    23432050.453 6  97388474.276 6        38.100    23432049.824 6  97388476.283 6        36.700  
G10  21377993.156 8 112342058.617 8        52.600    21377997.348 6  87539303.38046        40.300                                                                                                  
G05  25910753.758 5 136161968.899 5        33.600                                                    25910760.48015 106100231.26015        32.600                                                  
G04  22410212.508 8 117766396.495 8        48.300    22410218.047 5  91766038.95645        31.400                                                                                                  
G20  23756021.164 6 124838721.747 6        41.600    23756028.461 3  97276909.50543        21.800                                                                                                  
R13  20455054.570 8 109228792.597 8        52.000    20455054.648 8 109228799.613 8        49.600    20455062.391 8  84955791.010 8        48.200    20455062.938 7  84955797.010 7        47.200  
R04  20986411.492 8 112381259.554 8        51.100    20986410.867 8 112381183.577 8        49.100    20986416.145 7  87407663.359 7        47.000    20986416.809 8  87407669.360 8        48.000  
G13  21438543.172 8 112660384.361 8        52.300    21438548.008 6  87787277.22946        39.200                                                                                                  
R03  19615320.953 8 105002395.049 8        51.600    19615321.266 8 105002338.057 8        50.500    19615326.895 8  81668525.937 8        49.800    19615327.441 8  81668526.938 8        50.100  
G07  20115955.109 8 105710064.638 8        52.900    20115958.949 7  82371491.82647        46.300    20115958.668 8  82371490.826 8        53.100                                                  
G23  23104851.148 7 121416642.042 7        45.000    23104856.043 5  94610524.33745        30.700                                                                                                  
G02  23458426.805 7 123274837.480 7        44.500    23458431.348 5  96058344.95845        30.400                                                                                                  
G16  24156953.148 7 126945821.774 7        44.200    24156961.383 4  98918674.05944        25.600                                                                                                  
R14  19396033.805 8 103391531.341 8        50.300    19396034.820 8 103391730.332 8        49.800    19396043.734 7  80415868.000 7        44.600    19396044.051 7  80415869.997 7        44.000  
J01  41518100.406 6 218179231.682 6        37.900    41518099.250 7 218179209.675 7        42.300    41518108.477 6 170009875.390 6        39.200    41518115.281 7 162926162.015 7        44.600    41518102.777 6 177093583.382 6        41.100  
S29  37507230.578 6 197101794.865 6        41.900  
S27  40041629.234 6 210420104.142 6        36.100  
G08  21119504.117 8 110983832.344 8        51.800    21119510.359 6  86480882.50846        39.200                                                                                                  
C01  37489753.852 7 195218983.786 7        46.700    37489747.676 7 150955675.658 7        46.700    37489742.344 7 158631394.980 7        45.800  
C03  37170692.055 7 193557516.297 7        47.800    37170687.578 7 149670931.369 7        47.000    37170682.598 8 157281318.795 8        48.100  
C04  38643570.313 6 201227188.179 6        41.900    38643567.359 6 155601598.400 6        40.600    38643561.617 7 163513534.589 7        42.700  
C05  39587392.898 6 206141887.049 6        38.200    39587391.996 6 159401960.996 6        39.100    39587385.375 6 167507146.759 6        39.600  
C30  22007336.680 6 114597977.714 6        37.600    22007345.684 6  88614440.937 6        41.100    22007333.785 6  93120220.908 6        40.600  
C07  36206223.453 8 188535398.287 8        50.200    36206218.508 8 145787545.912 8        50.000    36206210.125 8 153200432.586 8        50.700  
C13  24359297.258 7 126845240.127 7        45.200    24359298.938 7  98084766.971 7        45.200                                                  
C10  37041774.961 7 192886257.854 7        47.900    37041773.473 7 149151892.269 7        47.300    37041764.508 7 156735838.132 7        47.200  
C09  36268560.609 8 188860067.779 8        50.300    36268559.531 8 146038662.801 8        50.500    36268550.332 8 153464299.098 8        50.800  
C02  37922816.969 6 197474028.245 6        41.400    37922811.496 7 152699408.926 7        43.700    37922807.160 7 160463787.314 7        42.900  
C06  36842863.391 7 191850595.642 7        47.600    36842861.199 7 148351106.729 7        47.400    36842853.758 8 155894341.208 8        48.300  
S37  37742511.844 7 198338162.716 7        42.000  
S28  37957435.953 7 199467758.851 7        43.400  
> 2012 12 15 00 05  0.0000000  0 33
G28  25786168.055 5 135507240.763 5        35.500                                                                                                                                                  
R02  22438815.492 7 119737958.937 7        47.200    22438815.570 7 119737772.937 7        46.100    22438825.070 6  93129438.021 6        36.300    22438825.973 6  93129445.018 6        36.000  
R15  23408824.055 6 125089635.886 6        40.000    23408824.719 6 125089610.878 6        38.400    23408837.152 6  97291993.938 6        38.600    23408837.117 6  97291995.942 6        37.500  
G10  21364291.078 8 112270054.384 8        52.700    21364295.738 6  87483196.17546        40.700                                                                                                  
G05  25889838.289 5 136052069.479 5        33.200    25889847.81612 106014597.25852        14.800    25889848.410 5 106014595.245 5        33.800                                                  
G04  22418127.398 8 117807986.261 8        49.200    22418132.645 5  91798446.48845        31.500                                                                                                  
G20  23773866.703 6 124932504.604 6        40.700    23773875.758 3  97349986.85843        21.500                                                                                                  
R13  20469597.609 8 109306448.758 8        52.100    20469597.570 8 109306455.761 8        50.200    20469605.078 7  85016190.193 7        47.800    20469605.156 7  85016196.193 7        47.100  
R04  20968505.453 8 112285367.788 8        51.000    20968503.887 8 112285291.789 8        48.700    20968508.578 7  87333080.874 7        47.500    20968509.832 7  87333086.883 7        47.700  
G13  21442942.023 8 112683496.952 8        52.300    21442946.801 6  87805286.99546        39.600                                                                                                  
R03  19615923.711 8 105005622.395 8        51.400    19615923.555 8 105005565.424 8        50.000    19615929.184 8  81671036.059 8        49.600    19615929.496 8  81671037.056 8        50.200  
G07  20115859.086 8 105709561.396 8        53.500    20115863.688 7  82371099.66747        46.600    20115863.816 8  82371098.668 8        53.000                                                  
G23  23115618.867 7 121473227.089 7        46.000    23115623.645 5  94654616.48545        31.400                                                                                                  
G02  23456780.516 7 123266184.183 7        44.500    23456784.648 4  96051602.10644        28.700                                                                                                  
G16  24165096.102 7 126988613.657 7        44.100    24165104.805 4  98952018.34144        25.200                                                                                                  
R14  19389241.836 8 103355325.075 8        50.200    19389242.383 8 103355524.087 8        48.700    19389251.063 7  80387707.571 7        44.500    19389251.848 7  80387709.574 7        43.800  
J01  41527503.625 6 218228655.619 6        38.100    41527503.516 6 218228633.616 6        41.700    41527512.750 6 170048387.451 6        38.600    41527520.141 7 162963069.396 7        44.200    41527508.105 6 177133700.134 6        40.900  
S29  37506266.531 6 197096729.925 6        41.400  
S27  40040622.109 6 210414918.411 6        36.000  
G08  21105736.094 8 110911481.310 8        51.500    21105742.160 6  86424505.08046        38.800                                                                                                  
C01  37488669.094 7 195213333.781 7        46.600    37488662.742 7 150951306.701 7        46.200    37488657.234 7 158626803.879 7        46.000  
C03  37169541.820 7 193551525.467 7        47.400    37169537.402 7 149666298.861 7        46.800    37169532.363 8 157276450.733 8        48.100  
C04  38642650.055 6 201222396.730 6        41.200    38642647.102 6 155597893.331 6        41.200    38642641.301 7 163509641.125 7        42.600  
C05  39586265.906 6 206136020.671 6        37.400    39586265.355 6 159397424.730 6        38.900    39586259.027 6 167502379.836 6        38.700  
C30  21986439.320 6 114489152.643 6        38.300    21986447.035 6  88530290.666 6        41.200    21986435.137 6  93031791.761 6        41.300  
C07  36206854.445 8 188538684.937 8        50.400    36206849.559 8 145790087.338 8        50.500    36206841.234 8 153203103.236 8        51.300  
C13  24373648.922 7 126919969.652 7        45.800    24373648.957 7  98142552.440 7        45.100                                                  
C10  37040664.555 8 192880475.697 8        48.000    37040663.594 7 149147421.107 7        46.900    37040654.629 7 156731139.626 7        47.800  
C09  36269813.844 8 188866593.960 8        50.500    36269812.180 8 146043709.240 8        50.400    36269803.039 8 153469602.141 8        50.200  
C02  37921773.469 6 197468598.292 6        41.300    37921769.578 7 152695210.110 7        43.800    37921765.125 7 160459375.012 7        43.500  
C06  36847420.789 8 191874320.352 8        48.100    36847417.953 7 148369452.145 7        47.200    36847410.453 8 155913619.445 8        48.000  
S37  37741548.484 6 198333120.242 6        41.100  
S28  37956481.922 7 199462744.281 7        43.100  
> 2012 12 15 00 05 30.0000000  0 33
G28  25764253.063 5 135392068.259 5        35.800                                                                                                                                                  
R02  22454881.969 7 119823692.012 7        46.700    22454882.047 7 119823506.024 7        45.600    22454892.957 6  93196119.068 6        36.700    22454893.621 6  93196126.072 6        36.100  
R15  23385657.984 6 124965835.321 6        41.100    23385657.711 6 124965810.340 6        39.600    23385668.504 6  97195704.716 6        38.600    23385668.465 6  97195706.724 6        37.200  
G10  21350653.188 8 112198382.946 8        52.100    21350657.730 6  87427348.28046        40.200                                                                                                  
G05  25868921.344 5 135942143.004 5        33.700    25868928.81612 105928940.08052        13.900    25868929.297 5 105928938.128 5        31.400                                                  
G04  22426118.352 8 117849983.793 8        48.400    22426124.359 5  91831171.77945        31.800                                                                                                  
G20  23791750.438 6 125026486.701 6        40.100    23791759.375 3  97423219.42143        21.500                                                                                                  
R13  20484227.547 8 109384569.611 8        52.200    20484227.273 8 109384576.621 8        51.000    20484234.309 8  85076950.805 8        48.000    20484234.742 7  85076956.812 7        47.100  
R04  20950638.172 8 112189694.041 8        50.100    20950637.898 8 112189618.043 8        49.100    20950642.941 7  87258667.985 7        47.500    20950643.840 7  87258673.987 7        47.100  
G13  21447360.898 8 112706719.649 8        51.200    21447365.793 6  87823382.56346        40.000                                                                                                  
R03  19616633.078 8 105009416.977 8        51.400    19616632.922 8 105009359.992 8        49.500    19616638.316 8  81673987.354 8        49.800    19616639.215 8  81673988.351 8        50.500  
G07  20115857.641 8 105709556.106 8        53.300    20115862.535 7  82371095.53447        46.700    20115862.313 8  82371094.535 8        52.800                                                  
G23  23126399.844 7 121529880.055 7        45.000    23126404.797 5  94698761.53545        31.400                                                                                                  
G02  23455229.891 7 123258038.713 7        43.600    23455234.375 4  96045254.97544        29.400                                                                                                  
G16  24173333.172 7 127031897.271 7        43.400    24173341.406 3  98985745.77643        22.200                                                                                                  
R14  19382585.484 8 103319843.644 8        49.900    19382586.969 8 103320042.647 8        49.100    19382596.004 7  80360110.915 7        44.900    19382596.316 7  80360112.913 7        44.100  
J01  41536897.188 6 218278015.254 6        38.100    41536896.785 6 218277993.251 6        41.700    41536906.371 6 170086849.421 6        38.800    41536913.645 7 162999928.754 7        44.500    41536900.262 6 177173764.693 6        40.900  
S29  37505304.609 7 197091670.128 7        42.900  
S27  40039646.250 6 210409734.878 6        36.000  
G08  21092060.633 8 110839612.890 8        52.200    21092065.527 6  86368503.72046        38.900                                                                                                  
C01  37487585.320 7 195207688.858 7        46.400    37487578.617 7 150946941.656 7        46.600    37487573.344 7 158622216.890 7        46.600  
C03  37168391.539 8 193545537.243 8        48.100    37168387.590 7 149661668.354 7        47.700    37168382.434 8 157271584.795 8        48.400  
C04  38641730.930 7 201217609.385 7        42.100    38641727.859 6 155594191.430 6        41.500    38641721.941 7 163505751.001 7        42.300  
C05  39585140.047 6 206130157.568 6        37.700    39585139.203 6 159392890.993 6        39.200    39585132.641 6 167497615.572 6        39.000  
C30  21965547.422 6 114380366.314 6        37.900    21965556.367 6  88446170.284 6        41.300    21965543.238 6  92943394.027 6        40.900  
C07  36207492.547 8 188542008.384 8        50.100    36207487.777 8 145792657.221 8        50.000    36207479.512 8 153205803.796 8        50.600  
C13  24388042.641 7 126994926.713 7        45.100    24388044.848 7  98200513.846 7        45.800                                                  
C10  37039566.125 7 192874756.510 7        47.300    37039565.691 7 149142998.656 7        47.200    37039556.375 8 156726492.303 8        48.300  
C09  36271094.250 8 188873261.451 8        50.800    36271092.879 8 146048864.941 8        50.400    36271083.738 8 153475020.004 8        50.800  
C02  37920731.898 7 197463173.598 7        42.000    37920727.188 7 152691015.373 7        43.900    37920722.734 7 160454966.989 7        43.100  
C06  36852001.578 8 191898172.931 8        49.000    36851998.684 7 148387896.441 7        47.000    36851990.949 8 155933001.596 8        48.200  
S37  37740594.563 6 198328080.100 6        41.000  
S28  37955521.813 7 199457732.799 7        42.900  
> 2012 12 15 00 06  0.0000000  0 33
G28  25742297.563 6 135276696.785 6        36.100    25742307.50012 105410449.10452        15.600                                                                                                  
R02  22471016.359 7 119909792.107 7        45.800    22471016.906 7 119909606.093 7        45.100    22471027.348 5  93263085.627 5        35.800    22471028.363 6  93263092.618 6        36.000  
R15  23362535.563 6 124842283.452 6        41.700    23362535.992 6 124842258.470 6        40.100    23362546.434 6  97099608.952 6        38.900    23362546.512 6  97099610.953 6        37.800  
G10  21337077.844 8 112127047.432 8        52.800    21337083.148 6  87371762.15246        39.700                                                                                                  
G05  25848000.266 5 135832191.017 5        35.400    25848005.746 2 105843263.05742        16.300    25848006.813 5 105843261.066 5        35.300                                                  
G04  22434187.617 8 117892387.268 8        49.000    22434193.156 5  91864213.37245        30.800                                                                                                  
G20  23809673.188 6 125120666.592 6        39.700    23809681.949 3  97496606.12643        21.300                                                                                                  
R13  20498944.008 8 109463152.191 8        53.200    20498944.438 8 109463159.194 8        51.000    20498951.828 8  85138070.540 8        48.000    20498951.789 7  85138076.540 7        47.800  
R04  20932813.984 8 112094241.875 8        50.900    20932812.301 8 112094165.899 8        48.800    20932817.578 7  87184427.423 7        47.300    20932818.363 7  87184433.432 7        47.300  
G13  21451801.664 8 112730052.964 8        51.500    21451805.914 6  87841564.31346        39.700                                                                                                  
R03  19617448.070 8 105013780.761 8        50.800    19617448.383 8 105013723.768 8        50.200    19617453.543 8  81677381.370 8        50.700    19617454.324 8  81677382.368 8        50.100  
G07  20115951.531 8 105710047.763 8        52.900    20115956.191 7  82371478.63047        46.600    20115955.969 8  82371477.631 8        53.200                                                  
G23  23137193.344 7 121586601.474 7        46.200    23137198.531 5  94742959.94045        31.400                                                                                                  
G02  23453776.789 7 123250400.743 7        44.300    23453781.449 4  96039303.29444        28.600                                                                                                  
G16  24181661.633 7 127075671.829 7        42.100    24181671.219 3  99019855.75043        22.300                                                                                                  
R14  19376065.766 8 103285087.855 8        50.300    19376065.609 8 103285286.853 8        49.100    19376074.875 7  80333078.646 7        44.700    19376075.188 7  80333080.643 7        44.300  
J01  41546278.031 6 218327310.597 6        39.400    41546277.793 7 218327288.595 7        42.200    41546287.156 6 170125261.285 6        38.700    41546293.668 7 163036740.109 7        44.300    41546281.281 6 177213777.078 6        40.900  
S29  37504343.875 7 197086611.716 7        42.000  
S27  40038665.797 6 210404555.198 6        36.200  
G08  21078476.672 8 110768228.667 8        52.400    21078482.035 6  86312879.66546        39.700                                                                                                  
C01  37486501.875 7 195202049.583 7        47.100    37486495.406 7 150942580.977 7        47.100    37486490.309 7 158617634.483 7        46.400  
C03  37167242.273 8 193539552.118 8        48.500    37167237.738 8 149657040.258 8        48.300    37167232.641 8 157266721.373 8        48.400  
C04  38640813.055 7 201212826.586 7        42.000    38640809.516 6 155590493.053 6        41.400    38640803.363 7 163501864.576 7        42.700  
C05  39584014.164 6 206124298.290 6        38.100    39584014.199 6 159388360.200 6        39.400    39584007.578 6 167492854.404 6        39.100  
C30  21944668.617 6 114271638.855 6        38.900    21944675.395 6  88362095.462 6        41.400    21944663.848 6  92855044.197 6        41.800  
C07  36208138.250 8 188545368.736 8        49.700    36208133.480 8 145795255.639 8        50.100    36208125.098 8 153208534.337 8        50.600  
C13  24402480.539 7 127070110.734 7        44.600    24402483.391 7  98258650.755 7        45.400                                                  
C10  37038480.359 7 192869100.485 7        47.900    37038479.340 8 149138625.046 8        48.000    37038470.141 7 156721896.319 7        47.500  
C09  36272401.883 8 188880070.976 8        50.300    36272400.629 8 146054130.476 8        50.300    36272391.547 8 153480553.278 8        50.200  
C02  37919691.375 6 197457754.649 6        41.800    37919686.781 7 152686825.082 7        44.600    37919682.621 7 160450563.632 7        43.400  
C06  36856605.820 7 191922153.736 7        47.600    36856603.922 7 148406439.891 7        47.000    36856595.953 8 155952487.941 8        48.000  
S37  37739631.891 6 198323044.478 6        41.300  
S28  37954574.984 7 199452722.843 7        43.100  
> 2012 12 15 00 06 30.0000000  0 33
G28  25720306.430 5 135161129.526 5        34.000    25720315.60212 105320396.56052        15.600                                                                                                  
R02  22487221.250 7 119996259.486 7        46.400    22487220.977 7 119996073.491 7        45.200    22487231.887 5  93330337.834 5        35.200    22487231.965 6  93330344.831 6        36.100  
R15  23339462.484 6 124718984.831 6        40.900    23339462.211 6 124718959.867 6        40.100    23339474.059 6  97003710.148 6        39.500    23339473.668 6  97003712.152 6        37.900  
G10  21323567.820 8 112056051.562 8        52.600    21323572.832 6  87316440.67946        40.800                                                                                                  
G05  25827070.992 5 135722217.091 5        34.800    25827079.930 2 105757569.06942        13.900    25827079.063 5 105757567.072 5        33.000                                                  
G04  22442334.547 8 117935195.544 8        48.300    22442340.262 5  91897570.41045        31.700                                                                                                  
G20  23827632.914 6 125215044.038 6        40.000    23827641.910 3  97570146.76343        22.200                                                                                                  
R13  20513745.789 8 109542193.495 8        53.100    20513745.398 8 109542200.498 8        51.100    20513753.258 8  85199547.046 8        48.300    20513753.336 7  85199553.046 7        47.700  
R04  20915031.359 8 111999016.118 8        50.700    20915030.734 8 111998940.127 8        49.600    20915035.660 7  87110362.955 7        46.900    20915036.441 7  87110368.957 7        47.300  
G13  21456262.922 8 112753498.530 8        51.800    21456267.934 6  87859833.53946        39.200                                                                                                  
R03  19618369.828 8 105018716.621 8        51.100    19618370.141 8 105018659.637 8        49.900    19618375.652 8  81681220.335 8        50.500    19618376.199 8  81681221.338 8        50.500  
G07  20116139.898 8 105711036.708 8        53.900    20116143.855 7  82372249.22347        46.300    20116143.574 8  82372248.224 8        52.800                                                  
G23  23148000.156 7 121643393.031 7        46.100    23148005.637 5  94787212.99645        30.100                                                                                                  
G02  23452420.328 7 123243271.242 7        44.100    23452424.402 4  96033747.81544        28.900                                                                                                  
G16  24190085.977 7 127119936.959 7        42.800    24190093.859 3  99054347.97743        22.800                                                                                                  
R14  19369681.797 8 103251058.946 8        50.600    19369682.461 8 103251257.953 8        48.800    19369691.492 7  80306611.717 7        44.800    19369691.688 7  80306613.714 7        43.900  
J01  41555645.406 6 218376542.924 6        39.700    41555645.895 7 218376520.908 7        42.200    41555655.879 6 170163624.039 6        38.400    41555662.918 7 163073504.410 7        44.100    41555650.180 6 177253738.304 6        41.300  
S29  37503384.281 6 197081559.864 6        41.800  
S27  40037677.031 6 210399379.234 6        36.400  
G08  21064984.375 8 110697330.910 8        51.600    21064990.148 6  86257634.67446        39.400                                                                                                  
C01  37485420.086 7 195196417.423 7        46.700    37485413.969 7 150938225.804 7        47.300    37485408.578 7 158613057.873 7        45.800  
C03  37166094.016 8 193533571.539 8        48.200    37166089.422 8 149652415.672 8        48.200    37166084.324 8 157261861.648 8        48.500  
C04  38639895.852 7 201208049.830 7        42.200    38639892.781 6 155586799.357 6        41.100    38639886.570 7 163497983.067 7        42.800  
C05  39582889.891 6 206118444.322 6        38.000    39582889.457 6 159383833.518 6        39.800    39582883.480 6 167488097.553 6        38.700  
C30  21923796.500 6 114162952.760 6        39.900    21923803.336 6  88278052.674 6        40.900    21923791.555 6  92766727.988 6        40.800  
C07  36208790.586 8 188548766.873 8        49.900    36208785.816 8 145797883.272 8        49.600    36208777.668 8 153211295.594 8        51.100  
C13  24416963.234 7 127145522.063 7        44.900    24416965.617 7  98316963.470 7        44.900                                                  
C10  37037406.227 8 192863508.708 8        48.100    37037404.738 7 149134301.114 7        47.300    37037395.656 8 156717352.527 8        48.100  
C09  36273737.039 8 188887024.168 8        50.000    36273735.375 8 146059507.106 8        49.900    36273726.469 8 153486203.308 8        50.500  
C02  37918652.047 7 197452342.901 7        42.100    37918648.098 7 152682640.357 7        43.800    37918643.469 7 160446166.130 7        43.400  
C06  36861235.844 8 191946264.123 8        48.000    36861234.238 8 148425083.528 8        48.100    36861226.270 8 155972079.578 8        48.500  
S37  37738670.672 6 198318013.599 6        41.400  
S28  37953616.641 7 199447719.494 7        44.200  
> 2012 12 15 00 07  0.0000000  0 33
G28  25698279.266 5 135045368.148 5        34.800    25698285.625 2 105230192.75842        15.600                                                                                                  
R02  22503494.016 7 120083091.804 7        46.600    22503493.391 7 120082905.801 7        44.900    22503504.652 6  93397873.852 6        36.800    22503504.965 6  93397880.846 6        36.000  
R15  23316435.117 6 124595941.032 6        41.100    23316436.133 6 124595916.087 6        39.400    23316446.809 6  96908009.532 6        38.600    23316447.473 6  96908011.531 6        38.100  
G10  21310123.109 8 111985396.920 8        52.200    21310127.418 6  87261385.09446        40.700                                                                                                  
G05  25806139.172 5 135612222.170 5        35.800    25806148.461 2 105671858.60342        16.300    25806148.707 5 105671856.591 5        34.500                                                  
G04  22450556.297 8 117978405.449 8        48.200    22450562.539 5  91931240.38145        31.100                                                                                                  
G20  23845629.570 6 125309616.544 6        40.000    23845638.508 3  97643839.40943        20.900                                                                                                  
R13  20528632.414 8 109621689.067 8        52.300    20528632.023 8 109621696.085 8        50.600    20528640.234 8  85261376.872 8        48.500    20528640.430 7  85261382.872 7        47.700  
R04  20897290.445 8 111904019.340 8        50.800    20897290.406 8 111903943.355 8        49.100    20897295.215 7  87036476.571 7        46.800    20897295.879 7  87036482.580 7        47.000  
G13  21460745.836 8 112777055.265 8        49.800    21460750.203 6  87878189.37846        39.200                                                                                                  
R03  19619398.758 8 105024225.276 8        51.200    19619399.070 8 105024168.285 8        50.200    19619404.582 8  81685504.814 8        50.200    19619405.246 8  81685505.812 8        50.500  
G07  20116421.969 8 105712520.863 8        53.800    20116426.805 7  82373405.68947        46.000    20116426.582 8  82373404.697 8        53.000                                                  
G23  23158820.172 7 121700254.010 7        45.700    23158825.594 5  94831520.16345        31.200                                                                                                  
G02  23451159.602 7 123236649.044 7        44.700    23451164.086 4  96028587.64444        27.900                                                                                                  
G16  24198603.508 7 127164690.611 7        43.400    24198610.043 3  99089220.93043        22.500                                                                                                  
R14  19363434.586 8 103217755.727 8        50.300    19363434.664 8 103217954.727 8        49.000    19363443.227 7  80280709.216 7        44.600    19363444.008 7  80280711.214 7        44.000  
J01  41565003.094 6 218425710.927 6        40.000    41565002.797 6 218425688.920 6        41.500    41565012.277 6 170201936.706 6        38.900    41565019.199 7 163110220.688 7        44.600    41565006.344 6 177293647.347 6        41.200  
S29  37502420.578 6 197076511.349 6        41.800  
S27  40036686.172 6 210394206.697 6        36.000  
G08  21051585.727 8 110626919.802 8        51.000    21051591.617 6  86202768.88146        40.000                                                                                                  
C01  37484339.914 7 195190791.535 7        46.400    37484333.855 7 150933875.473 7        46.400    37484328.641 7 158608486.343 7        46.300  
C03  37164946.086 8 193527594.662 8        48.100    37164941.844 7 149647793.952 7        47.900    37164936.688 8 157257004.917 8        48.100  
C04  38638979.383 6 201203278.296 6        41.800    38638975.609 6 155583109.687 6        41.700    38638969.809 7 163494105.785 7        42.500  
C05  39581766.484 6 206112594.799 6        36.900    39581766.344 6 159379310.267 6        39.300    39581760.016 6 167483344.314 6        38.900  
C30  21902932.938 6 114054316.094 6        38.700    21902941.883 7  88194048.094 7        42.500    21902928.285 6  92678451.945 6        41.200  
C07  36209450.055 8 188552201.546 8        49.900    36209445.871 8 145800539.160 8        50.300    36209437.609 8 153214086.522 8        51.200  
C13  24431488.367 7 127221158.824 7        44.700    24431491.512 7  98375450.478 7        45.300                                                  
C10  37036344.523 8 192857979.769 8        48.100    37036343.680 7 149130025.763 7        47.000    37036334.598 7 156712859.786 7        47.800  
C09  36275099.914 8 188894120.413 8        50.000    36275098.309 8 146064994.353 8        50.200    36275089.168 8 153491969.566 8        50.500  
C02  37917613.867 7 197446937.532 7        42.100    37917609.625 7 152678460.565 7        44.500    37917605.113 7 160441773.810 7        43.000  
C06  36865891.711 8 191970503.128 8        48.200    36865888.699 7 148443826.631 7        47.600    36865881.199 8 155991775.726 8        48.700  
S37  37737716.063 6 198312987.139 6        41.500  
S28  37952672.547 7 199442718.584 7        42.900  
> 2012 12 15 00 07 30.0000000  0 33
G28  25676212.508 5 134929416.230 5        34.300    25676221.152 2 105139840.51242        14.800                                                                                                  
R02  22519834.500 7 120170289.184 7        46.700    22519835.398 7 120170103.188 7        45.000    22519845.371 6  93465693.850 6        36.400    22519846.504 5  93465700.846 5        35.600  
R15  23293458.703 6 124473156.142 6        41.800    23293458.430 6 124473131.147 6        40.500    23293469.574 6  96812510.281 6        39.600    23293469.535 6  96812512.277 6        38.100  
G10  21296743.156 8 111915087.614 8        51.600    21296748.637 6  87206598.60946        40.300                                                                                                  
G05  25785204.813 6 135502209.271 6        37.300    25785213.340 2 105586134.12942        16.900    25785213.117 5 105586132.131 5        33.600                                                  
G04  22458855.063 7 118022015.896 7        47.800    22458861.949 5  91965222.48445        30.300                                                                                                  
G20  23863663.875 6 125404383.483 6        39.000    23863672.109 3  97717683.57543        22.200                                                                                                  
R13  20543603.570 8 109701636.032 8        51.600    20543603.648 8 109701643.035 8        50.200    20543611.977 8  85323557.785 8        48.500    20543611.938 7  85323563.784 7        47.600  
R04  20879593.984 8 111809256.115 8        50.200    20879593.828 8 111809180.124 8        49.000    20879598.285 7  86962771.854 7        46.400    20879599.066 7  86962777.856 7        46.700  
G13  21465249.648 8 112800724.459 8        50.600    21465254.133 6  87896632.87346        39.200                                                                                                  
R03  19620535.961 8 105030309.525 8        52.300    19620535.570 8 105030252.541 8        50.100    19620540.496 8  81690236.984 8        50.600    19620541.629 8  81690237.981 8        50.800  
G07  20116798.586 8 105714499.954 8        53.600    20116803.305 7  82374947.82747        46.500    20116803.199 8  82374946.828 8        52.300                                                  
G23  23169655.375 7 121757186.119 7        46.700    23169659.684 5  94875882.75345        30.200                                                                                                  
G02  23449997.289 7 123230534.441 7        44.100    23450001.070 4  96023822.98444        28.500                                                                                                  
G16  24207213.047 7 127209932.865 7        43.200    24207218.762 3  99124474.58243        22.600                                                                                                  
R14  19357323.547 8 103185179.802 8        50.200    19357323.625 8 103185378.798 8        48.500    19357332.305 7  80255372.392 7        45.100    19357332.852 7  80255374.390 7        43.600  
J01  41574347.188 6 218474815.737 6        40.000    41574346.305 6 218474793.730 6        41.400    41574355.902 6 170240200.112 6        37.900    41574363.352 7 163146889.776 7        44.100    41574351.023 6 177333505.080 6        41.100  
S29  37501468.047 6 197071468.891 6        41.800  
S27  40035702.969 5 210389039.313 5        35.900  
G08  21038279.813 8 110556997.877 8        49.800    21038285.820 6  86148284.27446        39.700                                                                                                  
C01  37483261.266 7 195185173.228 7        46.500    37483254.680 7 150929531.007 7        47.700    37483249.465 7 158603920.984 7        46.300  
C03  37163799.125 8 193521622.894 8        48.200    37163794.824 7 149643176.181 7        47.500    37163789.727 8 157252152.354 8        48.600  
C04  38638064.234 6 201198513.370 6        41.000    38638061.047 6 155579425.138 6        40.900    38638054.836 7 163490233.894 7        42.600  
C05  39580644.219 6 206106751.043 6        38.100    39580643.961 6 159374791.474 6        39.100    39580638.160 6 167478595.762 6        39.200  
C30  21882078.797 6 113945728.861 6        38.600    21882086.160 6  88110081.696 6        40.200    21882075.785 6  92590216.044 6        41.300  
C07  36210116.750 8 188555673.588 8        50.500    36210112.391 8 145803223.947 8        50.200    36210104.188 8 153216907.838 8        51.300  
C13  24446057.523 7 127297021.377 7        45.000    24446059.906 7  98434112.069 7        45.800                                                  
C10  37035294.938 8 192852514.594 8        48.000    37035293.859 7 149125799.729 7        47.900    37035284.836 7 156708418.881 7        47.400  
C09  36276490.547 8 188901361.239 8        50.100    36276489.117 8 146070593.391 8        50.400    36276479.977 8 153497853.313 8        50.700  
C02  37916577.820 6 197441539.892 6        41.600    37916573.344 7 152674286.764 7        44.800    37916568.891 7 160437387.775 7        43.400  
C06  36870571.461 8 191994872.030 8        48.600    36870568.449 7 148462670.188 7        47.800    36870560.773 8 156011577.435 8        48.100  
S37  37736761.563 6 198307965.557 6        41.100  
S28  37951718.094 7 199437722.754 7        42.900  
> 2012 12 15 00 08  0.0000000  0 33
G28  25654112.781 6 134813273.713 6        37.400    25654120.195 2 105049339.59142        16.300                                                                                                  
R02  22536242.313 7 120257848.016 7        46.000    22536243.328 7 120257662.031 7        45.100    22536254.355 6  93533794.955 6        36.100    22536254.785 5  93533801.946 5        35.600  
R15  23270527.828 6 124350630.673 6        41.100    23270529.078 6 124350605.666 6        39.200    23270541.398 6  96717212.782 6        39.000    23270541.594 6  96717214.794 6        38.100  
G10  21283428.820 8 111845123.769 8        51.100    21283434.770 6  87152081.32246        39.900                                                                                                  
G05  25764267.125 6 135392177.916 6        36.700    25764275.418 2 105500395.40842        16.300    25764274.844 5 105500393.374 5        31.800                                                  
G04  22467228.797 7 118066022.157 7        47.500    22467235.508 5  91999513.00545        31.500                                                                                                  
G20  23881733.422 6 125499340.714 6        40.000    23881742.301 3  97791675.99243        22.200                                                                                                  
R13  20558659.266 8 109782028.288 8        52.500    20558659.109 8 109782035.283 8        50.700    20558666.617 7  85386085.029 7        47.600    20558666.930 7  85386091.029 7        46.500  
R04  20861941.367 8 111714727.666 8        51.200    20861941.797 8 111714651.689 8        49.400    20861946.605 7  86889249.730 7        46.700    20861947.504 7  86889255.731 7        46.800  
G13  21469774.813 8 112824504.042 8        49.700    21469779.590 6  87915162.37746        38.700                                                                                                  
R03  19621779.930 8 105036968.408 8        52.300    19621780.008 8 105036911.431 8        50.000    19621785.051 8  81695416.084 8        50.200    19621785.832 8  81695417.080 8        50.400  
G07  20117268.938 9 105716970.380 9        54.500    20117273.305 7  82376872.82047        46.400    20117273.199 8  82376871.821 8        53.000                                                  
G23  23180501.836 7 121814187.022 7        45.200    23180506.789 5  94920298.95245        30.800                                                                                                  
G02  23448929.453 7 123224924.568 7        44.300    23448932.648 4  96019451.62444        29.000                                                                                                  
G16  24215913.875 7 127255660.277 7        42.600    24215920.645 3  99160106.27843        22.200                                                                                                  
R14  19351348.250 8 103153328.714 8        49.900    19351347.859 8 103153527.707 8        49.500    19351356.422 7  80230599.333 7        45.400    19351357.438 7  80230601.325 7        44.300  
J01  41583679.109 6 218523854.728 6        38.300    41583678.695 6 218523832.722 6        41.300    41583689.172 6 170278412.247 6        39.100    41583695.859 7 163183509.717 7        44.700    41583683.590 6 177373309.405 6        41.600  
S29  37500506.188 6 197066429.488 6        41.600  
S27  40034706.766 6 210383874.188 6        36.500  
G08  21025066.961 8 110487563.735 8        49.700    21025072.852 6  86094179.76046        39.700                                                                                                  
C01  37482183.125 7 195179560.304 7        46.400    37482177.008 7 150925190.705 7        47.600    37482171.969 7 158599359.997 7        46.000  
C03  37162653.063 8 193515653.984 8        48.100    37162648.762 7 149638560.621 7        47.600    37162643.723 8 157247302.110 8        48.600  
C04  38637150.242 6 201193752.683 6        41.800    38637146.469 6 155575743.855 6        41.700    38637140.785 7 163486365.424 7        42.600  
C05  39579522.492 6 206100910.808 6        37.700    39579521.883 6 159370275.393 6        39.100    39579516.082 6 167473850.064 6        39.500  
C30  21861237.570 6 113837197.986 6        39.600    21861245.227 6  88026158.930 6        41.500    21861232.918 6  92502025.964 6        41.400  
C07  36210790.430 8 188559180.352 8        50.300    36210785.543 8 145805935.596 8        50.400    36210777.453 8 153219757.365 8        50.900  
C13  24460669.047 7 127373106.350 7        45.000    24460671.781 7  98492945.654 7        45.700                                                  
C10  37034257.750 8 192847110.655 8        48.200    37034256.613 7 149121621.056 7        47.300    37034247.297 7 156704027.725 7        47.700  
C09  36277908.414 8 188908744.659 8        50.900    36277906.691 8 146076302.703 8        50.500    36277897.609 8 153503852.930 8        50.200  
C02  37915541.898 6 197436147.719 6        41.400    37915537.715 7 152670117.168 7        44.500    37915533.086 7 160433006.181 7        43.100  
C06  36875275.289 7 192019368.345 7        47.800    36875272.863 7 148481612.268 7        47.600    36875265.070 8 156031482.678 8        48.100  
S37  37735810.016 6 198302946.910 6        41.400  
S28  37950762.797 7 199432729.293 7        44.100  
> 2012 12 15 00 08 30.0000000  0 33
G28  25631974.070 6 134696945.814 6        36.200    25631984.301 2 104958694.38642        15.600                                                                                                  
R02  22552719.500 7 120345769.233 7        46.000    22552720.164 7 120345583.241 7        45.500    22552730.957 6  93602177.921 6        36.800    22552731.621 5  93602184.912 5        35.900  
R15  23247648.648 6 124228369.779 6        40.900    23247649.547 6 124228344.774 6        39.500    23247662.570 6  96622121.132 6        39.700    23247662.063 6  96622123.133 6        38.500  
G10  21270182.164 8 111775510.079 8        49.600    21270187.820 6  87097836.87646        40.200                                                                                                  
G05  25743327.766 6 135282132.270 6        38.300    25743334.418 2 105414645.45142        16.300    25743334.254 5 105414643.418 5        33.100                                                  
G04  22475678.688 7 118110423.918 7        47.000    22475685.223 5  92034111.70545        30.200                                                                                                  
G20  23899839.133 6 125594489.011 6        38.800    23899848.953 3  97865817.30543        22.600                                                                                                  
R13  20573797.219 8 109862864.277 8        52.100    20573797.180 8 109862871.287 8        50.900    20573803.746 7  85448957.421 7        47.000    20573804.063 7  85448963.421 7        46.600  
R04  20844333.109 8 111620439.729 8        50.500    20844332.602 8 111620363.738 8        49.400    20844337.762 7  86815914.675 7        46.900    20844338.777 7  86815920.677 7        47.700  
G13  21474322.414 8 112848396.731 8        50.000    21474326.430 6  87933780.02146        39.700                                                                                                  
R03  19623132.586 8 105044205.756 8        51.700    19623131.605 8 105044148.763 8        50.000    19623136.887 8  81701045.104 8        50.400    19623137.434 8  81701046.101 8        49.900  
G07  20117832.578 9 105719933.178 9        54.100    20117837.004 7  82379181.47647        46.300    20117836.840 8  82379180.477 8        52.600                                                  
G23  23191362.852 7 121871259.303 7        46.400    23191367.219 5  94964770.75945        30.000                                                                                                  
G02  23447957.914 7 123219821.141 7        43.600    23447960.758 4  96015474.90144        28.500                                                                                                  
G16  24224707.555 7 127301873.226 7        42.900    24224714.148 3  99196116.31343        21.700                                                                                                  
R14  19345509.578 8 103122204.432 8        50.300    19345509.422 8 103122403.444 8        48.800    19345518.453 7  80206391.563 7        44.900    19345519.000 7  80206393.556 7        44.500  
J01  41592998.938 6 218572829.884 6        37.900    41592998.633 6 218572807.886 6        41.400    41593007.301 6 170316574.638 6        38.600    41593014.691 7 163220082.001 7        43.800    41593002.715 6 177413061.911 6        40.900  
S29  37499548.922 6 197061395.352 6        41.800  
S27  40033740.578 6 210378714.853 6        36.300  
G08  21011947.617 8 110418620.842 8        48.400    21011953.273 6  86040458.02846        39.700                                                                                                  
C01  37481106.922 7 195173955.159 7        46.700    37481100.512 7 150920856.416 7        46.400    37481095.180 7 158594805.329 7        46.500  
C03  37161507.781 8 193509690.273 8        48.300    37161503.773 7 149633949.081 7        47.500    37161498.559 8 157242456.095 8        48.700  
C04  38636236.797 7 201188998.646 7        42.100    38636233.727 6 155572067.734 6        40.500    38636227.457 7 163482502.389 7        42.700  
C05  39578402.58616 206095077.45416        38.200    39578401.97716 159365763.87016        39.200    39578396.29316 167469109.14916        39.300  
C30  21840404.852 6 113728720.503 6        38.400    21840414.324 7  87942277.399 7        42.600    21840400.082 6  92413879.247 6        41.400  
C07  36211471.273 8 188562723.633 8        50.000    36211466.211 8 145808675.468 8        49.900    36211458.414 8 153222636.550 8        51.400  
C13  24475323.531 7 127449415.005 7        45.100    24475325.387 7  98551952.186 7        45.600                                                  
C10  37033231.773 7 192841769.646 7        47.800    37033230.695 7 149117491.027 7        47.000    37033221.320 7 156699687.710 7        47.500  
C09  36279354.055 8 188916273.140 8        49.700    36279352.684 8 146082124.174 8        49.700    36279343.543 8 153509970.424 8        50.000  
C02  37914507.758 6 197430763.344 6        41.100    37914503.809 7 152665953.603 7        43.200    37914499.180 7 160428630.908 7        43.400  
C06  36880004.078 8 192043994.492 8        48.200    36880002.004 7 148500654.730 7        47.000    36879994.387 8 156051493.406 8        48.600  
S37  37734858.406 6 198297934.198 6        41.600  
S28  37949817.516 7 199427742.956 7        43.500  
> 2012 12 15 00 09  0.0000000  0 33
G28  25609804.797 6 134580433.397 6        36.600    25609812.797 2 104867905.32142        13.900                                                                                                  
R02  22569265.727 7 120434050.664 7        47.300    22569264.867 7 120433864.649 7        46.200    22569274.836 6  93670841.030 6        37.000    22569275.383 5  93670848.026 5        35.700  
R15  23224819.258 6 124106375.163 6        41.300    23224820.625 6 124106350.167 6        39.700    23224832.828 6  96527236.564 6        39.900    23224832.672 6  96527238.568 6        38.800  
G10  21257002.445 8 111706248.206 8        50.000    21257007.398 6  87043866.57346        40.500                                                                                                  
G05  25722383.414 6 135172073.404 6        38.400    25722391.121 2 105328885.19642        16.300    25722391.543 5 105328883.221 5        34.900                                                  
G04  22484202.242 7 118155217.966 7        47.500    22484209.305 5  92069016.07345        31.000                                                                                                  
G20  23917981.398 6 125689825.855 6        39.700    23917990.984 3  97940105.53543        22.600                                                                                                  
R13  20589017.789 8 109944138.814 8        53.200    20589017.633 8 109944145.831 8        51.400    20589024.316 7  85512170.893 7        47.500    20589024.867 7  85512176.893 7        46.800  
R04  20826771.000 8 111526394.422 8        51.100    20826771.547 8 111526318.423 8        49.500    20826776.941 7  86742768.329 7        46.800    20826777.723 7  86742774.330 7        47.000  
G13  21478889.641 8 112872401.298 8        50.100    21478894.418 6  87952484.83846        39.400                                                                                                  
R03  19624592.977 8 105052021.885 8        51.800    19624593.172 8 105051964.907 8        50.800    19624598.098 8  81707124.278 8        50.200    19624598.762 8  81707125.275 8        50.200  
G07  20118490.414 8 105723386.029 8        53.700    20118494.195 7  82381871.99347        46.400    20118493.973 8  82381871.001 8        53.100                                                  
G23  23202236.094 7 121928402.275 7        45.800    23202241.516 4  95009297.61844        29.900                                                                                                  
G02  23447083.227 7 123215222.483 7        44.300    23447087.242 4  96011891.50344        27.900                                                                                                  
G16  24233593.625 6 127348569.632 6        41.800    24233600.277 3  99232503.10243        22.000                                                                                                  
R14  19339806.328 8 103091805.538 8        50.900    19339806.641 8 103092004.528 8        48.800    19339815.789 7  80182747.985 7        44.500    19339816.340 7  80182749.982 7        44.000  
J01  41602304.734 6 218621739.948 6        36.900    41602305.301 6 218621717.943 6        41.300    41602315.559 6 170354686.302 6        39.200    41602322.070 7 163256605.656 7        43.900    41602309.508 6 177452761.563 6        41.000  
S29  37498590.188 6 197056364.333 6        41.800  
S27  40032749.625 6 210373559.083 6        36.600  
G08  20998922.273 8 110350169.380 8        49.500    20998927.344 6  85987119.23346        40.000                                                                                                  
C01  37480031.688 7 195168356.803 7        46.800    37480025.805 7 150916527.388 7        46.500    37480020.414 7 158590256.182 7        45.600  
C03  37160363.602 8 193503730.795 8        48.700    37160359.242 8 149629340.825 8        48.100    37160353.852 8 157237613.515 8        48.900  
C04  38635324.719 7 201184250.378 7        42.000    38635322.117 7 155568396.057 7        42.000    38635316.023 7 163478644.016 7        42.400  
C05  39577283.320 6 206089248.092 6        37.700    39577282.184 6 159361256.206 6        39.400    39577276.207 6 167464372.285 6        39.300  
C30  21819585.469 6 113620301.374 6        39.000    21819592.363 7  87858440.997 7        42.000    21819579.176 6  92325779.947 6        41.800  
C07  36212158.156 8 188566302.084 8        51.100    36212153.094 8 145811442.531 8        50.000    36212145.063 8 153225544.311 8        51.200  
C13  24490018.984 7 127525945.295 7        44.500    24490021.953 7  98611130.136 7        44.600                                                  
C10  37032218.078 7 192836490.356 7        47.600    37032216.824 7 149113408.724 7        47.400    37032207.449 7 156695397.837 7        47.800  
C09  36280827.758 8 188923946.057 8        49.900    36280826.094 8 146088057.347 8        50.500    36280816.953 8 153516205.279 8        50.200  
C02  37913475.641 6 197425385.861 6        41.700    37913471.574 7 152661795.378 7        43.500    37913466.828 7 160424261.255 7        43.100  
C06  36884758.820 7 192068749.326 7        47.900    36884756.219 7 148519796.706 7        47.300    36884748.191 7 156071608.711 7        47.900  
S37  37733897.688 6 198292926.902 6        41.200  
S28  37948869.219 7 199422761.226 7        43.900  
> 2012 12 15 00 09 30.0000000  0 33
G28  25587596.609 5 134463739.747 5        34.300    25587607.309 2 104776975.00942        16.300                                                                                                  
R02  22585875.375 7 120522691.845 7        46.200    22585875.453 7 120522505.843 7        44.800    22585885.895 5  93739783.965 5        35.300    22585886.441 5  93739790.954 5        35.700  
R15  23202039.320 6 123984650.572 6        41.100    23202039.867 6 123984625.579 6        39.200    23202052.539 6  96432562.033 6        40.100    23202052.500 6  96432564.037 6        39.100  
G10  21243889.156 8 111637341.710 8        48.700    21243895.105 6  86990173.19346        39.400                                                                                                  
G05  25701437.172 6 135062003.942 6        37.700    25701445.289 2 105243116.66342        16.300    25701446.180 5 105243114.704 5        33.200                                                  
G04  22492800.648 7 118200402.572 7        47.900    22492807.770 5  92104224.78745        30.200                                                                                                  
G20  23936159.555 6 125785349.649 6        39.400    23936168.141 3  98014539.48043        21.100                                                                                                  
R13  20604319.500 8 110025849.291 8        52.900    20604319.109 8 110025856.301 8        50.800    20604326.500 7  85575723.425 7        47.600    20604326.813 7  85575729.425 7        46.800  
R04  20809256.156 8 111432596.235 8        51.000    20809254.824 8 111432520.259 8        49.900    20809259.633 7  86669814.178 7        47.200    20809260.652 7  86669820.180 7        47.000  
G13  21483479.453 8 112896518.845 8        50.200    21483483.996 6  87971277.69646        39.300                                                                                                  
R03  19626160.930 8 105060419.153 8        52.100    19626161.242 8 105060362.168 8        50.200    19626165.934 8  81713655.444 8        50.000    19626166.598 8  81713656.449 8        50.100  
G07  20119240.125 9 105727328.623 9        54.100    20119244.199 7  82384944.13747        46.300    20119243.918 8  82384943.138 8        52.300                                                  
G23  23213123.617 7 121985617.060 7        46.300    23213128.746 5  95053880.44045        30.600                                                                                                  
G02  23446302.977 7 123211128.613 7        42.900    23446307.988 4  96008701.45344        27.100                                                                                                  
G16  24242572.539 7 127395748.852 7        43.000    24242579.719 3  99269266.03043        22.200                                                                                                  
R14  19334239.594 8 103062132.890 8        50.700    19334240.492 8 103062331.889 8        49.400    19334249.289 7  80159669.270 7        45.000    19334249.723 7  80159671.268 7        44.500  
J01  41611601.500 6 218670585.514 6        37.800    41611601.625 6 218670563.502 6        41.700    41611610.625 6 170392747.708 6        38.600    41611617.840 7 163293081.165 7        44.300    41611604.926 6 177492408.896 6        41.100  
S29  37497635.250 6 197051340.253 6        41.400  
S27  40031793.000 6 210368408.521 6        36.200  
G08  20985990.125 8 110282211.164 8        48.700    20985995.371 6  85934164.78546        39.300                                                                                                  
C01  37478957.930 7 195162766.143 7        46.400    37478951.578 7 150912204.297 7        47.300    37478946.363 7 158585713.292 7        46.000  
C03  37159219.930 8 193497776.485 8        48.800    37159215.512 8 149624736.557 8        48.000    37159210.355 8 157232775.141 8        48.300  
C04  38634414.203 6 201179508.725 6        41.600    38634411.016 6 155564729.499 6        41.400    38634405.273 7 163474791.024 7        42.600  
C05  39576165.719 6 206083424.691 6        37.800    39576164.172 6 159356753.139 6        39.400    39576158.430 6 167459640.264 6        39.600  
C30  21798774.500 6 113511943.458 6        39.200    21798782.625 7  87774651.936 7        42.300    21798769.848 6  92237730.375 6        41.300  
C07  36212852.367 8 188569916.063 8        50.900    36212847.480 8 145814237.090 8        50.800    36212839.332 8 153228480.965 8        51.300  
C13  24504759.313 7 127602697.143 7        44.100    24504761.227 7  98670479.391 7        44.600                                                  
C10  37031216.219 7 192831273.326 7        47.500    37031214.730 7 149109374.574 7        46.900    37031205.766 7 156691158.562 7        47.300  
C09  36282329.352 8 188931764.384 8        50.700    36282327.453 8 146094102.948 8        50.300    36282318.254 8 153522558.296 8        50.800  
C02  37912444.445 6 197420016.209 6        41.700    37912440.203 7 152657643.198 7        44.300    37912435.223 7 160419897.955 7        43.300  
C06  36889537.883 8 192093633.656 8        48.100    36889534.930 7 148539038.824 7        47.100    36889527.078 8 156091829.250 8        48.100  
S37  37732952.703 6 198287925.137 6        41.600  
S28  37947921.797 7 199417784.587 7        42.900  
> 2012 12 15 00 10  0.0000000  0 33
G28  25565357.29715 134346865.64915        34.900    25565367.82012 104685904.12052        14.800                                                                                                  
R02  22602554.453 7 120611689.893 7        46.300    22602553.355 7 120611503.897 7        44.700    22602564.621 5  93809004.448 5        35.900    22602565.637 5  93809011.452 5        35.200  
R15  23179311.367 6 123863196.989 6        41.200    23179311.797 6 123863171.984 6        39.400    23179324.820 6  96338098.328 6        40.500    23179324.664 6  96338100.339 6        39.100  
G10  21230844.680 8 111568791.563 8        49.900    21230850.395 6  86936757.49146        40.000                                                                                                  
G05  25680490.281 6 134951924.355 6        38.100    25680497.637 2 105157340.26142        16.900    25680497.531 5 105157338.285 5        34.200                                                  
G04  22501473.336 7 118245973.926 7        47.800    22501479.109 5  92139734.84145        30.500                                                                                                  
G20  23954372.039 6 125881057.435 6        40.900    23954381.625 3  98089116.72943        20.400                                                                                                  
R13  20619701.523 8 110107989.919 8        51.800    20619700.781 8 110107996.914 8        50.500    20619708.992 8  85639610.510 8        48.100    20619708.953 7  85639616.510 7        46.800  
R04  20791786.461 8 111339047.167 8        51.100    20791785.602 8 111338971.176 8        49.600    20791790.645 7  86597053.795 7        47.600    20791791.309 7  86597059.789 7        47.600  
G13  21488090.375 8 112920747.876 8        50.300    21488094.742 6  87990157.43146        39.400                                                                                                  
R03  19627838.594 8 105069397.164 8        52.400    19627839.023 8 105069340.179 8        50.500    19627843.832 8  81720638.310 8        49.800    19627844.379 8  81720639.306 8        50.100  
G07  20120083.391 9 105731757.926 9        54.500    20120087.934 7  82388395.52447        46.400    20120087.770 8  82388394.531 8        52.600                                                  
G23  23224024.992 7 122042902.083 7        46.500    23224029.828 5  95098518.01145        31.100                                                                                                  
G02  23445620.266 7 123207537.550 7        43.700    23445624.340 4  96005903.21244        28.500                                                                                                  
G16  24251640.930 7 127443407.908 7        42.600    24251648.871 3  99306402.90443        22.500                                                                                                  
R14  19328809.344 8 103033184.707 8        50.900    19328809.773 8 103033383.713 8        49.100    19328818.922 7  80137154.034 7        44.700    19328819.000 7  80137156.026 7        44.500  
J01  41620883.313 6 218719364.746 6        37.400    41620882.625 6 218719342.742 6        41.400    41620892.555 6 170430757.438 6        37.400    41620900.121 7 163329507.139 7        44.600    41620887.383 6 177532002.369 6        41.200  
S29  37496677.938 6 197046319.186 6        41.700  
S27  40030801.703 6 210363261.273 6        36.200  
G08  20973151.773 8 110214745.617 8        49.500    20973157.078 6  85881594.24346        40.400                                                                                                  
C01  37477885.875 7 195157181.718 7        46.300    37477879.113 7 150907886.041 7        47.200    37477874.016 7 158581175.462 7        46.000  
C03  37158076.992 8 193491825.901 8        48.300    37158072.809 7 149620135.178 7        47.900    37158067.535 8 157227939.787 8        48.700  
C04  38633504.602 6 201174772.195 6        41.800    38633501.355 6 155561066.880 6        40.700    38633495.438 7 163470942.175 7        42.400  
C05  39575047.539 6 206077605.670 6        38.700    39575046.402 6 159352253.462 6        39.400    39575040.367 6 167454911.795 6        39.500  
C30  21777978.836 6 113403650.913 6        38.200    21777987.605 7  87690913.387 7        42.400    21777973.891 6  92149733.910 6        41.600  
C07  36213552.586 8 188573563.722 8        50.400    36213547.992 8 145817057.674 8        49.700    36213539.727 8 153231444.981 8        50.800  
C13  24519540.484 7 127679667.895 7        43.700    24519543.102 7  98729997.914 7        43.900                                                  
C10  37030225.961 8 192826116.546 8        48.700    37030224.590 7 149105387.016 7        47.100    37030215.566 7 156686968.250 7        47.600  
C09  36283858.352 8 188939726.949 8        50.700    36283857.098 8 146100260.093 8        51.100    36283848.016 8 153529028.516 8        50.200  
C02  37911414.344 7 197414652.904 7        42.300    37911409.867 7 152653495.934 7        43.700    37911405.297 7 160415539.813 7        43.900  
C06  36894340.523 7 192118645.907 7        47.200    36894338.215 7 148558379.855 7        47.000    36894330.832 8 156112153.737 8        48.200  
S37  37732003.547 6 198282928.279 6        40.800  
S28  37946977.625 7 199412810.333 7        43.600  
> 2012 12 15 00 10 30.0000000  0 33
G28  25543082.281 5 134229811.226 5        33.700    25543092.277 2 104594692.78642        15.600                                                                                                  
R02  22619297.875 7 120701040.787 7        46.000    22619297.719 7 120700854.800 7        44.700    22619308.395 5  93878499.392 5        35.500    22619309.410 5  93878506.383 5        35.300  
R15  23156636.398 7 123742014.716 7        43.000    23156635.773 6 123741989.723 6        40.600    23156647.504 6  96243845.631 6        40.200    23156646.996 6  96243847.642 6        38.900  
G10  21217867.836 8 111500597.604 8        50.600    21217873.434 6  86883619.33746        41.300                                                                                                  
G05  25659540.844 6 134841833.965 6        38.600    25659548.609 2 105071555.51142        16.900    25659549.090 5 105071553.522 5        34.400                                                  
G04  22510218.375 7 118291926.807 7        47.500    22510223.973 5  92175542.19845        30.700                                                                                                  
G20  23972619.836 6 125976945.146 6        40.900    23972628.422 3  98163834.21343        22.500                                                                                                  
R13  20635162.508 8 110190554.425 8        51.900    20635162.469 8 110190561.435 8        50.200    20635170.094 8  85703827.274 8        48.200    20635170.523 7  85703833.274 7        47.600  
R04  20774363.391 8 111245748.162 8        51.000    20774363.117 8 111245672.179 8        50.100    20774368.043 7  86524487.894 7        47.500    20774368.707 7  86524493.896 7        47.700  
G13  21492721.344 8 112945086.133 8        50.500    21492726.297 6  88009122.28146        39.400                                                                                                  
R03  19629623.805 8 105078955.082 8        52.600    19629623.883 8 105078898.104 8        50.100    19629628.574 8  81728072.207 8        49.800    19629629.238 8  81728073.205 8        49.800  
G07  20121017.609 9 105736670.197 9        54.500    20121021.977 7  82392223.26147        46.700    20121021.813 8  82392222.261 8        52.400                                                  
G23  23234939.742 7 122100255.149 7        45.800    23234943.406 4  95143208.59344        29.600                                                                                                  
G02  23445030.742 7 123204446.233 7        42.700    23445036.164 4  96003494.37644        28.500                                                                                                  
G16  24260800.883 6 127491542.862 6        41.600    24260808.590 3  99343910.60143        22.500                                                                                                  
R14  19323514.039 8 103004958.074 8        50.700    19323514.586 8 103005157.082 8        49.000    19323523.500 7  80115199.992 7        44.700    19323523.930 7  80115201.990 7        44.400  
J01  41630152.344 6 218768074.911 6        37.500    41630152.871 7 218768052.907 7        42.200    41630162.582 6 170468713.365 6        38.300    41630169.680 7 163365881.547 7        43.900    41630157.352 6 177571539.799 6        41.300  
S29  37495724.797 6 197041300.381 6        41.600  
S27  40029821.594 5 210358114.975 5        35.800  
G08  20960406.500 8 110147771.124 8        50.300    20960412.098 6  85829406.33446        40.200                                                                                                  
C01  37476813.992 7 195151601.236 7        46.600    37476807.699 7 150903570.818 7        47.200    37476802.602 7 158576640.836 7        46.200  
C03  37156934.523 8 193485876.674 8        48.500    37156930.281 7 149615534.844 7        47.500    37156925.184 8 157223105.544 8        49.000  
C04  38632595.188 6 201170038.499 6        41.700    38632592.703 6 155557406.479 6        41.200    38632587.020 7 163467095.664 7        42.300  
C05  39573931.023 6 206071788.718 6        38.200    39573929.477 6 159347755.383 6        39.400    39573923.734 6 167450185.016 6        38.800  
C30  21757192.398 6 113295412.826 6        39.200    21757200.113 6  87607216.930 6        41.200    21757187.219 6  92061781.690 6        41.600  
C07  36214259.148 8 188577242.204 8        50.500    36214254.145 8 145819902.110 8        49.500    36214246.113 8 153234434.043 8        51.200  
C13  24534362.484 7 127756854.130 7        43.300    24534365.219 7  98789683.010 7        44.800                                                  
C10  37029246.516 8 192821017.167 8        48.400    37029245.027 7 149101443.826 7        46.700    37029235.828 7 156682824.566 7        47.600  
C09  36285414.852 8 188947831.526 8        50.200    36285413.422 8 146106527.041 8        50.900    36285404.105 8 153535614.130 8        50.000  
C02  37910385.000 6 197409293.586 6        41.300    37910381.285 7 152649351.748 7        43.300    37910376.363 7 160411184.911 7        43.600  
C06  36899168.086 7 192143783.694 7        47.900    36899165.777 7 148577817.952 7        47.200    36899157.926 8 156132580.215 8        48.000  
S37  37731054.922 6 198277931.510 6        41.000  
S28  37946029.094 7 199407838.619 7        43.000  
> 2012 12 15 00 11  0.0000000  0 33
G28  25520775.102 5 134112583.495 5        33.100    25520785.273 2 104503346.24042        14.800                                                                                                  
R02  22636109.742 7 120790747.908 7        47.300    22636110.172 7 120790561.936 7        44.400    22636119.910 5  93948271.368 5        35.500    22636120.457 5  93948278.364 5        34.900  
R15  23134008.180 6 123621111.300 6        41.800    23134009.664 6 123621086.308 6        40.800    23134021.516 6  96149809.843 6        40.100    23134021.242 6  96149811.850 6        38.600  
G10  21204961.141 8 111432767.138 8        50.200    21204965.859 6  86830764.42446        41.000                                                                                                  
G05  25638589.953 6 134731739.632 6        37.400    25638598.832 2 104985767.67242        16.300    25638599.195 5 104985765.675 5        33.700                                                  
G04  22519035.492 7 118338263.706 7        46.100    22519041.852 5  92211648.79345        31.100                                                                                                  
G20  23990901.023 6 126073015.714 6        40.800    23990910.078 3  98238694.18843        20.400                                                                                                  
R13  20650704.875 8 110273543.605 8        51.500    20650705.070 8 110273550.615 8        50.200    20650712.695 7  85768374.330 7        47.200    20650712.656 7  85768380.338 7        46.800  
R04  20756988.172 8 111152707.270 8        51.500    20756987.898 8 111152631.256 8        49.500    20756993.293 7  86452122.765 7        47.600    20756993.723 7  86452128.767 7        47.600  
G13  21497374.430 8 112969538.391 8        50.100    21497379.500 6  88028175.95646        39.500                                                                                                  
R03  19631519.172 8 105089098.849 8        52.000    19631518.664 8 105089041.870 8        50.500    19631523.473 8  81735961.763 8        49.800    19631524.020 8  81735962.761 8        50.000  
G07  20122045.180 9 105742068.372 9        54.200    20122049.371 7  82396429.61447        46.800    20122049.500 8  82396428.614 8        52.500                                                  
G23  23245867.680 7 122157681.322 7        45.300    23245871.051 5  95187956.13145        30.200                                                                                                  
G02  23444539.578 7 123201858.413 7        44.700    23444543.594 4  96001477.86444        28.400                                                                                                  
G16  24270052.039 6 127540156.949 6        40.400    24270060.156 3  99381791.64443        22.900                                                                                                  
R14  19318354.750 8 102977457.414 8        50.200    19318355.531 8 102977656.420 8        48.900    19318364.211 7  80093810.595 7        45.000    19318364.762 7  80093812.592 7        44.000  
J01  41639410.703 6 218816720.480 6        38.700    41639409.566 6 218816698.477 6        41.700    41639419.418 6 170506618.932 6        38.900    41639426.105 7 163402207.710 7        44.100    41639413.484 6 177611024.784 6        41.100  
S29  37494772.000 7 197036288.388 7        42.100  
S27  40028840.063 5 210352974.896 5        35.700  
G08  20947756.180 8 110081293.429 8        50.000    20947762.129 6  85777605.54246        39.600                                                                                                  
C01  37475744.273 7 195146029.327 7        46.800    37475737.629 7 150899262.248 7        47.200    37475732.473 7 158572113.183 7        45.800  
C03  37155793.492 8 193479933.521 8        48.500    37155789.191 8 149610939.213 8        48.100    37155784.152 8 157218276.247 8        48.600  
C04  38631688.219 6 201165312.172 6        41.800    38631685.500 6 155553751.768 6        41.700    38631679.348 7 163463255.117 7        42.200  
C05  39572813.945 6 206065978.598 6        37.700    39572814.273 6 159343262.587 6        39.300    39572808.004 6 167445463.778 6        39.500  
C30  21736420.500 6 113187246.515 6        39.400    21736429.152 7  87523576.026 7        42.400    21736415.730 6  91973887.811 6        41.200  
C07  36214972.516 8 188580955.682 8        50.200    36214967.277 8 145822773.598 8        49.500    36214959.422 8 153237451.548 8        50.600  
C13  24549228.688 7 127834259.196 7        43.600    24549230.895 7  98849537.391 7        44.600                                                  
C10  37028279.492 8 192815979.470 8        48.000    37028277.301 7 149097548.353 7        47.200    37028268.570 7 156678731.016 7        47.900  
C09  36286999.484 8 188956083.030 8        50.200    36286997.645 8 146112907.618 8        50.300    36286988.563 8 153542319.140 8        51.000  
C02  37909357.641 6 197403942.907 6        41.300    37909353.926 7 152645214.236 7        44.000    37909349.004 7 160406837.024 7        43.400  
C06  36904021.563 8 192169051.391 8        48.300    36904018.082 7 148597356.519 7        47.300    36904010.406 8 156153112.270 8        48.500  
S37  37730102.313 6 198272941.068 6        41.300  
S28  37945086.828 7 199402872.347 7        43.800  
> 2012 12 15 00 11 30.0000000  0 33
G28  25498433.852 5 133995181.611 5        33.000    25498443.320 2 104411864.04742        15.600                                                                                                  
R02  22652987.320 7 120880806.865 7        46.400    22652987.281 7 120880620.867 7        45.100    22652997.957 6  94018316.979 6        36.000    22652998.855 5  94018323.979 5        35.400  
R15  23111435.547 6 123500486.152 6        41.800    23111435.977 6 123500461.171 6        40.900    23111448.176 6  96055990.458 6        40.200    23111447.668 6  96055992.477 6        38.600  
G10  21192122.891 8 111365299.531 8        49.800    21192127.434 6  86778192.25546        41.800                                                                                                  
G05  25617640.266 6 134621640.149 6        38.800    25617647.738 2 104899975.82242        17.400    25617647.340 5 104899973.817 5        32.400                                                  
G04  22527925.656 7 118384978.695 7        47.900    22527931.664 5  92248050.00345        31.200                                                                                                  
G20  24009215.906 6 126169264.294 6        41.400    24009225.609 3  98313692.85643        21.500                                                                                                  
R13  20666324.563 8 110356950.085 8        51.900    20666324.055 8 110356957.102 8        50.200    20666331.090 7  85833245.978 7        47.400    20666331.641 7  85833251.978 7        46.400  
R04  20739662.648 8 111059924.993 8        51.400    20739662.609 8 111059848.995 8        50.000    20739667.301 7  86379958.786 7        47.500    20739667.965 7  86379964.781 7        47.700  
G13  21502048.797 8 112994101.653 8        49.800    21502053.047 6  88047316.14646        39.200                                                                                                  
R03  19633523.031 8 105099826.509 8        51.900    19633522.758 8 105099769.524 8        50.700    19633527.449 8  81744305.459 8        50.200    19633527.996 8  81744306.457 8        49.900  
G07  20123164.172 9 105747947.967 9        54.700    20123168.246 7  82401011.10447        46.400    20123168.199 8  82401010.104 8        53.300                                                  
G23  23256808.898 7 122215177.908 7        44.700    23256813.090 5  95232758.55745        30.300                                                                                                  
G02  23444142.469 7 123199770.083 7        43.000    23444147.070 4  95999850.56744        28.700                                                                                                  
G16  24279393.414 6 127589245.416 6        41.300    24279401.941 3  99420042.31343        22.900                                                                                                  
R14  19313331.398 8 102950679.058 8        50.800    19313331.594 8 102950878.056 8        48.900    19313340.859 7  80072982.991 7        44.500    19313340.820 7  80072984.989 7        44.200  
J01  41648653.250 6 218865297.943 6        39.900    41648653.621 6 218865275.934 6        41.500    41648662.609 6 170544471.457 6        39.000    41648670.000 7 163438483.025 7        44.100    41648657.730 6 177650454.501 6        41.500  
S29  37493814.438 6 197031280.181 6        41.600  
S27  40027861.438 5 210347837.022 5        35.900  
G08  20935200.539 8 110015310.290 8        50.000    20935205.902 6  85726190.12546        40.300                                                                                                  
C01  37474675.539 7 195140462.956 7        47.100    37474669.070 7 150894957.954 7        47.300    37474663.914 7 158567590.038 7        46.000  
C03  37154652.555 8 193473993.376 8        48.400    37154648.371 7 149606345.896 7        47.800    37154642.922 8 157213449.380 8        48.500  
C04  38630781.578 7 201160590.378 7        42.500    38630778.332 7 155550100.553 7        42.700    38630772.590 7 163459418.255 7        42.300  
C05  39571700.000 6 206060172.145 6        37.600    39571698.570 6 159338772.625 6        38.600    39571692.535 6 167440745.528 6        39.100  
C30  21715660.219 6 113079143.942 6        39.400    21715668.285 7  87439984.366 7        42.600    21715655.801 6  91886045.705 6        41.800  
C07  36215691.313 8 188584700.773 8        50.500    36215686.191 8 145825669.538 8        50.100    36215678.219 8 153240494.738 8        50.600  
C13  24564134.758 7 127911879.216 7        43.900    24564137.844 7  98909557.973 7        44.300                                                  
C10  37027322.938 8 192811000.022 8        48.100    37027321.449 7 149093697.893 7        47.600    37027312.250 7 156674684.777 7        47.400  
C09  36288611.148 8 188964478.490 8        50.300    36288610.129 8 146119399.489 8        50.600    36288600.988 8 153549141.120 8        50.000  
C02  37908330.609 6 197398597.884 6        41.600    37908327.070 7 152641081.100 7        44.100    37908322.559 7 160402493.740 7        43.800  
C06  36908898.414 8 192194445.915 8        48.800    36908895.051 7 148616993.151 7        47.500    36908887.258 7 156173747.392 7        47.800  
S37  37729158.641 6 198267954.501 6        40.900  
S28  37944141.234 7 199397911.186 7        43.700  
> 2012 12 15 00 12  0.0000000  0 33
G28  25476061.086 5 133877612.063 5        34.800    25476072.078 2 104320251.28442        14.800                                                                                                  
R02  22669931.969 7 120971220.394 7        46.000    22669929.934 7 120971034.399 7        44.900    22669941.078 5  94088638.403 5        35.800    22669941.273 5  94088645.410 5        35.100  
R15  23088915.922 7 123380146.065 7        42.300    23088916.234 6 123380121.076 6        41.000    23088927.262 6  95962392.765 6        40.100    23088927.105 6  95962394.773 6        38.500  
G10  21179353.828 8 111298201.487 8        49.800    21179359.191 6  86725908.05846        41.200                                                                                                  
G05  25596688.555 5 134511541.397 5        35.700    25596696.438 3 104814184.50143        19.300    25596697.211 5 104814182.504 5        35.300                                                  
G04  22536887.219 7 118432073.507 7        47.000    22536893.578 5  92284747.18545        30.200                                                                                                  
G20  24027566.109 6 126265692.552 6        41.200    24027575.578 3  98388831.54843        21.100                                                                                                  
R13  20682022.117 8 110440774.325 8        52.800    20682022.313 8 110440781.327 8        49.900    20682029.469 7  85898442.529 7        46.400    20682029.664 7  85898448.529 7        45.800  
R04  20722386.070 8 110967408.674 8        51.500    20722385.211 8 110967332.690 8        49.800    20722389.781 7  86308001.645 7        47.800    20722390.801 7  86308007.653 7        47.400  
G13  21506744.477 8 113018780.388 8        49.100    21506749.781 6  88066546.28946        39.200                                                                                                  
R03  19635637.938 8 105111143.406 8        51.900    19635637.195 8 105111086.422 8        50.900    19635642.121 8  81753107.445 8        50.200    19635642.785 8  81753108.448 8        50.100  
G07  20124375.000 9 105754311.678 9        54.900    20124379.309 7  82405969.83147        46.600    20124379.145 8  82405968.832 8        52.900                                                  
G23  23267763.867 7 122272748.818 7        45.200    23267768.176 5  95277618.87445        30.400                                                                                                  
G02  23443840.445 7 123198184.328 7        43.900    23443844.578 4  95998614.88844        29.000                                                                                                  
G16  24288826.000 6 127638810.786 6        38.900    24288833.355 3  99458664.60143        21.800                                                                                                  
R14  19308444.094 8 102924626.938 8        50.600    19308444.523 8 102924825.937 8        49.200    19308452.852 7  80052720.247 7        45.100    19308453.398 7  80052722.244 7        43.800  
J01  41657886.484 6 218913811.120 6        40.600    41657885.113 6 218913789.109 6        41.600    41657895.609 6 170582273.866 6        39.100    41657902.063 7 163474710.330 7        44.100    41657889.852 6 177689832.026 6        41.700  
S29  37492859.297 6 197026278.137 6        41.300  
S27  40026896.922 6 210342706.705 6        36.600  
G08  20922738.875 8 109949826.712 8        48.500    20922744.707 6  85675163.97146        40.400                                                                                                  
C01  37473608.156 7 195134906.203 7        47.000    37473601.629 7 150890661.104 7        47.600    37473596.648 7 158563074.693 7        45.900  
C03  37153513.352 8 193468060.265 8        48.400    37153509.578 7 149601758.025 7        47.800    37153504.188 8 157208628.225 8        48.500  
C04  38629875.984 6 201155876.993 6        41.700    38629873.207 7 155546455.844 7        42.400    38629867.348 7 163455588.229 7        43.000  
C05  39570585.750 6 206054373.493 6        37.000    39570585.199 6 159334288.682 6        39.100    39570579.340 6 167436033.603 6        38.700  
C30  21694915.250 6 112971115.129 6        40.400    21694921.734 6  87356449.745 6        41.800    21694909.836 6  91798263.537 6        41.700  
C07  36216417.180 8 188588480.971 8        50.300    36216412.645 8 145828592.622 8        49.600    36216404.617 8 153243566.452 8        50.300  
C13  24579082.828 7 127989716.935 7        43.200    24579085.621 7  98969746.911 7        44.300                                                  
C10  37026378.305 8 192806082.503 8        48.600    37026376.816 7 149089895.345 7        47.200    37026367.734 7 156670688.882 7        47.200  
C09  36290252.156 8 188973022.261 8        50.700    36290250.902 8 146126006.068 8        50.200    36290241.527 8 153556083.622 8        50.500  
C02  37907306.031 7 197393262.534 7        42.200    37907302.551 7 152636955.444 7        44.700    37907298.039 7 160398158.308 7        43.600  
C06  36913799.289 7 192219971.270 7        47.700    36913796.453 7 148636730.943 7        46.800    36913789.129 8 156194488.808 8        48.300  
S37  37728205.313 6 198262975.161 6        40.900  
S28  37943195.172 7 199392955.752 7        43.400  
> 2012 12 15 00 12 30.0000000  0 33
G28  25453656.070 5 133759872.247 5        34.600    25453667.824 2 104228505.80542        14.800                                                                                                  
R02  22686938.141 7 121061981.390 7        45.800    22686938.570 7 121061795.407 7        44.300    22686950.418 5  94159230.092 5        35.600    22686950.613 5  94159237.089 5        34.600  
R15  23066446.547 6 123260088.351 6        41.800    23066447.328 6 123260063.396 6        40.400    23066459.293 6  95869014.718 6        39.900    23066459.488 6  95869016.719 6        39.300  
G10  21166655.148 8 111231470.289 8        51.400    21166660.336 6  86673909.71846        41.400                                                                                                  
G05  25575736.305 6 134401440.070 6        36.500    25575744.949 2 104728391.20142        17.400    25575744.668 5 104728389.182 5        34.100                                                  
G04  22545920.023 8 118479540.339 8        48.100    22545926.148 4  92321734.24844        29.100                                                                                                  
G20  24045949.844 6 126362293.644 6        41.500    24045958.605 3  98464104.89043        20.400                                                                                                  
R13  20697796.188 8 110525006.990 8        52.200    20697796.266 8 110525013.993 8        50.300    20697804.008 7  85963956.759 7        47.200    20697803.617 7  85963962.759 7        46.500  
R04  20705158.422 8 110875156.657 8        51.200    20705157.797 8 110875080.666 8        50.400    20705162.605 7  86236250.094 7        47.900    20705163.035 7  86236256.104 7        47.200  
G13  21511462.328 8 113043569.180 8        50.000    21511466.930 6  88085862.20146        39.300                                                                                                  
R03  19637861.063 8 105123045.680 8        52.300    19637860.320 8 105122988.680 8        50.500    19637865.363 8  81762364.732 8        50.200    19637866.027 8  81762365.735 8        50.000  
G07  20125677.211 9 105761152.935 9        54.800    20125681.695 7  82411300.66347        46.300    20125681.355 8  82411299.672 8        52.500                                                  
G23  23278733.250 7 122330389.230 7        45.000    23278737.148 5  95322533.35645        31.100                                                                                                  
G02  23443633.734 7 123197095.688 7        43.900    23443637.633 4  95997766.56144        28.900                                                                                                  
G16  24298345.805 6 127688846.659 6        39.200    24298354.566 3  99497653.50143        20.600                                                                                                  
R14  19303692.648 8 102899295.135 8        50.200    19303692.844 8 102899494.146 8        48.700    19303701.406 7  80033017.743 7        44.300    19303701.953 7  80033019.741 7        43.800  
J01  41667103.484 6 218962254.529 6        39.700    41667103.707 6 218962232.519 6        41.800    41667114.016 6 170620021.935 6        39.000    41667120.996 7 163510885.559 7        44.900    41667108.785 6 177729152.938 6        41.100  
S29  37491914.469 6 197021279.183 6        41.600  
S27  40025920.953 6 210337577.667 6        36.100  
G08  20910372.992 8 109884838.531 8        51.600    20910378.648 6  85624523.84846        40.500                                                                                                  
C01  37472541.797 7 195129354.001 7        46.100    37472535.328 7 150886367.770 7        47.000    37472530.230 7 158558563.059 7        45.900  
C03  37152374.563 8 193462129.188 8        48.300    37152370.262 7 149597171.721 7        47.600    37152365.047 8 157203808.720 8        48.200  
C04  38628972.000 7 201151167.064 7        42.500    38628968.520 7 155542813.816 7        42.100    38628962.836 7 163451761.015 7        42.600  
C05  39569473.61716 206048577.55116        37.500    39569472.12916 159329807.84216        38.800    39569466.21116 167431324.87716        39.200  
C30  21674183.477 6 112863163.521 6        40.400    21674190.664 6  87272974.858 6        41.500    21674179.117 7  91710544.138 7        42.100  
C07  36217148.906 8 188592290.702 8        50.800    36217144.195 8 145831538.548 8        49.800    36217135.988 8 153246662.166 8        51.300  
C13  24594070.117 7 128067766.222 7        43.800    24594074.668 7  99030099.415 7        44.500                                                  
C10  37025445.523 8 192801221.364 8        48.700    37025444.035 7 149086136.383 7        47.500    37025434.895 7 156666738.799 7        47.600  
C09  36291920.375 8 188981709.328 8        50.800    36291919.063 8 146132723.438 8        50.200    36291909.863 8 153563142.561 8        49.700  
C02  37906282.625 6 197387931.823 6        41.600    37906278.910 7 152632833.378 7        43.300    37906274.340 7 160393826.648 7        43.200  
C06  36918725.398 8 192245622.185 8        48.200    36918722.621 7 148656565.834 7        46.900    36918715.063 8 156215332.252 8        48.100  
S37  37727256.563 6 198257997.765 6        40.900  
S28  37942259.297 7 199388002.391 7        43.000  
> 2012 12 15 00 13  0.0000000  0 33
G28  25431217.734 5 133641967.050 5        34.700    25431231.656 2 104136631.46342        15.600                                                                                                  
R02  22704012.266 7 121153091.299 7        45.600    22704013.164 7 121152905.297 7        44.700    22704024.309 6  94230093.125 6        36.000    22704024.855 5  94230100.121 5        35.200  
R15  23044035.445 7 123140318.359 7        42.200    23044034.703 6 123140293.356 6        41.100    23044045.965 6  95775860.447 6        39.800    23044045.574 6  95775862.443 6        38.300  
G10  21154027.195 8 111165110.845 8        50.200    21154032.207 6  86622201.06346        40.900                                                                                                  
G05  25554785.172 6 134291340.798 6        37.000    25554795.051 2 104642599.50242        17.400    25554794.824 5 104642597.534 5        34.700                                                  
G04  22555023.750 8 118527379.149 8        48.200    22555029.875 5  92359011.16645        30.700                                                                                                  
G20  24064365.117 6 126459068.622 6        41.100    24064374.996 3  98539513.76343        19.900                                                                                                  
R13  20713645.805 8 110609647.045 8        51.700    20713645.766 8 110609654.040 8        50.000    20713653.859 7  86029787.838 7        47.200    20713653.586 7  86029793.838 7        46.000  
R04  20687980.609 8 110783175.037 8        51.600    20687980.805 8 110783099.038 8        50.600    20687984.676 7  86164708.829 7        47.600    20687985.926 7  86164714.838 7        47.300  
G13  21516199.977 8 113068470.691 8        50.200    21516205.398 6  88105265.93346        39.600                                                                                                  
R03  19640193.695 8 105135536.915 8        51.400    19640194.008 8 105135479.917 8        50.100    19640199.051 8  81772080.097 8        49.900    19640199.598 8  81772081.101 8        49.800  
G07  20127069.938 9 105768472.568 9        54.800    20127074.188 7  82417004.27047        46.600    20127073.730 8  82417003.270 8        52.600                                                  
G23  23289715.383 7 122388101.813 7        45.500    23289720.102 5  95367504.06945        30.100                                                                                                  
G02  23443521.008 7 123196505.512 7        44.200    23443524.965 4  95997306.64944        28.100                                                                                                  
G16  24307957.563 6 127739353.662 6        39.200    24307965.621 3  99537009.56443        19.300                                                                                                  
R14  19299076.023 8 102874685.986 8        49.700    19299075.516 8 102874884.990 8        48.800    19299084.547 7  80013877.287 7        45.300    19299084.859 7  80013879.293 7        44.700  
J01  41676310.125 6 219010630.388 6        39.900    41676309.039 6 219010608.385 6        41.200    41676318.488 6 170657717.376 6        38.300    41676325.645 7 163547010.347 7        44.000    41676312.672 6 177768419.033 6        41.100  
S29  37490962.156 6 197016284.585 6        41.600  
S27  40024936.406 5 210332453.228 5        35.800  
G08  20898100.664 8 109820349.295 8        50.900    20898105.676 6  85574272.51946        40.300                                                                                                  
C01  37471476.961 7 195123808.844 7        47.000    37471470.727 7 150882079.893 7        46.900    37471465.570 7 158554057.156 7        46.100  
C03  37151236.250 8 193456202.653 8        48.400    37151231.598 7 149592588.938 7        47.300    37151226.324 8 157198992.907 8        48.300  
C04  38628068.805 7 201146463.156 7        42.100    38628065.500 6 155539176.446 6        41.600    38628059.582 7 163447938.697 7        42.100  
C05  39568361.539 6 206042786.791 6        37.600    39568360.109 6 159325330.013 6        38.700    39568354.543 6 167426619.379 6        39.000  
C30  21653467.023 6 112755286.929 6        40.400    21653473.566 6  87189557.997 6        41.600    21653461.844 7  91622885.680 7        42.400  
C07  36217886.367 8 188596132.084 8        50.300    36217882.125 8 145834508.933 8        49.700    36217873.863 8 153249783.599 8        50.500  
C13  24609101.852 7 128146028.358 7        43.800    24609104.586 7  99090616.553 7        45.500                                                  
C10  37024523.070 8 192796418.870 8        48.300    37024521.289 7 149082422.778 7        47.600    37024512.207 7 156662836.374 7        47.400  
C09  36293617.023 8 188990542.554 8        50.700    36293616.063 8 146139553.832 8        50.400    36293606.629 8 153570320.266 8        50.200  
C02  37905260.469 6 197382608.265 6        41.300    37905256.695 7 152628716.829 7        43.900    37905252.125 7 160389500.800 7        43.600  
C06  36923676.422 7 192271401.023 7        47.800    36923673.234 7 148676499.653 7        46.800    36923665.969 7 156236279.657 7        47.300  
S37  37726312.500 6 198253026.899 6        40.900  
S28  37941313.406 7 199383053.507 7        43.000  
> 2012 12 15 00 13 30.0000000  0 33
G28  25408753.383 5 133523900.014 5        34.700    25408762.672 2 104044630.92842        14.800                                                                                                  
R02  22721154.117 7 121244549.457 7        46.800    22721153.258 7 121244363.454 7        45.300    22721163.227 5  94301227.056 5        35.900    22721164.246 5  94301234.042 5        34.900  
R15  23021676.367 7 123020839.915 7        42.400    23021675.977 6 123020814.926 6        40.400    23021687.238 6  95682932.897 6        39.500    23021687.199 6  95682934.901 6        38.500  
G10  21141470.703 8 111099126.627 8        49.600    21141475.832 6  86570784.78546        41.300                                                                                                  
G05  25533834.133 6 134181246.541 6        36.900    25533844.188 3 104556811.73543        18.600    25533843.727 5 104556809.740 5        35.900                                                  
G04  22564197.797 7 118575588.476 7        47.200    22564203.512 5  92396576.78945        30.700                                                                                                  
G20  24082813.563 6 126556016.753 6        39.200    24082823.500 3  98615057.55943        20.400                                                                                                  
R13  20729572.328 8 110694691.204 8        51.900    20729572.172 8 110694698.207 8        50.000    20729580.383 7  86095933.212 7        47.600    20729580.461 7  86095939.212 7        46.800  
R04  20670855.563 8 110691468.232 8        51.900    20670854.582 8 110691392.249 8        50.400    20670858.805 7  86093381.337 7        47.000    20670859.941 7  86093387.331 7        47.700  
G13  21520961.398 8 113093486.234 8        50.300    21520966.586 6  88124758.53646        39.800                                                                                                  
R03  19642637.711 8 105148619.347 8        51.500    19642637.672 8 105148562.354 8        50.100    19642643.184 8  81782255.281 8        50.000    19642643.613 8  81782256.277 8        50.000  
G07  20128553.727 9 105776270.322 9        54.900    20128557.801 7  82423080.43547        46.900    20128557.871 8  82423079.435 8        52.700                                                  
G23  23300711.313 7 122445887.859 7        45.300    23300715.973 5  95412532.03945        30.500                                                                                                  
G02  23443502.336 7 123196413.911 7        44.100    23443506.820 4  95997235.24244        27.700                                                                                                  
G16  24317656.727 6 127790331.267 6        38.100    24317665.137 3  99576732.32043        19.900                                                                                                  
R14  19294594.742 8 102850799.609 8        50.200    19294595.055 8 102850998.615 8        48.600    19294603.734 7  79995299.001 7        44.600    19294604.398 7  79995300.999 7        44.800  
J01  41685503.141 6 219058939.429 6        39.200    41685502.336 6 219058917.426 6        41.800    41685512.266 6 170695360.761 6        38.400    41685519.363 7 163583085.246 7        44.200    41685507.563 6 177807630.895 6        41.500  
S29  37490014.672 6 197011295.359 6        41.600  
S27  40023960.906 6 210327334.264 6        36.200  
G08  20885923.336 8 109756360.254 8        48.800    20885929.168 6  85524410.94446        40.500                                                                                                  
C01  37470413.648 7 195118271.834 7        46.300    37470407.004 7 150877798.314 7        47.500    37470401.965 7 158549557.875 7        45.900  
C03  37150099.180 8 193450281.686 8        48.600    37150094.410 7 149588010.455 7        47.700    37150089.195 8 157194181.627 8        48.700  
C04  38627166.734 7 201141766.170 7        42.100    38627163.430 6 155535544.407 6        41.300    38627157.277 7 163444121.984 7        42.200  
C05  39567250.391 6 206037002.345 6        37.200    39567249.781 6 159320857.076 6        38.900    39567244.039 6 167421919.015 6        39.100  
C30  21632765.078 6 112647488.491 6        39.700    21632771.738 6  87106201.537 6        41.700    21632760.074 7  91535290.740 7        42.200  
C07  36218630.234 8 188600005.689 8        50.200    36218625.523 8 145837504.244 8        49.500    36218617.555 8 153252931.204 8        50.300  
C13  24624171.523 7 128224503.396 7        44.300    24624174.434 7  99151298.284 7        45.500                                                  
C10  37023612.047 7 192791675.249 7        47.900    37023610.207 7 149078754.684 7        47.500    37023601.418 7 156658981.774 7        47.300  
C09  36295341.250 8 188999523.077 8        50.100    36295340.641 8 146146498.128 8        50.500    36295331.383 8 153577617.663 8        50.200  
C02  37904239.484 6 197377292.852 6        41.900    37904236.004 7 152624606.593 7        43.900    37904231.258 7 160385181.585 7        43.700  
C06  36928650.969 7 192297308.690 7        47.600    36928649.070 7 148696533.083 7        47.300    36928641.160 8 156257331.747 8        48.100  
S37  37725362.344 6 198248061.277 6        41.400  
S28  37940374.000 7 199378110.295 7        43.100  
> 2012 12 15 00 14  0.0000000  0 33
G28  25386255.891 6 133405674.188 6        36.300    25386265.711 2 103952506.84842        14.800                                                                                                  
R02  22738358.281 7 121336355.187 7        46.400    22738357.066 7 121336169.206 7        44.900    22738368.328 5  94372631.288 5        35.700    22738368.879 5  94372638.281 5        35.400  
R15  22999372.203 7 122901655.983 7        42.100    22999371.930 6 122901630.979 6        41.300    22999383.543 6  95590234.427 6        41.400    22999383.738 6  95590236.438 6        39.100  
G10  21128985.781 8 111033521.189 8        51.700    21128991.789 6  86519663.67046        41.200                                                                                                  
G05  25512887.727 6 134071159.853 6        38.100    25512895.902 3 104471029.87243        19.300    25512895.621 5 104471027.875 5        34.700                                                  
G04  22573441.070 7 118624166.175 7        47.200    22573448.016 5  92434429.47745        30.000                                                                                                  
G20  24101295.586 6 126653136.674 6        39.800    24101305.582 3  98690735.14843        20.400                                                                                                  
R13  20745572.633 8 110780136.040 8        51.300    20745572.945 8 110780143.034 8        49.900    20745581.156 7  86162390.222 7        47.300    20745581.352 7  86162396.229 7        47.100  
R04  20653781.352 8 110600040.415 8        51.400    20653782.016 8 110599964.432 8        50.500    20653786.941 8  86022270.806 8        48.100    20653787.488 8  86022276.814 8        48.100  
G13  21525743.289 8 113118616.501 8        50.400    21525748.652 6  88144340.50946        39.400                                                                                                  
R03  19645192.328 8 105162294.784 8        51.200    19645192.172 8 105162237.794 8        50.000    19645197.918 8  81792891.687 8        50.000    19645198.582 8  81792892.685 8        50.500  
G07  20130128.180 9 105784545.532 9        54.100    20130132.488 7  82429528.63847        46.600    20130132.266 8  82429527.639 8        52.600                                                  
G23  23311722.242 7 122503748.284 7        44.900    23311727.020 5  95457617.94845        30.700                                                                                                  
G02  23443580.758 7 123196820.592 7        44.500    23443585.418 4  95997552.08544        28.000                                                                                                  
G16  24327449.609 6 127841778.872 6        40.100    24327455.090 3  99616821.27443        21.100                                                                                                  
R14  19290249.063 8 102827635.951 8        50.600    19290249.844 8 102827834.955 8        49.100    19290258.172 7  79977282.833 7        44.800    19290258.953 7  79977284.830 7        44.600  
J01  41694682.438 6 219107181.952 6        40.200    41694683.063 6 219107159.941 6        41.400    41694693.379 6 170732952.293 6        39.000    41694700.301 7 163619110.461 7        44.500    41694687.680 6 177846788.747 6        40.800  
S29  37489069.641 6 197006309.941 6        41.700  
S27  40022994.844 6 210322221.550 6        36.200  
G08  20873841.898 8 109692872.935 8        50.100    20873847.379 6  85474940.31746        40.300                                                                                                  
C01  37469352.141 7 195112743.608 7        46.400    37469345.262 7 150873523.525 7        47.000    37469340.281 7 158545065.730 7        45.700  
C03  37148963.367 8 193444367.013 8        48.800    37148959.242 7 149583436.839 7        47.500    37148953.852 8 157189375.468 8        48.500  
C04  38626265.867 7 201137076.846 7        42.300    38626262.855 7 155531918.296 7        42.000    38626257.055 7 163440311.500 7        42.100  
C05  39566140.805 6 206031224.890 6        37.800    39566139.844 6 159316389.545 6        39.000    39566134.102 6 167417224.323 6        39.500  
C30  21612077.758 6 112539763.873 6        40.200    21612084.594 6  87022902.187 6        41.800    21612072.871 7  91447755.796 7        42.200  
C07  36219380.211 8 188603911.673 8        50.500    36219375.441 8 145840524.590 8        50.000    36219367.352 8 153256105.138 8        50.700  
C13  24639283.820 7 128303190.754 7        44.600    24639286.262 7  99212144.201 7        45.300                                                  
C10  37022712.414 7 192786991.086 7        47.900    37022710.398 7 149075132.571 7        47.000    37022701.785 7 156655175.490 7        47.900  
C09  36297094.672 8 189008651.677 8        50.800    36297093.359 8 146153556.919 8        50.300    36297084.277 8 153585035.381 8        50.300  
C02  37903221.063 7 197371986.312 7        42.400    37903216.527 7 152620503.205 7        44.400    37903212.016 7 160380869.544 7        43.500  
C06  36933650.891 7 192323345.860 7        47.600    36933649.109 7 148716666.647 7        47.300    36933641.375 7 156278489.060 7        47.800  
S37  37724414.156 6 198243102.668 6        41.100  
S28  37939432.594 7 199373174.501 7        43.300  
> 2012 12 15 00 14 30.0000000  0 33
G28  25363726.992 6 133287289.578 6        36.100    25363738.570 2 103860258.92742        13.900                                                                                                  
R02  22755627.008 7 121428504.523 7        45.900    22755626.266 7 121428318.526 7        44.900    22755636.820 5  94444302.744 5        35.200    22755637.840 5  94444309.746 5        34.400  
R15  22977123.594 7 122782766.853 7        42.000    22977123.672 6 122782741.859 6        40.700    22977136.223 6  95497765.273 6        41.300    22977135.832 6  95497767.277 6        39.300  
G10  21116574.227 8 110968294.331 8        52.200    21116579.883 6  86468837.54646        41.600                                                                                                  
G05  25491940.555 6 133961080.722 6        39.900    25491947.676 3 104385253.88243        20.600    25491947.805 5 104385251.854 5        35.500                                                  
G04  22582755.656 8 118673107.196 8        48.300    22582760.844 4  92472565.25244        29.900                                                                                                  
G20  24119808.742 6 126750423.810 6        39.300    24119819.441 3  98766543.09543        20.400                                                                                                  
R13  20761648.414 8 110865975.479 8        51.200    20761647.316 8 110865982.475 8        50.100    20761655.293 8  86229154.142 8        48.100    20761655.844 7  86229160.142 7        46.700  
R04  20636759.945 8 110508892.405 8        51.900    20636759.789 8 110508816.414 8        50.400    20636765.066 7  85951377.929 7        47.800    20636765.613 7  85951383.931 7        47.800  
G13  21530546.289 8 113143859.079 8        49.800    21530551.945 6  88164010.02046        39.100                                                                                                  
R03  19647857.555 8 105176561.775 8        51.200    19647857.867 8 105176504.791 8        50.200    19647863.613 8  81803988.194 8        50.600    19647864.043 8  81803989.190 8        50.400  
G07  20131793.266 9 105793294.016 9        54.100    20131797.340 7  82436345.63647        46.700    20131797.059 8  82436344.636 8        52.500                                                  
G23  23322745.234 7 122561680.815 7        43.800    23322751.477 4  95502760.06544        29.600                                                                                                  
G02  23443752.922 7 123197722.156 7        43.900    23443756.879 4  95998254.56944        28.100                                                                                                  
G16  24337326.969 6 127893691.559 6        39.500    24337334.148 3  99657272.68643        19.900                                                                                                  
R14  19286037.875 8 102805192.022 8        50.900    19286038.305 8 102805391.026 8        48.900    19286047.336 7  79959826.447 7        44.600    19286047.531 7  79959828.445 7        44.200  
J01  41703850.156 6 219155355.099 6        40.200    41703849.988 6 219155333.088 6        41.600    41703859.633 6 170770489.782 6        38.700    41703867.141 7 163655083.872 7        44.300    41703854.461 6 177885890.300 6        41.000  
S29  37488117.641 6 197001333.213 6        41.800  
S27  40022025.359 5 210317112.046 5        35.900  
G08  20861856.258 8 109629885.871 8        49.500    20861861.680 6  85425859.50546        40.600                                                                                                  
C01  37468291.758 7 195107221.644 7        46.400    37468285.758 7 150869253.588 7        47.300    37468280.367 7 158540578.678 7        46.400  
C03  37147828.461 7 193438456.082 7        47.900    37147824.160 8 149578866.121 8        48.000    37147818.535 8 157184572.340 8        48.600  
C04  38625366.352 6 201132392.688 6        41.800    38625363.457 6 155528296.188 6        41.600    38625357.773 7 163436505.223 7        42.800  
C05  39565032.195 6 206025451.956 6        37.500    39565030.707 6 159311925.516 6        38.800    39565025.609 6 167412533.322 6        39.600  
C30  21591406.531 6 112432123.120 6        40.200    21591413.250 6  86939667.687 6        41.800    21591401.645 7  91360288.992 7        42.600  
C07  36220136.531 8 188607847.182 8        50.700    36220131.410 8 145843567.769 8        50.000    36220123.320 8 153259303.048 8        50.700  
C13  24654433.578 7 128382086.711 7        43.500    24654437.484 7  99273151.430 7        45.500                                                  
C10  37021824.117 7 192782363.221 7        47.900    37021822.336 7 149071553.993 7        47.200    37021813.371 7 156651414.950 7        47.100  
C09  36298875.766 8 189017926.059 8        50.600    36298874.336 8 146160728.442 8        50.700    36298865.313 8 153592571.563 8        50.200  
C02  37902202.586 6 197366686.122 6        41.800    37902198.754 7 152616404.744 7        44.200    37902194.301 7 160376562.691 7        43.500  
C06  36938676.133 8 192349509.703 8        48.000    36938673.648 8 148736898.169 8        48.100    36938665.973 8 156299749.302 8        48.200  
S37  37723476.297 6 198238146.906 6        41.300  
S28  37938495.391 7 199368242.086 7        43.100  
> 2012 12 15 00 15  0.0000000  0 33
G28  25341170.125 6 133168748.135 6        36.000    25341180.883 2 103767888.88942        16.900                                                                                                  
R02  22772958.625 7 121520995.444 7        45.000    22772958.586 7 121520809.442 7        44.400    22772971.371 5  94516239.906 5        35.700    22772971.566 5  94516246.902 5        34.500  
R15  22954929.438 6 122664174.859 6        41.700    22954930.102 6 122664149.855 6        40.500    22954941.949 6  95405527.205 6        40.600    22954941.793 6  95405529.201 6        39.400  
G10  21104234.828 8 110903448.213 8        52.400    21104240.602 7  86418308.10447        42.500                                                                                                  
G05  25470993.750 6 133851010.579 6        41.200    25471002.043 3 104299484.90343        19.300    25471002.348 5 104299482.907 5        35.000                                                  
G04  22592136.930 8 118722408.714 8        48.000    22592142.938 5  92510981.93845        30.200                                                                                                  
G20  24138352.320 6 126847876.396 6        37.900    24138362.902 3  98842479.91543        19.300                                                                                                  
R13  20777796.711 8 110952205.218 8        51.200    20777796.203 8 110952212.242 8        49.700    20777804.180 7  86296221.635 7        47.400    20777804.258 7  86296227.635 7        46.500  
R04  20619792.320 8 110418027.764 8        52.300    20619792.398 8 110417951.787 8        50.700    20619797.793 8  85880705.440 8        48.400    20619798.340 8  85880711.442 8        48.000  
G13  21535371.164 8 113169214.287 8        50.800    21535375.883 6  88183767.27446        39.300                                                                                                  
R03  19650634.211 8 105191421.431 8        51.900    19650633.586 8 105191364.454 8        50.000    19650639.332 8  81815545.656 8        50.700    19650639.527 8  81815546.652 8        50.100  
G07  20133547.852 9 105802513.601 9        54.200    20133552.102 7  82443529.73147        46.300    20133551.703 8  82443528.732 8        52.800                                                  
G23  23333783.469 7 122619685.557 7        44.100    23333788.246 4  95547958.45944        28.800                                                                                                  
G02  23444017.281 7 123199117.547 7        43.400    23444021.648 4  95999341.84344        28.100                                                                                                  
G16  24347295.938 6 127946068.017 6        41.400    24347301.828 3  99698085.48243        22.300                                                                                                  
R14  19281962.719 8 102783466.939 8        50.300    19281962.680 8 102783665.947 8        49.300    19281971.242 7  79942929.162 7        44.500    19281972.023 7  79942931.158 7        44.600  
J01  41713003.938 6 219203458.553 6        40.300    41713004.758 6 219203436.550 6        41.700    41713014.117 6 170807972.968 6        39.500    41713021.273 7 163691005.252 7        44.100    41713008.711 6 177924935.290 6        40.800  
S29  37487160.844 6 196996358.660 6        41.800  
S27  40021048.969 6 210312005.924 6        36.500  
G08  20849965.203 8 109567399.801 8        50.500    20849970.977 6  85377169.07446        40.200                                                                                                  
C01  37467232.156 7 195101705.950 7        46.100    37467226.156 7 150864988.506 7        46.800    37467220.941 7 158536096.733 7        46.600  
C03  37146694.008 8 193432548.849 8        48.300    37146689.707 8 149574298.256 8        48.200    37146684.434 8 157179772.220 8        48.600  
C04  38624467.781 7 201127713.542 7        42.000    38624464.652 6 155524677.962 6        41.800    38624458.734 7 163432703.023 7        42.300  
C05  39563924.211 6 206019683.402 6        37.800    39563922.898 6 159307464.865 6        39.200    39563917.684 6 167407845.865 6        39.000  
C30  21570750.750 6 112324564.759 6        39.600    21570757.234 6  86856496.886 6        41.900    21570745.980 7  91272889.152 7        42.800  
C07  36220897.672 8 188611811.464 8        50.800    36220893.078 8 145846633.196 8        50.100    36220884.934 8 153262524.352 8        50.800  
C13  24669624.703 7 128461190.003 7        43.100    24669628.785 7  99334319.018 7        44.400                                                  
C10  37020945.484 7 192777791.363 7        47.800    37020944.172 7 149068018.726 7        46.400    37020935.266 7 156647699.927 7        47.900  
C09  36300684.883 8 189027346.301 8        50.700    36300683.629 8 146168012.745 8        50.300    36300674.371 8 153600226.265 8        50.400  
C02  37901186.016 6 197361392.213 6        41.600    37901182.711 7 152612311.133 7        43.800    37901178.258 7 160372260.929 7        43.700  
C06  36943724.984 7 192375800.049 7        47.700    36943721.855 7 148757227.520 7        47.300    36943714.355 7 156321112.356 7        47.800  
S37  37722541.063 6 198233197.784 6        41.200  
S28  37937561.719 7 199363313.146 7        44.100  
> 2012 12 15 00 15 30.0000000  0 33
G28  25318581.922 5 133050054.692 5        34.100    25318594.027 2 103675400.40442        16.300                                                                                                  
R02  22790356.594 7 121613828.809 7        46.400    22790357.258 7 121613642.813 7        44.900    22790367.699 5  94588443.420 5        34.500    22790368.598 5  94588450.424 5        33.800  
R15  22932793.406 7 122545885.019 7        42.100    22932794.305 6 122545860.033 6        40.500    22932805.801 6  95313524.123 6        40.400    22932805.879 6  95313526.135 6        39.100  
G10  21091967.133 8 110838987.626 8        51.700    21091973.668 6  86368079.07746        41.600                                                                                                  
G05  25450050.352 6 133740953.903 6        40.200    25450058.586 3 104213726.34043        19.300    25450059.066 6 104213724.364 6        36.100                                                  
G04  22601586.695 7 118772070.688 7        46.300    22601593.055 4  92549679.49244        29.100                                                                                                  
G20  24156930.070 6 126945494.787 6        38.100    24156939.598 3  98918545.96843        20.600                                                                                                  
R13  20794017.570 8 111038823.659 8        51.100    20794017.648 8 111038830.661 8        49.500    20794025.039 7  86363591.450 7        47.200    20794025.703 7  86363597.450 7        46.800  
R04  20602878.070 8 110327452.071 8        51.900    20602876.855 8 110327376.072 8        50.500    20602882.488 8  85810257.691 8        48.500    20602883.035 8  85810263.693 8        48.300  
G13  21540218.172 8 113194684.046 8        49.800    21540223.711 6  88203613.81446        39.000                                                                                                  
R03  19653520.992 8 105206876.938 8        51.800    19653520.602 8 105206819.956 8        49.700    19653525.996 8  81827566.564 8        50.200    19653526.660 8  81827567.567 8        50.700  
G07  20135392.086 9 105812205.247 9        54.300    20135395.750 7  82451081.66347        46.500    20135395.820 8  82451080.663 8        52.400                                                  
G23  23344836.016 7 122677764.826 7        44.200    23344841.320 4  95593214.91144        27.800                                                                                                  
G02  23444377.563 7 123201008.065 7        43.800    23444382.281 4  96000814.94544        27.000                                                                                                  
G16  24357350.195 6 127998908.774 6        41.000    24357357.082 3  99739260.06443        21.800                                                                                                  
R14  19278022.234 8 102762462.398 8        50.600    19278022.313 8 102762661.398 8        49.100    19278031.227 7  79926592.302 7        45.500    19278031.891 7  79926594.298 7        44.100  
J01  41722144.703 6 219251494.065 6        38.200    41722145.277 6 219251472.069 6        41.800    41722155.352 6 170845403.202 6        39.200    41722162.273 7 163726875.894 7        44.000    41722149.242 6 177963925.136 6        41.000  
S29  37486226.484 6 196991390.436 6        41.800  
S27  40020080.953 6 210306905.676 6        36.400  
G08  20838171.250 8 109505417.546 8        50.400    20838176.379 6  85328871.23046        40.400                                                                                                  
C01  37466174.688 7 195096198.661 7        46.500    37466168.746 7 150860729.922 7        46.300    37466163.473 7 158531621.614 7        46.000  
C03  37145560.414 8 193426647.497 8        48.400    37145556.465 8 149569734.949 8        48.400    37145551.191 8 157174976.875 8        48.300  
C04  38623571.250 6 201123041.729 6        41.400    38623567.477 6 155521065.389 6        39.900    38623561.676 7 163428906.763 7        42.000  
C05  39562818.000 6 206013921.443 6        37.400    39562816.160 6 159303009.318 6        38.900    39562811.121 6 167403163.778 6        38.800  
C30  21550111.547 6 112217089.550 6        40.800    21550117.270 6  86773390.396 6        41.300    21550106.836 7  91185556.854 7        42.600  
C07  36221665.305 8 188615806.462 8        51.100    36221660.359 8 145849722.367 8        49.500    36221652.035 8 153265770.600 8        50.800  
C13  24684855.234 7 128540501.748 7        43.900    24684859.785 7  99395647.744 7        44.300                                                  
C10  37020078.625 8 192773277.062 8        48.100    37020077.430 7 149064527.972 7        46.800    37020068.582 7 156644031.685 7        47.700  
C09  36302522.727 8 189036914.898 8        50.800    36302520.945 8 146175411.765 8        50.200    36302511.863 8 153608001.513 8        50.200  
C02  37900170.680 7 197356106.829 7        42.100    37900166.730 7 152608224.118 7        43.700    37900162.395 7 160367966.111 7        43.400  
C06  36948797.813 7 192402218.974 7        47.400    36948796.266 7 148777656.285 7        47.200    36948788.297 8 156342579.876 8        48.200  
S37  37721592.281 6 198228252.244 6        40.900  
S28  37936620.828 7 199358390.844 7        43.200  
> 2012 12 15 00 16  0.0000000  0 33
G28  25295969.164 5 132931210.294 5        35.200    25295979.219 2 103582794.23742        16.300                                                                                                  
R02  22807816.055 7 121707001.424 7        45.600    22807817.656 7 121706815.437 7        44.500    22807827.980 5  94660910.794 5        33.700    22807827.941 5  94660917.790 5        33.100  
R15  22910713.000 6 122427898.197 6        41.800    22910714.953 6 122427873.211 6        40.700    22910725.980 6  95221756.702 6        40.000    22910725.473 6  95221758.713 6        39.300  
G10  21079775.063 8 110774913.166 8        49.800    21079780.719 6  86318150.93646        41.300                                                                                                  
G05  25429110.242 6 133630910.812 6        39.400    25429118.008 3 104127978.45843        19.300    25429118.605 6 104127976.461 6        36.200                                                  
G04  22611105.461 7 118822088.500 7        47.000    22611111.293 4  92588654.32644        29.700                                                                                                  
G20  24175536.805 6 127043275.626 6        38.800    24175546.684 3  98994738.63743        20.900                                                                                                  
R13  20810309.992 8 111125825.008 8        51.000    20810310.656 8 111125832.018 8        49.900    20810318.047 7  86431259.087 7        46.900    20810318.242 7  86431265.080 7        46.200  
R04  20586017.273 8 110237167.212 8        51.300    20586016.414 8 110237091.229 8        50.000    20586022.043 7  85740036.158 7        47.900    20586022.707 8  85740042.160 8        48.300  
G13  21545087.758 8 113220267.190 8        50.700    21545091.891 6  88223548.67946        39.900                                                                                                  
R03  19656519.680 8 105222927.704 8        51.600    19656519.172 8 105222870.733 8        49.800    19656525.621 8  81840050.446 8        50.200    19656525.465 8  81840051.450 8        50.100  
G07  20137325.016 9 105822365.823 9        54.400    20137329.266 7  82458998.99247        46.000    20137329.512 8  82458997.992 8        52.500                                                  
G23  23355901.883 7 122735917.128 7        44.200    23355906.777 4  95638528.30744        28.900                                                                                                  
G02  23444831.328 7 123203390.854 7        44.300    23444835.637 4  96002671.62544        28.000                                                                                                  
G16  24367493.648 6 128052210.682 6        41.400    24367500.652 3  99780793.97443        22.800                                                                                                  
R14  19274216.367 8 102742175.943 8        50.300    19274216.797 8 102742374.949 8        49.100    19274225.828 7  79910813.952 7        44.700    19274225.906 7  79910815.949 7        44.400  
J01  41731272.578 6 219299459.800 6        39.800    41731272.117 6 219299437.803 6        41.700    41731282.172 6 170882779.066 6        38.400    41731289.504 7 163762694.430 7        44.100    41731276.941 6 178002858.343 6        41.000  
S29  37485278.719 6 196986427.126 6        41.300  
S27  40019119.688 6 210301809.750 6        36.400  
G08  20826471.852 8 109443938.140 8        49.600    20826477.039 6  85280965.21346        40.400                                                                                                  
C01  37465118.500 7 195090698.199 7        46.500    37465112.207 7 150856476.614 7        47.200    37465107.051 7 158527152.032 7        46.100  
C03  37144428.305 8 193420750.521 8        48.400    37144424.121 8 149565175.021 8        48.200    37144418.555 8 157170185.093 8        48.200  
C04  38622674.109 6 201118375.560 6        41.800    38622671.684 6 155517457.193 6        41.400    38622665.824 7 163425115.108 7        42.700  
C05  39561711.438 6 206008164.586 6        37.700    39561711.121 6 159298557.734 6        39.100    39561705.730 6 167398485.840 6        38.800  
C30  21529488.953 6 112109704.873 6        40.000    21529495.965 7  86690353.898 7        42.300    21529484.711 7  91098298.133 7        42.500  
C07  36222438.055 8 188619830.156 8        50.900    36222433.109 8 145852833.729 8        49.700    36222424.551 8 153269040.180 8        51.100  
C13  24700126.992 7 128620019.222 7        43.000    24700129.961 7  99457135.550 7        44.200                                                  
C10  37019222.344 7 192768818.304 7        47.800    37019221.148 7 149061080.159 7        46.800    37019212.242 7 156640408.556 7        47.400  
C09  36304388.461 8 189046630.250 8        50.800    36304387.031 8 146182924.278 8        50.700    36304378.008 8 153615896.015 8        50.600  
C02  37899157.461 7 197350828.367 7        42.400    37899153.629 7 152604142.457 7        44.100    37899149.293 7 160363676.917 7        43.000  
C06  36953895.742 7 192428764.909 7        47.500    36953893.961 7 148798183.260 7        47.500    36953885.758 8 156364150.599 8        48.100  
S37  37720653.188 6 198223311.090 6        40.800  
S28  37935685.625 7 199353471.357 7        42.800  
> 2012 12 15 00 16 30.0000000  0 32
G28  25273322.352 5 132812215.376 5        34.000    25273335.570 2 103490070.81342        15.600                                                                                                  
R02  22825340.688 7 121800509.938 7        45.300    22825340.883 7 121800323.934 7        43.700    22825351.090 5  94733639.401 5        34.400    22825351.988 5  94733646.383 5        34.400  
R15  22888689.820 7 122310214.870 7        42.100    22888691.070 6 122310189.871 6        40.800    22888702.801 6  95130225.380 6        40.600    22888702.176 6  95130227.388 6        39.600  
G10  21067655.500 8 110711225.354 8        52.000    21067660.980 6  86268524.07246        41.900                                                                                                  
G05  25408172.148 6 133520881.620 6        39.300    25408180.031 3 104042241.42343        19.600    25408180.805 5 104042239.433 5        35.900                                                  
G04  22620690.609 7 118872457.654 7        46.900    22620697.438 4  92627902.93844        29.600                                                                                                  
G20  24194174.742 6 127141214.666 6        38.900    24194183.973 3  99071054.55443        20.400                                                                                                  
R13  20826673.570 8 111213203.266 8        52.000    20826673.414 8 111213210.275 8        50.200    20826681.039 7  86499219.867 7        47.300    20826681.352 7  86499225.867 7        46.500  
R04  20569212.266 8 110147174.819 8        52.100    20569211.406 8 110147098.828 8        50.200    20569216.566 8  85670042.106 8        48.400    20569217.465 7  85670048.107 7        47.900  
G13  21549975.961 8 113245961.795 8        49.700    21549981.383 6  88243570.40646        39.100                                                                                                  
R03  19659628.945 8 105239572.525 8        51.000    19659629.258 8 105239515.542 8        50.700    19659634.887 8  81852996.374 8        51.200    19659635.434 8  81852997.371 8        49.800  
G07  20139347.336 9 105832991.913 9        54.700    20139351.000 7  82467279.06847        46.100    20139351.070 8  82467278.068 8        52.300                                                  
G23  23366982.102 7 122794140.495 7        43.800    23366986.645 4  95683897.05844        27.800                                                                                                  
G02  23445378.109 7 123206263.168 7        45.100    23445381.891 4  96004909.76344        27.600                                                                                                  
G16  24377724.469 6 128105969.772 6        41.500    24377731.180 3  99822684.15343        22.600                                                                                                  
R14  19270545.180 8 102722604.642 8        50.700    19270545.844 8 102722803.649 8        49.300    19270554.406 7  79895591.833 7        44.600    19270555.070 7  79895593.838 7        44.200  
J01  41740386.656 6 219347353.424 6        39.500    41740386.047 6 219347331.426 6        41.600    41740395.840 6 170920098.764 6        39.200    41740402.938 7 163798459.121 7        43.800    41740389.906 6 178041733.006 6        41.400  
S29  37484332.234 6 196981465.161 6        41.700  
S27  40018137.906 6 210296715.522 6        36.100  
G08  20814868.086 8 109382960.254 8        51.000    20814873.391 6  85233449.97946        40.600                                                                                                  
C01  37464063.320 7 195085202.697 7        46.900    37464056.969 7 150852227.120 7        47.200    37464051.695 7 158522686.474 7        46.600  
C03  37143296.727 8 193414855.927 8        48.300    37143291.840 8 149560616.937 8        48.200    37143286.391 8 157165395.249 8        48.900  
C04  38621779.156 7 201113713.194 7        42.100    38621776.613 7 155513851.936 7        42.400    38621770.695 7 163421326.531 7        42.500  
C05  39560607.430 6 206002410.801 6        37.900    39560606.352 6 159294108.514 6        38.900    39560600.844 6 167393810.398 6        39.600  
C30  21508884.414 6 112002407.373 6        40.900    21508889.375 7  86607384.822 7        42.000    21508879.176 7  91011110.247 7        42.700  
C07  36223215.672 8 188623879.995 8        50.900    36223210.727 8 145855965.309 8        50.100    36223202.051 8 153272330.990 8        51.000  
C10  37018376.188 7 192764412.930 7        47.900    37018374.992 7 149057673.641 7        46.700    37018366.027 7 156636828.819 7        47.400  
C09  36306282.125 8 189056490.705 8        50.800    36306280.461 8 146190548.979 8        50.200    36306271.555 8 153623908.430 8        49.800  
C02  37898144.750 7 197345554.880 7        42.100    37898140.625 7 152600064.644 7        44.200    37898136.055 7 160359391.775 7        43.100  
C06  36959018.875 7 192455435.609 7        47.800    36959015.863 7 148818806.709 7        47.700    36959007.543 7 156385822.709 7        47.600  
S37  37719718.313 6 198218375.244 6        41.200  
S28  37934754.719 7 199348556.564 7        43.000  
> 2012 12 15 00 17  0.0000000  0 33
G28  25250651.813 5 132693074.313 5        35.000    25250663.566 2 103397233.56142        15.600                                                                                                  
R02  22842926.930 7 121894354.088 7        45.200    22842925.949 7 121894168.088 7        43.900    22842938.270 5  94806629.024 5        35.000    22842938.230 5  94806636.033 5        34.000  
R15  22866726.883 7 122192839.518 7        42.600    22866726.492 6 122192814.538 6        40.500    22866737.520 6  95038933.587 6        40.700    22866737.363 6  95038935.598 6        39.800  
G10  21055611.188 8 110647928.920 8        50.200    21055616.316 7  86219202.17747        42.100                                                                                                  
G05  25387239.508 6 133410869.844 6        39.700    25387245.926 3 103956517.90743        20.400    25387245.879 5 103956515.939 5        35.300                                                  
G04  22630342.016 7 118923177.146 7        46.000    22630348.258 4  92667424.53844        28.100                                                                                                  
G20  24212842.359 6 127239312.089 6        38.100    24212852.121 3  99147493.89843        20.400                                                                                                  
R13  20843106.211 8 111300956.324 8        51.900    20843107.109 8 111300963.342 8        50.500    20843114.852 7  86567472.165 7        47.200    20843114.813 7  86567478.165 7        47.500  
R04  20552462.938 8 110057480.323 8        51.800    20552461.957 8 110057404.332 8        51.400    20552467.238 8  85600279.716 8        48.800    20552467.668 8  85600285.725 8        48.200  
G13  21554888.133 8 113271769.960 8        50.000    21554892.910 6  88263680.62546        39.400                                                                                                  
R03  19662849.602 8 105256814.443 8        51.800    19662849.211 8 105256757.445 8        50.300    19662854.371 8  81866406.704 8        50.000    19662855.152 8  81866407.701 8        49.900  
G07  20141458.148 9 105844083.239 9        54.500    20141461.988 7  82475921.66647        46.300    20141461.941 8  82475920.666 8        51.900                                                  
G23  23378076.680 7 122852437.597 7        44.000    23378080.930 4  95729323.27144        28.600                                                                                                  
G02  23446018.086 7 123209625.590 7        43.900    23446022.863 4  96007529.79244        27.700                                                                                                  
G16  24388039.523 6 128160186.257 6        39.300    24388047.992 3  99864930.72043        22.200                                                                                                  
R14  19267008.578 8 102703749.575 8        50.300    19267008.891 8 102703948.581 8        49.100    19267017.453 7  79880926.792 7        45.200    19267018.000 7  79880928.790 7        44.200  
J01  41749487.297 6 219395176.464 6        40.100    41749486.922 7 219395154.466 7        42.000    41749496.480 6 170957363.421 6        38.800    41749503.695 7 163834171.100 7        44.500    41749490.840 6 178080550.386 6        40.800  
S29  37483397.625 6 196976509.997 6        41.700  
S27  40017170.203 6 210291625.769 6        36.100  
G08  20803360.656 8 109322486.215 8        49.800    20803365.668 6  85186327.36846        40.900                                                                                                  
C01  37463009.250 7 195079713.915 7        46.700    37463002.840 7 150847982.855 7        46.000    37462997.332 7 158518226.396 7        46.000  
C03  37142165.180 8 193408965.524 8        48.500    37142160.996 8 149556062.090 8        48.200    37142155.430 8 157160608.803 8        48.200  
C04  38620884.414 6 201109056.380 6        41.800    38620881.754 6 155510250.968 6        40.300    38620875.660 7 163417542.479 7        42.500  
C05  39559503.180 6 205996661.954 6        37.400    39559502.336 6 159289663.111 6        38.800    39559496.711 6 167389138.977 6        39.300  
C13  24730785.33617 128779679.26217        43.400    24730786.84017  99580598.39117        43.400                                                  
C30  21488294.789 6 111895201.025 6        40.400    21488301.391 7  86524486.209 7        42.100    21488290.078 7  90923996.419 7        42.300  
C07  36223998.633 8 188627957.411 8        50.900    36223993.980 8 145859118.211 8        49.700    36223985.188 8 153275644.212 8        50.400  
C10  37017540.805 7 192760062.167 7        47.400    37017539.492 7 149054309.341 7        47.000    37017530.879 7 156633293.464 7        47.900  
C09  36308203.859 8 189066498.214 8        50.800    36308202.254 8 146198287.398 8        50.200    36308193.172 8 153632040.327 8        49.500  
C02  37897133.719 7 197340288.214 7        42.000    37897129.418 7 152595992.100 7        44.600    37897124.906 7 160355112.144 7        43.300  
C06  36964164.367 7 192482232.751 7        47.700    36964161.473 7 148839527.947 7        47.900    36964153.797 7 156407597.564 7        47.800  
S37  37718776.000 6 198213442.649 6        41.100  
S28  37933815.547 7 199343644.596 7        42.600  
> 2012 12 15 00 17 30.0000000  0 33
G28  25227953.398 5 132573790.146 5        35.800    25227964.684 2 103304284.78942        16.300                                                                                                  
R02  22860575.148 7 121988533.647 7        44.100    22860575.695 7 121988347.635 7        44.100    22860588.484 5  94879879.569 5        35.800    22860588.797 5  94879886.565 5        34.600  
R15  22844820.172 7 122075775.669 7        43.500    22844819.898 7 122075750.672 7        42.600    22844829.867 6  94947884.135 6        40.800    22844830.063 6  94947886.138 6        39.800  
G10  21043641.633 8 110585027.146 8        51.400    21043646.645 7  86170187.79847        42.100                                                                                                  
G05  25366308.961 6 133300878.595 6        40.100    25366315.496 3 103870810.45643        20.400    25366315.273 6 103870808.459 6        36.200                                                  
G04  22640059.766 7 118974245.568 7        46.300    22640066.125 4  92707218.03044        29.100                                                                                                  
G20  24231540.289 6 127337567.136 6        39.300    24231549.285 3  99224056.03643        19.300                                                                                                  
R13  20859610.563 8 111389081.956 8        51.800    20859609.703 8 111389088.966 8        50.000    20859617.441 8  86636014.230 8        48.300    20859618.227 7  86636020.229 7        47.200  
R04  20535769.398 8 109968088.173 8        52.200    20535768.539 8 109968012.182 8        50.500    20535773.699 8  85530752.519 8        48.600    20535774.246 8  85530758.520 8        48.700  
G13  21559820.953 8 113297693.021 8        50.000    21559825.438 6  88283880.36246        38.600                                                                                                  
R03  19666182.797 8 105274655.434 8        52.000    19666183.109 8 105274598.449 8        50.200    19666188.738 8  81880282.974 8        50.300    19666189.168 8  81880283.970 8        49.800  
G07  20143656.992 9 105855639.668 9        54.500    20143661.652 7  82484926.67747        46.400    20143661.605 8  82484925.684 8        52.400                                                  
G23  23389184.008 7 122910809.593 7        43.400    23389188.727 4  95774807.81344        26.700                                                                                                  
G02  23446751.156 7 123213478.259 7        44.900    23446755.055 4  96010531.84344        28.600                                                                                                  
G16  24398443.852 6 128214859.294 6        40.500    24398452.262 3  99907533.01543        21.800                                                                                                  
R14  19263605.539 8 102685610.930 8        50.700    19263605.500 8 102685809.938 8        48.800    19263614.180 7  79866818.968 7        45.100    19263614.492 7  79866820.966 7        44.800  
J01  41758574.828 6 219442929.641 6        39.800    41758574.211 7 219442907.643 7        42.200    41758582.664 6 170994573.681 6        37.800    41758591.051 7 163869830.904 7        44.800    41758578.020 6 178119311.066 6        41.100  
S29  37482456.672 7 196971558.544 7        42.100  
S27  40016202.141 6 210286541.114 6        36.100  
G08  20791948.539 8 109262518.220 8        52.500    20791954.195 6  85139599.07246        41.000                                                                                                  
C01  37461956.852 7 195074232.816 7        46.700    37461950.207 7 150843744.516 7        47.200    37461944.992 7 158513772.550 7        46.000  
C03  37141035.289 8 193403080.466 8        48.600    37141031.047 8 149551511.372 8        48.500    37141025.598 8 157155826.696 8        48.400  
C04  38619992.586 6 201104406.263 6        41.100    38619988.754 6 155506655.185 6        40.700    38619982.953 7 163413763.860 7        42.400  
C05  39558400.641 6 205990919.056 6        37.600    39558399.914 6 159285222.315 6        39.200    39558393.879 6 167384472.378 6        39.400  
C13  24746172.820 7 128859805.306 7        43.500    24746174.090 7  99642556.779 7        43.600                                                  
C30  21467725.102 6 111788088.871 6        40.000    21467731.703 6  86441660.464 6        41.500    21467720.098 7  90836959.146 7        42.500  
C07  36224787.117 8 188632063.028 8        51.100    36224782.523 8 145862292.921 8        50.000    36224773.789 8 153278980.355 8        50.500  
C10  37016716.180 8 192755766.711 8        48.200    37016714.867 7 149050987.818 7        47.000    37016705.902 8 156629803.055 8        48.100  
C09  36310154.320 8 189076653.979 8        50.900    36310152.715 8 146206140.464 8        50.600    36310143.457 8 153640292.703 8        50.200  
C02  37896123.250 7 197335029.416 7        42.000    37896119.770 7 152591925.647 7        43.800    37896115.023 7 160350838.926 7        43.100  
C06  36969334.508 7 192509157.260 7        47.500    36969332.316 7 148860347.657 7        47.900    36969324.406 7 156429475.912 7        47.500  
S37  37717833.859 6 198208515.154 6        41.100  
S28  37932883.406 7 199338738.063 7        42.700  
> 2012 12 15 00 18  0.0000000  0 33
G28  25205225.211 5 132454362.360 5        33.700    25205238.840 2 103211224.06942        15.600                                                                                                  
R02  22878286.773 7 122083043.473 7        44.500    22878287.320 7 122082857.466 7        43.800    22878299.637 5  94953386.970 5        34.700    22878299.836 5  94953393.954 5        34.500  
R15  22822969.773 7 121959022.403 7        42.400    22822969.617 6 121958997.411 6        41.300    22822981.934 6  94857076.213 6        40.600    22822981.074 6  94857078.217 6        39.300  
G10  21031746.109 8 110522518.604 8        50.700    21031751.121 6  86121479.83846        41.600                                                                                                  
G05  25345381.320 6 133190906.880 6        38.300    25345388.734 3 103785118.17343        19.300    25345388.043 6 103785116.182 6        36.300                                                  
G04  22649842.688 7 119025656.695 7        46.300    22649849.984 4  92747278.57444        29.000                                                                                                  
G20  24250266.578 6 127435974.552 6        39.500    24250275.223 3  99300736.94143        19.300                                                                                                  
R13  20876181.086 8 111477572.040 8        50.900    20876181.164 8 111477579.050 8        49.100    20876189.727 8  86704839.752 8        48.200    20876189.688 7  86704845.752 7        47.500  
R04  20519131.891 8 109878998.390 8        51.300    20519131.734 8 109878922.413 8        51.100    20519136.777 8  85461460.491 8        48.900    20519137.559 8  85461466.492 8        48.400  
G13  21564774.883 8 113323727.632 8        50.500    21564779.426 6  88304167.03346        39.800                                                                                                  
R03  19669627.656 8 105293092.918 8        51.800    19669627.148 8 105293035.940 8        50.400    19669632.309 8  81894623.188 8        50.100    19669632.973 8  81894624.186 8        50.000  
G07  20145943.922 9 105867655.968 9        54.000    20145947.879 7  82494290.03547        46.400    20145947.598 8  82494289.036 8        52.500                                                  
G23  23400305.125 7 122969253.084 7        43.200    23400310.547 4  95820348.10644        27.600                                                                                                  
G02  23447576.930 7 123217816.640 7        44.500    23447580.770 4  96013912.35944        26.500                                                                                                  
G16  24408934.234 6 128269983.848 6        39.500    24408942.586 3  99950487.14343        22.500                                                                                                  
R14  19260336.570 8 102668184.367 8        51.200    19260335.945 8 102668383.385 8        49.600    19260344.391 7  79853264.990 7        44.700    19260344.820 7  79853266.987 7        44.400  
J01  41767646.047 6 219490609.235 6        39.900    41767646.164 6 219490587.229 6        41.800    41767656.578 6 171031726.587 6        38.400    41767663.910 7 163905435.766 7        43.900    41767650.879 6 178158012.008 6        41.200  
S29  37481508.750 7 196966608.954 7        42.200  
S27  40015238.438 5 210281457.986 5        35.800  
G08  20780632.422 8 109203053.527 8        51.900    20780638.605 6  85093262.96146        40.900                                                                                                  
C01  37460904.992 7 195068756.224 7        46.400    37460898.875 7 150839509.654 7        47.600    37460893.543 7 158509322.353 7        46.100  
C03  37139905.328 8 193397197.290 8        48.300    37139900.793 8 149546962.116 8        48.500    37139895.461 8 157151046.121 8        48.900  
C04  38619099.922 7 201099759.539 7        42.000    38619096.852 6 155503062.001 6        41.400    38619090.875 7 163409987.979 7        42.800  
C05  39557297.313 6 205985178.855 6        37.100    39557297.289 6 159280783.607 6        38.200    39557291.371 6 167379807.974 6        39.200  
C13  24761597.680 7 128940129.782 7        44.000    24761600.414 7  99704668.619 7        44.200                                                  
C30  21447173.844 6 111681069.590 6        40.200    21447180.094 7  86358906.513 7        42.600    21447168.020 7  90749997.334 7        42.100  
C07  36225580.203 8 188636192.923 8        51.000    36225575.609 8 145865486.396 8        50.200    36225566.992 8 153282336.206 8        50.900  
C10  37015901.266 7 192751522.754 7        47.700    37015899.602 7 149047706.104 7        46.400    37015891.105 7 156626354.479 7        47.600  
C09  36312132.211 8 189086954.716 8        50.900    36312131.016 8 146214105.626 8        50.400    36312121.699 8 153648662.877 8        50.800  
C02  37895114.641 7 197329775.064 7        42.200    37895110.398 7 152587862.632 7        44.500    37895105.711 7 160346569.313 7        43.400  
C06  36974529.313 7 192536205.622 7        47.200    36974527.238 7 148881263.145 7        47.400    36974519.035 7 156451454.898 7        47.500  
S37  37716901.547 6 198203590.310 6        41.100  
S28  37931945.297 7 199333834.156 7        42.600  
> 2012 12 15 00 18 30.0000000  0 33
G28  25182473.727 5 132334796.792 5        33.800    25182485.246 2 103118056.08442        15.600                                                                                                  
R02  22896061.227 7 122177885.172 7        45.800    22896061.656 7 122177699.185 7        44.300    22896072.449 5  95027152.492 5        35.200    22896073.113 5  95027159.481 5        34.100  
R15  22801180.539 7 121842585.651 7        43.100    22801180.734 6 121842560.630 6        41.600    22801191.645 6  94766514.452 6        40.500    22801191.137 6  94766516.468 6        39.300  
G10  21019927.031 8 110460409.185 8        51.300    21019932.336 6  86073082.89646        41.700                                                                                                  
G05  25324458.703 6 133080959.808 6        38.900    25324466.645 3 103699445.10743        19.300    25324467.066 6 103699443.125 6        36.900                                                  
G04  22659692.484 7 119077411.043 7        45.800    22659698.609 4  92787606.55944        29.900                                                                                                  
G20  24269021.391 6 127534535.642 6        39.600    24269031.855 3  99377537.58143        19.900                                                                                                  
R13  20892820.633 8 111566426.151 8        51.300    20892821.297 8 111566433.146 8        49.600    20892829.391 8  86773948.403 8        48.200    20892829.938 7  86773954.396 7        47.400  
R04  20502552.984 8 109790217.792 8        52.000    20502552.242 8 109790141.808 8        50.300    20502557.402 8  85392408.925 8        48.300    20502558.066 8  85392414.927 8        48.300  
G13  21569751.398 8 113349877.131 8        50.100    21569755.473 6  88324543.20846        38.800                                                                                                  
R03  19673183.516 8 105312131.237 8        51.700    19673184.297 8 105312074.253 8        50.300    19673189.105 8  81909430.711 8        49.900    19673190.004 8  81909431.713 8        49.800  
G07  20148318.516 9 105880133.810 9        54.300    20148322.355 7  82504013.02847        46.800    20148322.250 8  82504012.028 8        52.800                                                  
G23  23411440.398 7 123027771.521 7        42.900    23411445.527 4  95865946.75344        25.400                                                                                                  
G02  23448495.266 7 123222642.884 7        44.900    23448499.516 4  96017673.02444        27.600                                                                                                  
G16  24419509.813 6 128325561.448 6        40.400    24419517.520 3  99993794.29643        21.300                                                                                                  
R14  19257201.203 8 102651472.097 8        50.400    19257201.750 8 102651671.101 8        49.600    19257210.547 7  79840266.564 7        44.700    19257210.625 7  79840268.561 7        44.500  
J01  41776706.516 6 219538218.106 6        40.300    41776706.191 7 219538196.105 7        42.400    41776715.348 6 171068824.351 6        38.700    41776723.090 7 163940987.803 7        44.400    41776709.414 6 178196655.543 6        40.900  
S29  37480557.406 6 196961665.886 6        41.300  
S27  40014258.438 5 210276379.055 5        35.200  
G08  20769413.383 8 109144095.608 8        51.900    20769419.215 6  85047321.73846        40.800                                                                                                  
C01  37459854.633 7 195063287.239 7        46.400    37459848.516 7 150835280.679 7        47.000    37459843.242 7 158504878.349 7        45.800  
C03  37138776.016 8 193391319.297 8        48.200    37138771.832 7 149542416.867 7        47.600    37138766.324 8 157146269.759 8        48.400  
C04  38618208.398 7 201095119.224 7        42.600    38618205.328 6 155499473.798 6        41.800    38618199.469 7 163406217.331 7        42.600  
C05  39556197.141 6 205979444.471 6        37.400    39556196.004 6 159276349.396 6        38.600    39556190.262 6 167375148.302 6        39.700  
C13  24777061.609 7 129020654.640 7        43.600    24777065.223 7  99766935.419 7        44.700                                                  
C30  21426638.484 6 111574144.954 6        39.400    21426645.672 7  86276225.725 7        42.800    21426634.008 7  90663112.411 7        42.400  
C07  36226378.297 8 188640349.931 8        50.800    36226373.938 8 145868700.837 8        50.200    36226365.145 8 153285714.103 8        50.700  
C10  37015096.281 7 192747333.023 7        47.800    37015094.500 7 149044466.322 7        46.400    37015086.063 7 156622949.965 7        47.900  
C09  36314138.977 8 189097403.868 8        50.700    36314137.430 8 146222185.546 8        50.700    36314128.172 8 153657153.648 8        50.300  
C02  37894107.469 6 197324528.462 6        41.400    37894102.992 7 152583805.605 7        44.200    37894098.539 7 160342306.012 7        43.700  
C06  36979747.992 7 192563380.863 7        47.600    36979745.449 7 148902276.746 7        47.200    36979737.129 7 156473537.004 7        47.500  
S37  37715965.406 6 198198672.173 6        41.400  
S28  37931017.203 7 199328934.723 7        42.600  
> 2012 12 15 00 19  0.0000000  0 33
G28  25159694.508 5 132215095.852 5        33.400    25159707.492 2 103024782.57142        15.600                                                                                                  
R02  22913896.133 7 122273057.132 7        44.600    22913897.148 7 122272871.127 7        44.300    22913909.469 5  95101174.856 5        35.300    22913909.313 5  95101181.863 5        34.800  
R15  22779449.883 7 121726467.788 7        42.800    22779450.430 6 121726442.809 6        41.400    22779461.574 6  94676200.804 6        40.500    22779460.949 6  94676202.807 6        39.400  
G10  21008184.211 8 110398701.464 8        50.700    21008189.691 6  86024998.96946        41.100                                                                                                  
G05  25303540.469 6 132971039.743 6        38.400    25303549.465 3 103613793.08243        19.300    25303549.359 6 103613791.062 6        37.300                                                  
G04  22669605.492 7 119129505.708 7        45.100    22669612.203 4  92828199.72244        29.300                                                                                                  
G20  24287805.070 6 127633248.523 6        38.400    24287816.648 3  99454456.46843        19.000                                                                                                  
R13  20909527.875 8 111655640.267 8        51.500    20909527.836 8 111655647.262 8        49.700    20909536.281 7  86843337.063 7        47.500    20909536.125 7  86843343.063 7        46.600  
R04  20486032.117 8 109701749.887 8        52.500    20486031.961 8 109701673.903 8        50.900    20486036.887 8  85323600.567 8        48.500    20486037.434 8  85323606.569 8        48.300  
G13  21574748.906 8 113376141.711 8        50.000    21574753.918 6  88345009.08846        38.300                                                                                                  
R03  19676853.086 8 105331770.952 8        51.700    19676852.344 8 105331713.975 8        50.900    19676856.914 8  81924705.994 8        50.200    19676857.816 8  81924706.991 8        49.700  
G07  20150780.477 9 105893071.337 9        54.200    20150784.668 7  82514094.20647        46.500    20150784.504 8  82514093.207 8        52.600                                                  
G23  23422590.445 7 123086365.056 7        43.000    23422595.984 4  95911603.97944        27.800                                                                                                  
G02  23449506.148 7 123227955.870 7        44.000    23449510.457 4  96021812.99044        28.500                                                                                                  
G16  24430172.023 6 128381590.156 6        39.400    24430180.023 3 100037452.99243        21.300                                                                                                  
R14  19254200.297 8 102635473.311 8        50.500    19254200.141 8 102635672.307 8        49.400    19254208.234 7  79827823.072 7        44.700    19254208.898 7  79827825.069 7        44.200  
J01  41785753.203 6 219585755.995 6        39.500    41785753.055 6 219585733.986 6        41.700    41785762.973 6 171105866.850 6        38.800    41785770.715 7 163976486.839 7        43.900    41785757.508 6 178235241.475 6        41.400  
S29  37479623.875 6 196956727.623 6        41.400  
S27  40013297.984 6 210271305.689 6        36.900  
G08  20758290.688 8 109085644.964 8        52.500    20758295.875 6  85001775.80746        40.800                                                                                                  
C01  37458805.984 7 195057825.868 7        46.100    37458799.867 7 150831057.598 7        47.200    37458794.359 7 158500440.534 7        46.200  
C03  37137649.000 8 193385446.440 8        48.500    37137644.230 8 149537875.598 8        48.100    37137638.547 8 157141497.586 8        48.000  
C04  38617319.094 6 201090485.350 6        41.600    38617315.906 6 155495890.589 6        41.300    38617310.105 7 163402451.930 7        42.400  
C05  39555096.781 6 205973715.960 6        37.800    39555096.230 6 159271919.725 6        38.500    39555090.254 6 167370493.397 6        39.200  
C13  24792565.523 7 129101378.568 7        44.000    24792567.496 7  99829356.118 7        44.300                                                  
C30  21406124.820 6 111467324.079 6        40.000    21406130.602 6  86193625.212 6        41.700    21406119.934 7  90576311.835 7        42.300  
C07  36227181.703 8 188644533.526 8        50.400    36227177.344 8 145871935.834 8        50.000    36227168.609 8 153289113.600 8        50.700  
C10  37014302.172 8 192743197.059 8        48.400    37014300.859 7 149041268.109 7        46.700    37014291.895 7 156619589.139 7        47.000  
C09  36316173.914 8 189108001.563 8        50.600    36316172.777 8 146230380.332 8        49.900    36316163.285 8 153665765.128 8        50.200  
C02  37893100.820 6 197319289.574 6        41.400    37893096.637 7 152579754.546 7        43.500    37893092.242 7 160338048.969 7        43.900  
C06  36984990.352 7 192590682.762 7        46.800    36984988.922 7 148923388.280 7        47.300    36984980.602 7 156495722.007 7        47.800  
S37  37715041.313 6 198193758.721 6        40.900  
S28  37930085.156 7 199324040.857 7        43.300  
> 2012 12 15 00 19 30.0000000  0 33
G28  25136893.297 5 132095261.224 5        34.600    25136903.762 2 102931404.90442        16.300                                                                                                  
R02  22931792.508 7 122368556.690 7        45.000    22931792.938 7 122368370.688 7        43.700    22931805.371 5  95175452.047 5        35.700    22931805.805 5  95175459.048 5        34.200  
R15  22757779.094 7 121610670.141 7        42.700    22757778.938 6 121610645.154 6        41.100    22757790.785 6  94586136.203 6        40.600    22757790.160 6  94586138.199 6        39.500  
G10  20996518.180 8 110337396.968 8        51.300    20996523.660 6  85977229.23946        41.400                                                                                                  
G05  25282631.492 6 132861147.543 6        39.000    25282637.148 3 103528162.76543        19.900    25282638.566 6 103528160.805 6        37.500                                                  
G04  22679582.695 7 119181937.570 7        45.100    22679589.523 4  92869055.62944        29.100                                                                                                  
G20  24306617.805 6 127732110.003 6        39.200    24306628.094 3  99531491.18843        19.000                                                                                                  
R13  20926301.344 8 111745209.408 8        51.500    20926301.539 8 111745216.411 8        49.300    20926310.102 7  86913001.869 7        47.300    20926309.945 7  86913007.861 7        46.800  
R04  20469570.305 8 109613597.575 8        52.600    20469570.031 8 109613521.606 8        51.500    20469575.426 8  85255037.671 8        48.900    20469575.855 8  85255043.673 8        48.200  
G13  21579769.250 8 113402520.865 8        50.800    21579773.852 6  88365564.23146        38.000                                                                                                  
R03  19680634.344 8 105352012.058 8        51.900    19680633.602 8 105351955.051 8        50.500    19680638.645 8  81940449.027 8        50.200    19680639.191 8  81940450.023 8        50.300  
G07  20153329.461 9 105906466.164 9        54.900    20153333.477 7  82524531.73047        46.400    20153333.605 8  82524530.724 8        53.000                                                  
G23  23433755.063 7 123145033.107 7        43.200    23433760.250 4  95957319.25444        27.300                                                                                                  
G02  23450610.109 7 123233753.565 7        44.900    23450613.539 4  96026330.66744        27.900                                                                                                  
G16  24440918.750 6 128438067.369 6        39.000    24440926.926 3 100081461.13643        20.400                                                                                                  
R14  19251331.352 8 102620185.936 8        50.600    19251332.367 8 102620384.917 8        49.200    19251340.695 7  79815932.904 7        44.900    19251341.242 7  79815934.904 7        44.200  
J01  41794783.938 6 219633221.680 6        38.100    41794784.609 6 219633199.674 6        41.400    41794795.582 6 171142853.049 6        38.700    41794802.387 7 164011931.953 7        44.700    41794789.707 6 178273768.777 6        40.600  
S29  37478689.859 7 196951793.909 7        42.500  
S27  40012333.031 6 210266235.411 6        36.400  
G08  20747264.781 8 109027701.584 8        52.300    20747270.203 6  84956625.14446        40.800                                                                                                  
C01  37457758.578 7 195052371.390 7        46.600    37457751.758 7 150826839.843 7        46.700    37457746.602 7 158496008.316 7        46.300  
C03  37136521.688 8 193379577.895 8        48.500    37136517.563 8 149533337.658 8        48.400    37136512.055 8 157136728.893 8        48.200  
C04  38616429.789 7 201085857.252 7        42.100    38616426.543 7 155492311.822 7        42.400    38616420.684 6 163398691.200 6        41.700  
C05  39553997.641 6 205967992.456 6        37.400    39553996.738 6 159267493.920 6        38.100    39553991.289 6 167365842.561 6        39.300  
C13  24808104.047 7 129182299.682 7        44.100    24808106.430 7  99891929.325 7        44.300                                                  
C30  21385631.367 6 111360608.137 6        40.200    21385637.441 7  86111105.841 7        42.300    21385626.949 7  90489596.507 7        42.400  
C07  36227989.742 8 188648742.445 8        50.500    36227986.086 8 145875190.407 8        50.200    36227977.355 8 153292533.659 8        49.900  
C10  37013518.039 7 192739113.574 7        47.900    37013516.609 7 149038110.479 7        47.100    37013507.938 7 156616270.949 7        47.800  
C09  36318237.703 8 189118747.139 8        50.500    36318236.391 8 146238689.477 8        50.200    36318227.016 8 153674496.770 8        50.100  
C02  37892096.094 6 197314057.594 6        41.700    37892091.852 7 152575708.830 7        43.700    37892087.457 7 160333797.537 7        43.000  
C06  36990258.359 7 192618110.343 7        47.600    36990255.230 7 148944596.994 7        47.500    36990247.848 7 156518009.134 7        47.900  
S37  37714094.281 6 198188848.903 6        41.200  
S28  37929151.828 7 199319151.998 7        43.600  
> 2012 12 15 00 20  0.0000000  0 33
G28  25114064.008 5 131975294.245 5        35.300    25114074.941 2 102837924.17742        16.300                                                                                                  
R02  22949753.016 7 122464380.770 7        46.000    22949751.918 7 122464194.755 7        44.300    22949763.301 5  95249981.612 5        35.700    22949763.613 5  95249988.595 5        34.600  
R15  22736170.164 7 121495194.216 7        43.100    22736170.242 6 121495169.241 6        40.900    22736182.090 6  94496321.802 6        40.400    22736181.113 6  94496323.806 6        39.100  
G10  20984930.008 8 110276496.556 8        49.800    20984934.375 6  85929774.37346        41.400                                                                                                  
G05  25261720.180 6 132751283.777 6        36.700    25261730.410 3 103442554.64943        19.300    25261731.121 6 103442552.689 6        36.500                                                  
G04  22689623.438 7 119234702.069 7        45.000    22689629.680 4  92910170.74444        29.700                                                                                                  
G20  24325459.078 6 127831117.016 6        39.400    24325469.426 3  99608639.33043        19.300                                                                                                  
R13  20943139.906 8 111835128.415 8        50.900    20943140.219 8 111835135.425 8        49.900    20943148.781 7  86982938.785 7        47.700    20943148.859 7  86982944.784 7        46.200  
R04  20453167.500 8 109525762.704 8        53.000    20453167.109 8 109525686.712 8        51.400    20453171.918 8  85186721.672 8        48.300    20453172.816 8  85186727.674 8        48.100  
G13  21584809.789 8 113429013.521 8        49.800    21584815.387 6  88386207.82146        38.200                                                                                                  
R03  19684527.641 8 105372854.044 8        51.700    19684527.016 8 105372797.060 8        50.500    19684531.941 8  81956659.398 8        50.200    19684532.723 8  81956660.395 8        49.200  
G07  20155964.664 9 105920315.031 9        54.100    20155968.563 7  82535323.03847        46.500    20155968.281 8  82535322.039 8        51.800                                                  
G23  23444932.758 7 123203774.628 7        42.600    23444938.707 4  96003091.77344        27.100                                                                                                  
G02  23451805.148 7 123240032.970 7        44.600    23451808.285 4  96031223.67044        27.400                                                                                                  
G16  24451751.586 6 128494989.681 6        39.600    24451758.883 3 100125816.15743        21.500                                                                                                  
R14  19248596.828 8 102605607.600 8        50.700    19248597.375 8 102605806.593 8        49.300    19248606.289 7  79804594.206 7        44.700    19248606.484 7  79804596.204 7        44.000  
J01  41803804.891 6 219680613.385 6        38.700    41803804.555 7 219680591.382 7        42.100    41803812.551 6 171179781.632 6        38.000    41803820.879 7 164047321.827 7        44.700    41803807.086 6 178312236.046 6        40.800  
S29  37477752.297 6 196946861.980 6        41.700  
S27  40011378.078 6 210261168.630 6        37.000  
G08  20736335.133 8 108970264.637 8        49.600    20736339.852 6  84911869.10146        40.900                                                                                                  
C01  37456712.086 7 195046922.275 7        46.300    37456705.734 7 150822626.230 7        47.000    37456700.168 7 158491580.464 7        46.000  
C03  37135395.438 8 193373712.231 8        48.600    37135390.785 8 149528801.943 8        48.100    37135385.102 8 157131962.560 8        48.300  
C04  38615542.195 6 201081233.324 6        41.500    38615539.008 6 155488736.305 6        41.400    38615533.090 7 163394933.878 7        43.000  
C05  39552900.031 6 205962272.433 6        37.200    39552898.602 6 159263070.813 6        38.700    39552892.918 6 167361194.557 6        39.200  
C13  24823682.070 7 129263415.146 7        43.300    24823685.156 7  99954652.803 7        44.700                                                  
C30  21365158.242 6 111253994.239 6        41.200    21365162.441 6  86028665.381 6        41.100    21365152.594 7  90402964.105 7        43.000  
C07  36228803.172 8 188652974.936 8        50.700    36228798.344 8 145878463.204 8        50.200    36228789.609 8 153295972.890 8        50.500  
C10  37012743.625 7 192735080.837 7        47.800    37012742.020 7 149034992.106 7        47.200    37012733.348 7 156612994.023 7        47.800  
C09  36320329.430 8 189129639.235 8        51.000    36320328.176 8 146247111.910 8        50.400    36320318.684 8 153683347.464 8        50.200  
C02  37891092.406 6 197308831.132 6        41.800    37891088.223 7 152571667.377 7        43.900    37891083.652 7 160329550.591 7        43.100  
C06  36995549.391 7 192645662.114 7        47.200    36995546.555 7 148965901.757 7        47.800    36995538.820 8 156540397.198 8        48.400  
S37  37713165.656 6 198183943.907 6        41.000  
S28  37928227.250 7 199314265.976 7        43.000  
> 2012 12 15 00 20 30.0000000  0 33
G28  25091208.156 5 131855199.740 5        34.900    25091221.492 2 102744344.05342        16.900                                                                                                  
R02  22967771.125 7 122560530.311 7        45.500    22967770.852 7 122560344.296 7        44.000    22967782.113 5  95324764.324 5        35.000    22967782.777 5  95324771.324 5        34.800  
R15  22714620.883 7 121380045.084 7        42.800    22714621.313 6 121380020.097 6        41.100    22714632.223 6  94406761.595 6        40.400    22714632.184 6  94406763.599 6        39.000  
G10  20973418.406 8 110216005.217 8        50.600    20973423.887 6  85882638.26446        41.600                                                                                                  
G05  25240821.531 6 132641453.262 6        37.700    25240831.293 3 103356972.43643        19.300    25240831.652 6 103356970.445 6        37.600                                                  
G04  22699727.320 7 119287799.283 7        44.800    22699733.563 4  92951545.12744        28.500                                                                                                  
G20  24344327.195 6 127930270.192 6        38.700    24344337.191 3  99685901.32343        18.300                                                                                                  
R13  20960044.070 8 111925396.241 8        51.100    20960044.617 8 111925403.237 8        50.100    20960052.945 7  87053146.991 7        46.800    20960053.023 7  87053152.991 7        46.400  
R04  20436826.445 8 109438251.747 8        52.400    20436825.703 8 109438175.763 8        51.400    20436830.273 8  85118657.615 8        48.700    20436831.293 7  85118663.616 7        47.800  
G13  21589873.953 8 113455622.333 8        49.700    21589878.320 6  88406941.92846        37.900                                                                                                  
R03  19688534.008 8 105394300.384 8        51.500    19688534.438 8 105394243.392 8        50.700    19688539.012 8  81973339.832 8        50.100    19688540.027 8  81973340.829 8        49.600  
G07  20158686.477 9 105934619.030 9        54.400    20158690.375 7  82546468.99347        46.100    20158690.328 8  82546467.994 8        52.000                                                  
G23  23456124.977 7 123262592.366 7        42.500    23456131.805 4  96048923.69144        27.400                                                                                                  
G02  23453092.422 7 123246795.966 7        44.600    23453095.207 4  96036493.52144        27.400                                                                                                  
G16  24462668.148 6 128552358.001 6        40.100    24462675.855 3 100170518.69843        20.600                                                                                                  
R14  19245994.641 8 102591739.762 8        50.000    19245995.305 8 102591938.763 8        49.300    19246004.336 7  79793808.120 7        45.100    19246004.531 7  79793810.118 7        43.800  
J01  41812808.859 6 219727933.456 6        37.400    41812808.738 6 219727911.452 6        41.800    41812817.516 6 171216654.393 6        38.300    41812826.195 7 164082658.211 7        44.800    41812813.105 6 178350645.175 6        41.500  
S29  37476818.563 7 196941938.764 7        42.000  
S27  40010419.063 6 210256106.833 6        37.200  
G08  20725500.984 8 108913336.937 8        52.700    20725506.699 6  84867509.86946        41.100                                                                                                  
C01  37455667.016 7 195041481.200 7        46.700    37455661.309 7 150818418.840 7        46.600    37455655.859 7 158487159.139 7        46.000  
C03  37134269.961 8 193367852.151 8        48.400    37134266.070 8 149524270.550 8        48.100    37134260.211 8 157127200.758 8        48.600  
C04  38614654.969 6 201076616.241 6        41.100    38614652.191 6 155485166.070 6        41.600    38614646.508 7 163391182.108 7        42.600  
C05  39551801.63316 205956559.74816        36.900    39551801.08216 159258652.61216        38.100    39551795.69116 167356551.70716        39.200  
C13  24839296.648 7 129344726.349 7        43.000    24839300.086 7 100017527.626 7        44.900                                                  
C30  21344703.727 6 111147483.552 6        41.200    21344709.332 6  85946304.700 6        41.800    21344698.137 7  90316415.548 7        43.100  
C07  36229621.008 8 188657233.077 8        50.700    36229616.297 8 145881755.840 8        50.000    36229607.504 8 153299432.958 8        50.500  
C10  37011979.453 8 192731100.975 8        48.000    37011978.082 7 149031914.592 7        47.200    37011969.527 7 156609760.040 7        47.400  
C09  36322449.711 8 189140680.723 8        50.400    36322448.340 8 146255649.870 8        50.200    36322438.965 8 153692319.563 8        50.300  
C02  37890090.688 6 197303612.771 6        41.700    37890086.445 7 152567632.193 7        43.200    37890081.992 7 160325310.234 7        43.200  
C06  37000864.758 7 192673340.571 7        47.300    37000862.215 7 148987304.475 7        47.200    37000854.246 7 156562888.195 7        47.600  
S37  37712228.953 6 198179045.411 6        41.300  
S28  37927298.734 7 199309384.348 7        43.500  
> 2012 12 15 00 21  0.0000000  0 34
G28  25068331.961 5 131734980.602 5        35.300    25068345.297 2 102650666.89942        16.300                                                                                                  
R02  22985848.938 7 122657003.962 7        44.100    22985847.723 7 122656817.969 7        43.300    22985860.512 5  95399799.129 5        34.000    22985860.824 5  95399806.130 5        34.500  
R15  22693133.453 7 121265225.554 7        42.600    22693134.000 6 121265200.572 6        41.500    22693145.262 6  94317457.709 6        40.600    22693144.754 6  94317459.728 6        39.100  
G10  20961985.539 8 110155925.858 8        52.000    20961990.609 6  85835823.17946        41.600                                                                                                  
G05  25219927.453 6 132531658.769 6        37.700    25219938.387 3 103271418.28143        19.900    25219938.336 6 103271416.283 6        37.600                                                  
R05  24778623.53115 132455751.94615        35.000    24778622.08215 132455895.98015        32.800    24778632.52315 103021260.32315        31.000    24778633.543 4                        28.800  
G04  22709894.672 7 119341226.799 7        45.200    22709900.211 4  92993176.88744        28.500                                                                                                  
G20  24363223.930 6 128029568.554 6        39.600    24363233.984 3  99763276.40343        19.000                                                                                                  
R13  20977013.172 8 112016008.791 8        51.900    20977013.484 8 112016015.794 8        49.700    20977021.578 7  87123623.328 7        47.200    20977022.008 7  87123629.328 7        46.500  
R04  20420544.453 8 109351068.571 8        52.200    20420543.711 8 109350992.587 8        51.300    20420548.754 7  85050848.495 7        47.800    20420549.535 8  85050854.497 8        48.200  
G13  21594959.336 8 113482347.554 8        49.500    21594964.055 6  88427766.72546        37.600                                                                                                  
R03  19692653.891 8 105416352.112 8        52.200    19692652.793 8 105416295.122 8        50.500    19692658.074 8  81990491.135 8        49.900    19692658.504 8  81990492.133 8        49.900  
G07  20161494.711 8 105949376.682 8        53.800    20161499.078 7  82557968.44147        46.200    20161498.738 8  82557967.442 8        52.100                                                  
G23  23467331.828 7 123321486.848 7        42.900    23467339.359 4  96094815.39144        26.400                                                                                                  
G02  23454471.117 7 123254041.559 7        44.700    23454473.961 4  96042139.39444        26.900                                                                                                  
G16  24473669.500 6 128610170.855 6        39.300    24473677.383 3 100215567.60443        19.600                                                                                                  
R14  19243526.734 8 102578581.860 8        50.500    19243526.813 8 102578780.857 8        49.100    19243535.492 7  79783574.211 7        44.900    19243536.273 7  79783576.207 7        44.400  
J01  41821799.219 6 219775181.969 6        38.800    41821798.844 6 219775159.968 6        41.600    41821808.520 6 171253471.374 6        38.100    41821816.730 7 164117941.141 7        44.300    41821803.055 6 178388996.200 6        41.800  
S29  37475871.859 6 196937017.864 6        41.700  
S27  40009458.359 6 210251050.832 6        37.700  
G08  20714765.984 8 108856919.684 8        53.300    20714771.172 6  84823548.39646        40.900                                                                                                  
C01  37454623.633 7 195036048.604 7        46.300    37454617.457 7 150814217.990 7        47.300    37454612.184 7 158482744.684 7        46.200  
C03  37133145.523 8 193361998.062 8        48.300    37133141.867 8 149519743.788 8        48.200    37133136.066 8 157122443.813 8        48.100  
C04  38613770.258 7 201072006.478 7        42.100    38613766.895 6 155481601.508 6        41.600    38613760.918 7 163387436.296 7        42.700  
C05  39550706.055 6 205950852.689 6        37.500    39550704.391 6 159254239.532 6        37.900    39550699.293 6 167351914.238 6        39.600  
C13  24854948.820 7 129426232.450 7        43.600    24854953.488 7 100080553.204 7        45.400                                                  
C30  21324271.344 6 111041085.474 6        41.200    21324276.598 7  85864031.100 7        42.700    21324264.875 7  90229958.508 7        42.600  
C07  36230443.422 8 188661516.730 8        51.000    36230438.594 8 145885068.207 8        50.000    36230429.977 8 153302913.755 8        50.600  
C10  37011225.563 8 192727173.889 8        48.300    37011223.957 7 149028877.915 7        46.400    37011214.875 7 156606568.946 7        47.400  
C09  36324598.594 8 189151872.102 8        50.700    36324597.457 8 146264303.730 8        50.500    36324588.199 8 153701413.452 8        50.200  
C02  37889089.789 6 197298402.867 6        41.600    37889085.898 7 152563603.544 7        43.800    37889081.328 7 160321076.748 7        43.200  
C06  37006204.016 7 192701145.826 7        47.200    37006202.176 7 149008805.217 7        47.300    37006194.266 8 156585482.208 8        48.200  
S37  37711308.250 6 198174149.897 6        41.100  
S28  37926372.875 7 199304509.160 7        43.000  
> 2012 12 15 00 21 30.0000000  0 34
G28  25045435.742 6 131614638.958 6        38.000    25045444.914 2 102556894.28642        17.800                                                                                                  
R02  23003987.297 7 122753799.355 7        44.600    23003987.609 7 122753613.384 7        43.400    23003999.223 5  95475084.170 5        34.300    23004000.359 5  95475091.166 5        34.000  
R15  22671708.523 7 121150736.997 7        42.800    22671709.422 6 121150712.018 6        41.300    22671719.512 6  94228411.240 6        40.500    22671719.590 6  94228413.251 6        39.000  
G10  20950632.164 8 110096259.993 8        50.000    20950637.117 7  85789330.30247        42.000                                                                                                  
G05  25199042.102 6 132421901.619 6        37.200    25199052.391 3 103185893.22143        19.900    25199052.457 6 103185891.230 6        38.100                                                  
R05  24756037.203 6 132335021.590 6        36.500    24756036.461 5 132335165.630 5        34.600    24756047.723 5 102927358.901 5        33.900    24756048.15215 102927426.90415        33.500  
G04  22720123.367 7 119394981.110 7        45.500    22720130.313 4  93035063.28244        28.600                                                                                                  
G20  24382146.781 6 128129009.019 6        38.900    24382157.012 3  99840762.25043        18.300                                                                                                  
R13  20994045.898 8 112106962.279 8        51.400    20994046.094 8 112106969.289 8        49.800    20994054.305 7  87194364.832 7        47.200    20994054.617 7  87194370.832 7        46.100  
R04  20404324.898 8 109264215.993 8        52.300    20404324.742 8 109264139.994 8        50.800    20404329.902 8  84983296.510 8        48.600    20404330.566 8  84983302.519 8        48.800  
G13  21600066.664 8 113509188.800 8        50.000    21600072.613 6  88448681.94046        38.300                                                                                                  
R03  19696886.359 8 105439009.462 8        51.500    19696886.086 8 105438952.479 8        50.800    19696891.012 8  82008113.471 8        50.300    19696891.910 8  82008114.469 8        50.100  
G07  20164388.938 9 105964585.786 9        54.000    20164393.246 7  82569819.66147        46.200    20164392.848 8  82569818.662 8        52.000                                                  
G23  23478554.492 7 123380457.513 7        43.100    23478561.555 4  96140766.45044        28.600                                                                                                  
G02  23455941.477 7 123261768.078 7        45.100    23455944.438 4  96048160.02044        27.200                                                                                                  
G16  24484754.852 6 128668425.875 6        39.200    24484762.734 3 100260961.08343        19.600                                                                                                  
R14  19241190.898 8 102566132.001 8        50.300    19241191.328 8 102566331.000 8        48.600    19241200.125 7  79773890.994 7        45.100    19241200.438 7  79773892.993 7        44.100  
J01  41830776.828 6 219822357.949 6        39.300    41830776.660 6 219822335.942 6        41.900    41830786.715 6 171290231.832 6        39.600    41830794.340 7 164153169.911 7        44.600    41830780.957 6 178427288.364 6        40.800  
S29  37474944.609 7 196932106.470 7        42.600  
S27  40008480.969 6 210245999.662 6        37.000  
G08  20704127.547 8 108801012.483 8        51.000    20704132.676 6  84779984.36546        41.400                                                                                                  
C01  37453581.852 7 195030623.771 7        46.900    37453575.910 7 150810023.154 7        46.800    37453570.520 7 158478336.560 7        46.100  
C03  37132022.570 8 193356149.224 8        48.200    37132018.328 8 149515221.083 8        48.100    37132012.527 8 157117691.161 8        48.000  
C04  38612885.953 6 201067403.315 6        41.700    38612882.941 6 155478042.035 6        41.100    38612876.789 7 163383695.840 7        42.400  
C05  39549611.656 6 205945151.700 6        38.100    39549610.051 6 159249831.156 6        38.300    39549604.250 6 167347281.714 6        38.800  
C13  24870638.711 7 129507931.604 7        43.000    24870642.969 7 100143728.047 7        44.600                                                  
C30  21303858.617 6 110934794.496 6        40.600    21303864.867 7  85781840.313 7        43.200    21303853.320 7  90143588.492 7        43.000  
C07  36231270.805 8 188665824.880 8        50.800    36231266.445 8 145888399.518 8        49.700    36231257.770 8 153306414.464 8        50.700  
C10  37010481.125 8 192723298.586 8        48.000    37010479.637 7 149025881.253 7        47.100    37010470.730 7 156603419.921 7        47.500  
C09  36326776.438 8 189163212.771 8        50.400    36326775.594 8 146273073.033 8        50.000    36326766.570 8 153710628.661 8        50.200  
C02  37888090.484 6 197293200.876 6        41.700    37888087.004 7 152559581.019 7        43.700    37888082.375 7 160316849.691 7        43.800  
C06  37011568.859 7 192729076.985 7        47.400    37011565.613 7 149030403.333 7        46.400    37011558.230 8 156608178.541 8        48.100  
S37  37710361.375 6 198169263.246 6        41.400  
S28  37925443.766 7 199299639.688 7        43.400  
> 2012 12 15 00 22  0.0000000  0 34
G28  25022509.227 5 131494176.143 5        35.900    25022520.688 2 102463027.22542        17.800                                                                                                  
R02  23022188.039 7 122850913.306 7        44.700    23022188.117 7 122850727.331 7        43.400    23022199.965 5  95550616.986 5        34.200    23022200.863 5  95550623.983 5        33.900  
R15  22650346.852 7 121036580.816 7        43.400    22650345.871 6 121036555.817 6        41.700    22650357.488 6  94139623.293 6        41.000    22650356.625 6  94139625.302 6        39.700  
G10  20939356.414 8 110037009.021 8        52.500    20939361.719 6  85743160.72146        41.700                                                                                                  
G05  25178163.969 6 132312182.557 6        37.800    25178173.023 3 103100397.85843        19.300    25178173.738 6 103100395.854 6        38.700                                                  
R05  24733428.867 5 132214165.723 5        34.100    24733429.414 5 132214309.747 5        31.500    24733439.621 5 102833359.837 5        33.000    24733440.285 5 102833427.832 5        31.600  
G04  22730414.156 7 119449058.238 7        43.900    22730420.633 4  93077201.23744        28.700                                                                                                  
G20  24401096.930 6 128228588.363 6        39.700    24401106.867 3  99918356.32043        18.600                                                                                                  
R13  21011141.297 8 112198250.625 8        51.800    21011141.492 8 112198257.628 8        49.500    21011149.117 7  87265366.776 7        47.200    21011149.430 7  87265372.776 7        46.300  
R04  20388168.063 8 109177696.130 8        52.600    20388168.492 8 109177620.146 8        51.200    20388173.652 8  84916003.321 8        48.300    20388174.434 8  84916009.323 8        48.800  
G13  21605197.219 8 113536145.300 8        51.000    21605202.348 6  88469686.95846        37.900                                                                                                  
R03  19701231.688 8 105462271.725 8        52.200    19701232.352 8 105462214.731 8        49.500    19701237.746 8  82026206.298 8        50.200    19701238.176 8  82026207.294 8        49.700  
G07  20167368.469 9 105980243.094 9        54.100    20167372.719 7  82582020.12647        46.100    20167372.672 8  82582019.127 8        52.400                                                  
G23  23489791.727 7 123439503.818 7        44.900    23489796.914 4  96186776.45744        29.100                                                                                                  
G02  23457501.492 7 123269972.579 7        43.400    23457505.977 4  96054553.09744        27.300                                                                                                  
G16  24495922.273 6 128727119.469 6        37.400    24495932.152 3 100306696.30743        19.000                                                                                                  
R14  19238988.203 8 102554387.481 8        50.300    19238987.813 8 102554586.474 8        48.400    19238996.727 7  79764756.389 7        44.500    19238997.039 7  79764758.387 7        44.000  
J01  41839740.422 6 219869459.693 6        38.400    41839739.813 7 219869437.688 7        42.200    41839749.137 6 171326934.455 6        38.100    41839757.465 7 164188343.251 7        44.600    41839743.848 6 178465520.269 6        41.000  
S29  37474004.797 7 196927196.444 7        42.600  
S27  40007531.078 6 210240952.495 6        37.400  
G08  20693584.930 8 108745614.464 8        53.000    20693590.762 6  84736817.09446        41.200                                                                                                  
C01  37452541.289 7 195025205.428 7        46.300    37452534.938 7 150805833.331 7        46.400    37452529.723 7 158473933.697 7        46.300  
C03  37130899.922 8 193350304.376 8        48.700    37130896.031 8 149510701.467 8        48.300    37130890.230 8 157112941.725 8        48.200  
C04  38612002.719 6 201062805.429 6        41.300    38611999.824 6 155474486.656 6        40.700    38611994.082 7 163379959.677 7        42.600  
C05  39548517.313 6 205939455.308 6        38.000    39548516.938 6 159245426.339 6        38.400    39548511.195 6 167342652.919 6        39.800  
C13  24886363.523 7 129589821.185 7        42.200    24886368.426 7 100207050.133 7        44.600                                                  
C30  21283468.516 6 110828617.764 6        40.900    21283474.648 6  85699737.848 6        41.100    21283462.984 6  90057311.297 6        40.600  
C07  36232102.938 8 188670155.668 8        50.100    36232097.875 8 145891748.326 8        49.500    36232089.258 8 153309933.560 8        50.700  
C10  37009746.359 8 192719473.253 8        48.100    37009745.281 7 149022923.251 7        47.600    37009736.316 7 156600311.521 7        47.600  
C09  36328982.813 8 189174701.559 8        50.300    36328981.617 8 146281956.868 8        50.200    36328972.477 8 153719964.227 8        50.000  
C02  37887093.141 7 197288005.410 7        42.100    37887089.484 7 152555563.536 7        44.600    37887084.855 7 160312627.938 7        43.500  
C06  37016956.406 7 192757132.768 7        47.200    37016953.453 7 149052097.820 7        46.700    37016945.895 7 156630976.143 7        47.800  
S37  37709447.641 7 198164378.604 7        42.000  
S28  37924514.078 7 199294773.146 7        43.400  
> 2012 12 15 00 22 30.0000000  0 34
G28  24999565.172 6 131373598.625 6        36.100    24999575.695 2 102369070.84042        16.900                                                                                                  
R02  23040447.141 7 122948348.408 7        44.800    23040447.453 7 122948162.438 7        42.700    23040459.770 5  95626399.579 5        34.400    23040460.672 5  95626406.576 5        33.700  
R15  22629045.898 7 120922763.608 7        42.900    22629047.031 7 120922738.609 7        42.200    22629058.410 6  94051098.973 6        41.200    22629057.785 6  94051100.969 6        40.500  
G10  20928161.570 8 109978179.238 8        51.400    20928167.227 6  85697319.33146        41.700                                                                                                  
G05  25157294.742 6 132202507.888 6        38.900    25157302.566 3 103014937.08443        19.600    25157302.578 6 103014935.087 6        39.000                                                  
R05  24710797.82816 132093357.38916        40.100    24710798.37516 132093333.41816        38.600    24710808.23016 102739336.47516        37.500    24710809.24616 102739336.49416        37.100  
G04  22740766.578 7 119503459.417 7        46.100    22740772.996 4  93119591.69644        28.400                                                                                                  
G20  24420073.297 6 128328308.620 6        39.700    24420083.410 3  99996060.15643        18.300                                                                                                  
R13  21028300.570 8 112289874.307 8        51.600    21028300.414 8 112289881.316 8        50.000    21028307.449 7  87336629.552 7        46.200    21028307.883 7  87336635.544 7        45.500  
R04  20372074.789 8 109091517.057 8        52.400    20372075.219 8 109091441.064 8        50.800    20372079.910 8  84848975.173 8        48.300    20372080.809 8  84848981.175 8        48.400  
G13  21610348.922 8 113563221.218 8        49.800    21610354.285 6  88490785.03346        37.300                                                                                                  
R03  19705690.961 8 105486143.518 8        52.000    19705690.805 8 105486086.526 8        50.700    19705695.496 8  82044773.203 8        50.000    19705696.512 8  82044774.200 8        50.000  
G07  20170433.656 9 105996351.005 9        54.500    20170438.375 7  82594571.71547        45.900    20170438.211 8  82594570.716 8        52.400                                                  
G23  23501042.969 7 123498629.543 7        43.800    23501048.391 4  96232848.35044        29.500                                                                                                  
G02  23459154.633 7 123278658.160 7        43.600    23459159.703 4  96061321.06844        26.400                                                                                                  
G16  24507175.570 6 128786254.101 6        37.300    24507184.215 3 100352775.19643        19.300                                                                                                  
R14  19236917.836 8 102543351.483 8        50.500    19236918.266 8 102543550.489 8        48.500    19236927.063 7  79756172.856 7        45.000    19236927.375 7  79756174.854 7        44.600  
J01  41848690.422 6 219916491.002 6        39.800    41848690.059 6 219916468.998 6        41.400    41848700.250 6 171363582.197 6        38.900    41848707.758 7 164223463.992 7        44.500    41848694.023 6 178503694.999 6        40.400  
S29  37473079.938 7 196922294.913 7        42.500  
S27  40006566.344 6 210235912.593 6        37.100  
G08  20683140.859 8 108690730.171 8        53.000    20683146.633 6  84694050.12046        41.600                                                                                                  
C01  37451503.289 7 195019797.611 7        46.100    37451496.938 7 150801651.659 7        47.200    37451491.313 7 158469539.396 7        45.400  
C03  37129778.883 8 193344467.622 8        48.400    37129775.168 8 149506188.114 8        48.700    37129769.426 8 157108198.883 8        48.500  
C04  38611121.594 6 201058216.957 6        41.700    38611118.934 6 155470938.558 6        41.100    38611113.250 7 163376231.164 7        42.400  
C05  39547424.000 6 205933767.754 6        37.300    39547424.270 6 159241028.363 6        39.000    39547418.293 6 167338031.309 6        39.100  
C13  24902127.383 7 129671903.948 7        42.100    24902130.703 7 100270521.578 7        43.600                                                  
C30  21263098.563 6 110722556.042 6        39.400    21263105.984 7  85617724.314 7        42.600    21263094.555 7  89971127.561 7        43.100  
C07  36232939.750 8 188674512.821 8        51.200    36232934.746 8 145895117.526 8        49.800    36232926.422 8 153313474.080 8        50.600  
C10  37009022.203 8 192715701.583 8        48.000    37009020.891 7 149020006.733 7        46.700    37009011.633 7 156597246.705 7        47.200  
C09  36331218.313 8 189186342.757 8        50.400    36331216.883 8 146290958.564 8        50.200    36331208.211 8 153729423.636 8        50.500  
C02  37886097.727 7 197282820.505 7        42.100    37886093.602 7 152551554.221 7        44.000    37886088.973 7 160308414.769 7        43.500  
C06  37022368.203 7 192785316.851 7        47.000    37022365.895 7 149073891.509 7        47.000    37022358.219 7 156653877.995 7        47.600  
S37  37708507.594 6 198159503.742 6        41.000  
S28  37923590.594 7 199289916.167 7        43.900  
> 2012 12 15 00 23  0.0000000  0 34
G28  24976598.063 6 131252908.380 6        37.200    24976608.293 2 102275026.61742        16.900                                                                                                  
R02  23058765.844 7 123046102.204 7        44.200    23058764.277 7 123045916.203 7        42.700    23058776.715 5  95702430.048 5        34.000    23058777.496 5  95702437.044 5        34.300  
R15  22607810.141 7 120809286.895 7        42.100    22607810.922 6 120809261.905 6        41.100    22607823.004 6  93962839.404 6        40.900    22607822.027 6  93962841.410 6        39.900  
G10  20917047.258 8 109919772.411 8        52.300    20917052.270 7  85651807.52547        42.400                                                                                                  
G05  25136432.516 6 132092879.183 6        38.300    25136441.219 3 102929512.11143        19.900    25136441.113 6 102929510.131 6        36.300                                                  
R05  24688145.445 6 131972265.129 6        38.400    24688145.641 6 131972241.126 6        37.000    24688155.14115 102645150.51515        34.900    24688155.691 5 102645153.519 5        33.500  
G04  22751180.055 7 119558181.357 7        44.700    22751186.297 4  93162232.10544        29.400                                                                                                  
G20  24439076.977 6 128428167.679 6        40.100    24439085.621 2 100073872.15042        17.400                                                                                                  
R13  21045520.500 8 112381829.182 8        51.100    21045519.875 8 112381836.190 8        49.400    21045527.969 7  87408149.922 7        45.800    21045528.047 7  87408155.915 7        45.100  
R04  20356046.180 8 109005681.597 8        52.500    20356045.789 8 109005605.605 8        50.900    20356050.246 8  84782214.292 8        48.400    20356051.262 8  84782220.294 8        48.200  
G13  21615523.977 8 113590416.249 8        49.300    21615529.457 6  88511975.92946        38.100                                                                                                  
R03  19710264.836 8 105510625.133 8        51.900    19710264.328 8 105510568.150 8        50.600    19710269.488 8  82063814.405 8        50.300    19710270.270 8  82063815.409 8        49.800  
G07  20173584.414 9 106012907.352 9        54.100    20173588.723 7  82607472.72947        46.100    20173588.676 8  82607471.735 8        52.000                                                  
G23  23512309.922 7 123557834.644 7        43.900    23512315.402 4  96278982.10044        29.500                                                                                                  
G02  23460897.547 7 123287822.831 7        43.500    23460902.852 4  96068462.32144        25.800                                                                                                  
G16  24518512.039 6 128845827.405 6        37.600    24518520.859 3 100399195.91143        18.600                                                                                                  
R14  19234979.734 8 102533021.938 8        50.000    19234980.867 8 102533220.939 8        48.800    19234989.902 7  79748138.783 7        45.000    19234990.215 7  79748140.780 7        44.000  
J01  41857626.219 6 219963450.994 6        40.900    41857625.688 7 219963428.983 7        42.100    41857635.402 6 171400174.328 6        38.800    41857643.438 7 164258531.459 7        43.900    41857629.352 6 178541811.837 6        41.300  
S29  37472147.766 7 196917402.301 7        42.000  
S27  40005612.281 6 210230880.184 6        38.100  
G08  20672794.273 8 108636359.498 8        53.200    20672799.578 6  84651683.37046        41.300                                                                                                  
C01  37450466.367 7 195014399.832 7        46.600    37450460.426 7 150797477.729 7        46.800    37450454.859 7 158465153.236 7        46.000  
C03  37128659.602 8 193338638.438 8        48.100    37128655.359 7 149501680.616 7        47.600    37128649.617 8 157103462.182 8        48.300  
C04  38610242.258 6 201053637.266 6        41.300    38610238.895 6 155467397.249 6        39.500    38610233.094 7 163372509.791 7        42.400  
C05  39546335.297 6 205928088.296 6        37.300    39546333.457 6 159236636.632 6        38.100    39546328.125 6 167333416.280 6        38.800  
C13  24917928.836 7 129754178.085 7        42.900    24917931.336 7 100334140.988 7        43.900                                                  
C30  21242753.578 6 110616612.605 6        40.900    21242760.238 7  85535802.258 7        42.800    21242748.867 7  89885039.952 7        42.700  
C07  36233781.203 8 188678895.298 8        51.400    36233776.375 8 145898506.318 8        50.000    36233767.934 8 153317035.184 8        50.800  
C10  37008307.555 7 192711982.562 7        47.700    37008306.828 7 149017130.919 7        47.000    37008297.688 7 156594224.681 7        47.000  
C09  36333483.516 8 189198135.821 8        50.700    36333481.969 8 146300077.691 8        50.700    36333473.180 8 153739006.454 8        50.300  
C02  37885103.328 6 197277645.721 6        41.100    37885099.555 7 152547552.729 7        43.500    37885094.691 7 160304209.803 7        43.600  
C06  37027806.367 7 192813628.630 7        47.300    37027803.004 7 149095783.929 7        46.400    37027795.211 8 156676883.597 8        48.000  
S37  37707585.063 6 198154636.906 6        41.700  
S28  37922671.422 7 199285065.791 7        42.400  
> 2012 12 15 00 23 30.0000000  0 34
G28  24953609.453 6 131132103.723 6        36.000    24953620.738 2 102180893.26342        16.900                                                                                                  
R02  23077143.852 7 123144168.493 7        44.700    23077144.047 7 123143982.502 7        43.300    23077156.012 5  95778703.551 5        34.000    23077157.031 5  95778710.547 5        33.600  
R15  22586638.969 7 120696149.186 7        43.200    22586639.281 7 120696124.187 7        42.000    22586650.309 6  93874843.524 6        41.400    22586649.684 6  93874845.528 6        40.000  
G10  20906013.211 8 109861786.766 8        52.600    20906018.047 7  85606623.91047        42.200                                                                                                  
G05  25115578.016 6 131983294.326 6        37.300    25115588.246 3 102844121.37143        18.600    25115588.078 6 102844119.358 6        37.500                                                  
R05  24665470.359 5 131851052.212 5        34.700    24665469.262 5 131851028.249 5        34.100    24665479.586 5 102550873.545 5        33.700    24665480.957 5 102550876.578 5        32.300  
G04  22761653.313 7 119613217.054 7        45.000    22761659.320 4  93205117.00244        28.100                                                                                                  
G20  24458102.992 6 128528158.925 6        37.600    24458114.277 3 100151787.15843        18.300                                                                                                  
R13  21062800.758 8 112474106.792 8        50.400    21062800.484 8 112474113.801 8        48.700    21062808.344 7  87479921.304 7        45.400    21062808.891 7  87479927.303 7        44.700  
R04  20340081.203 8 108920189.155 8        52.500    20340080.223 8 108920113.149 8        50.800    20340085.031 8  84715720.188 8        48.100    20340085.582 8  84715726.189 8        48.600  
G13  21620721.453 8 113617726.606 8        50.800    21620726.055 6  88533256.67746        37.900                                                                                                  
R03  19714951.250 8 105535712.795 8        52.500    19714951.445 8 105535655.812 8        50.000    19714956.840 8  82083326.991 8        50.100    19714957.387 8  82083327.987 8        50.100  
G07  20176819.203 9 106029905.807 9        54.400    20176823.043 7  82620718.24847        45.600    20176822.996 8  82620717.248 8        52.100                                                  
G23  23523589.922 7 123617115.064 7        44.000    23523596.398 4  96325174.54544        29.400                                                                                                  
G02  23462732.391 7 123297461.113 7        43.200    23462737.695 4  96075972.64644        26.600                                                                                                  
G16  24529932.828 6 128905832.897 6        38.000    24529939.480 3 100445953.38743        19.000                                                                                                  
R14  19233173.477 8 102523393.094 8        50.300    19233173.789 8 102523592.102 8        48.800    19233182.234 7  79740649.696 7        45.300    19233183.016 7  79740651.692 7        44.700  
J01  41866548.828 6 220010335.088 6        39.800    41866547.203 6 220010313.086 6        41.300    41866557.426 6 171436707.368 6        37.600    41866565.227 7 164293542.268 7        44.300    41866552.547 6 178579867.080 6        41.700  
S29  37471215.734 7 196912513.521 7        42.400  
S27  40004655.734 6 210225850.625 6        36.600  
G08  20662545.344 8 108582498.796 8        53.000    20662550.238 6  84609714.00546        41.100                                                                                                  
C01  37449431.078 7 195009007.812 7        46.600    37449424.844 7 150793308.262 7        46.700    37449419.336 7 158460771.771 7        45.900  
C03  37127540.789 7 193332812.586 7        47.700    37127536.723 8 149497175.692 8        48.000    37127531.098 8 157098728.202 8        48.600  
C04  38609363.867 6 201049062.230 6        41.600    38609360.563 6 155463859.548 6        41.300    38609354.469 7 163368792.202 7        42.000  
C05  39545244.016 6 205922412.992 6        37.600    39545242.879 6 159232248.132 6        38.100    39545237.957 6 167328804.633 6        39.700  
C13  24933763.094 7 129836638.213 7        42.700    24933767.703 7 100397904.242 7        44.000                                                  
C30  21222430.266 6 110510782.459 6        40.400    21222436.867 7  85453967.814 7        43.400    21222425.906 7  89799044.391 7        42.700  
C07  36234626.883 8 188683298.469 8        50.300    36234621.293 8 145901911.113 8        50.000    36234613.320 8 153320613.113 8        50.900  
C10  37007603.273 7 192708311.520 7        47.500    37007602.020 7 149014292.219 7        46.900    37007592.762 7 156591241.642 7        47.600  
C09  36335776.555 8 189210076.848 8        50.300    36335774.773 8 146309311.237 8        50.100    36335766.277 8 153748709.507 8        50.500  
C02  37884110.961 6 197272476.809 6        41.200    37884107.129 7 152543555.778 7        44.100    37884102.441 7 160300009.624 7        43.300  
C06  37033267.031 8 192842063.743 8        48.300    37033263.258 7 149117771.720 7        47.200    37033256.051 8 156699989.427 8        48.100  
S37  37706663.875 7 198149771.493 7        42.400  
S28  37921746.406 7 199280219.047 7        43.100  
> 2012 12 15 00 24  0.0000000  0 34
G28  24930599.461 6 131011190.164 6        36.600    24930612.094 2 102086674.99442        17.400                                                                                                  
R02  23095582.141 7 123242548.323 7        45.800    23095581.398 7 123242362.318 7        43.600    23095592.188 5  95855220.922 5        34.500    23095593.441 5  95855227.922 5        33.100  
R15  22565532.242 7 120583355.313 7        43.800    22565531.617 7 120583330.311 7        42.300    22565542.410 6  93787115.061 6        40.900    22565541.664 6  93787117.073 6        39.700  
G10  20895060.141 8 109804227.130 8        53.200    20895064.918 7  85561772.25747        42.200                                                                                                  
G05  25094735.922 6 131873758.434 6        38.900    25094743.219 3 102758768.71443        18.300    25094743.641 6 102758766.736 6        37.000                                                  
R05  24642772.828 6 131729723.676 6        37.300    24642773.258 5 131729699.693 5        35.500    24642784.168 5 102456506.909 5        35.000    24642784.363 5 102456509.903 5        34.600  
G04  22772184.914 7 119668566.345 7        44.300    22772192.035 4  93248246.25544        28.200                                                                                                  
G20  24477158.203 6 128628283.396 6        39.200    24477167.434 3 100229805.90343        18.300                                                                                                  
R13  21080142.109 8 112566706.117 8        50.200    21080141.953 8 112566713.127 8        48.800    21080150.164 7  87551942.889 7        45.900    21080150.359 7  87551948.902 7        45.100  
R04  20324181.414 8 108835046.065 8        52.100    20324180.555 8 108834970.089 8        50.700    20324185.363 8  84649497.814 8        48.200    20324186.145 8  84649503.815 8        48.300  
G13  21625940.430 8 113645154.854 8        50.200    21625945.734 6  88554629.29246        37.800                                                                                                  
R03  19719751.063 8 105561409.949 8        52.500    19719750.438 8 105561352.958 8        49.300    19719755.715 8  82103313.619 8        50.100    19719756.496 8  82103314.615 8        49.600  
G07  20180138.063 8 106047347.581 8        53.800    20180142.547 7  82634309.18547        46.000    20180142.383 8  82634308.192 8        52.000                                                  
G23  23534885.586 7 123676473.852 7        44.300    23534891.945 5  96371428.04945        30.200                                                                                                  
G02  23464655.492 7 123307574.449 7        42.200    23464662.203 4  96083853.12344        27.500                                                                                                  
G16  24541434.234 6 128966271.596 6        38.500    24541441.707 3 100493048.43543        19.000                                                                                                  
R14  19231498.984 8 102514466.957 8        50.500    19231498.945 8 102514665.971 8        49.800    19231507.508 7  79733707.155 7        45.000    19231507.820 7  79733709.153 7        43.900  
J01  41875455.406 6 220057145.778 6        39.700    41875454.828 6 220057123.770 6        41.300    41875465.293 6 171473183.169 6        38.000    41875472.801 7 164328498.228 7        44.400    41875458.480 6 178617862.703 6        40.700  
S29  37470297.313 6 196907629.045 6        41.800  
S27  40003694.469 6 210220827.291 6        37.900  
G08  20652393.094 8 108529151.060 8        53.100    20652398.691 6  84568144.35546        41.000                                                                                                  
C01  37448396.766 7 195003624.419 7        46.400    37448390.707 7 150789145.470 7        47.100    37448385.492 7 158456397.310 7        46.400  
C03  37126423.250 8 193326992.789 8        48.600    37126419.184 7 149492675.442 7        47.600    37126413.559 8 157093999.129 8        48.300  
C04  38608486.969 7 201044494.635 7        42.000    38608484.250 6 155460327.590 6        40.900    38608478.098 7 163365080.652 7        42.100  
C05  39544154.992 6 205916744.526 6        37.700    39544154.559 6 159227864.919 6        39.400    39544149.051 6 167324198.545 6        39.000  
C13  24949635.406 7 129919285.700 7        42.300    24949639.547 7 100461812.368 7        44.200                                                  
C30  21202129.563 6 110405077.300 6        40.300    21202137.570 7  85372230.024 7        42.500    21202125.848 7  89713150.405 7        43.000  
C07  36235476.586 8 188687724.584 8        50.300    36235471.641 8 145905333.649 8        49.600    36235463.551 8 153324209.677 8        50.900  
C10  37006907.859 8 192704690.843 8        48.100    37006906.840 7 149011492.447 7        46.600    37006897.523 8 156588299.521 8        48.000  
C09  36338099.031 8 189222168.595 8        50.300    36338097.602 8 146318661.320 8        50.300    36338088.813 8 153758535.023 8        50.800  
C02  37883120.188 6 197267316.507 6        41.500    37883116.414 7 152539565.488 7        43.500    37883111.902 7 160295816.440 7        43.200  
C06  37038751.188 7 192870624.577 7        47.300    37038748.352 7 149139856.751 7        46.700    37038740.734 7 156723197.430 7        47.700  
S37  37705727.953 7 198144914.717 7        42.100  
S28  37920821.797 7 199275378.903 7        43.900  
> 2012 12 15 00 24 30.0000000  0 34
G28  24907570.211 6 130890170.006 6        36.600    24907581.320 2 101992373.70942        17.400                                                                                                  
R02  23114075.508 7 123341239.472 7        44.500    23114075.469 7 123341053.481 7        43.700    23114087.902 5  95931980.421 5        34.500    23114087.980 5  95931987.422 5        33.900  
R15  22544488.211 7 120470907.311 7        44.300    22544488.055 7 120470882.313 7        42.400    22544498.848 6  93699655.606 6        41.000    22544498.340 6  93699657.617 6        40.400  
G10  20884188.297 8 109747095.552 8        53.000    20884193.426 7  85517254.15047        42.300                                                                                                  
G05  25073901.883 6 131764273.219 6        37.700    25073909.004 3 102673455.60343        19.900    25073909.777 6 102673453.610 6        36.900                                                  
R05  24620055.734 6 131608281.084 6        37.500    24620055.344 6 131608257.104 6        36.000    24620063.438 5 102362051.429 5        32.400    24620064.688 5 102362054.439 5        32.500  
G04  22782777.500 7 119724226.054 7        45.000    22782784.270 4  93291617.38844        28.600                                                                                                  
G20  24496234.727 6 128728538.983 6        38.600    24496246.246 3 100307926.93843        18.300                                                                                                  
R13  21097542.070 8 112659622.823 8        50.500    21097542.031 8 112659629.825 8        48.800    21097550.594 7  87624211.326 7        46.000    21097550.555 7  87624217.333 7        45.700  
R04  20308346.555 8 108750255.299 8        52.100    20308346.164 8 108750179.300 8        51.200    20308350.855 8  84583549.459 8        48.800    20308351.988 8  84583555.460 8        48.300  
G13  21631182.188 8 113672701.120 8        49.900    21631187.902 6  88576093.86846        37.700                                                                                                  
R03  19724666.023 8 105587716.771 8        51.800    19724666.219 8 105587659.780 8        49.800    19724671.613 8  82123774.439 8        50.000    19724672.277 8  82123775.437 8        49.800  
G07  20183541.008 8 106065230.442 8        53.800    20183545.375 7  82648243.85447        45.600    20183545.094 8  82648242.854 8        52.000                                                  
G23  23546195.648 7 123735910.910 7        44.600    23546202.887 4  96417742.57244        29.400                                                                                                  
G02  23466671.406 7 123318160.948 7        42.600    23466676.301 4  96092102.32544        26.800                                                                                                  
G16  24553017.977 6 129027141.110 6        39.800    24553024.336 3 100540479.17743        19.900                                                                                                  
R14  19229955.891 8 102506241.479 8        50.500    19229956.672 8 102506440.479 8        49.100    19229964.883 7  79727309.570 7        44.300    19229965.313 7  79727311.567 7        44.600  
J01  41884349.500 6 220103882.228 6        40.200    41884349.430 6 220103860.227 6        41.800    41884359.035 6 171509601.150 6        38.000    41884367.539 7 164363398.786 7        44.500    41884354.215 6 178655798.122 6        40.600  
S29  37469363.156 6 196902752.697 6        41.900  
S27  40002743.016 6 210215809.223 6        37.200  
G08  20642339.391 8 108476316.363 8        51.700    20642344.637 6  84526974.48346        41.300                                                                                                  
C01  37447364.398 7 194998249.311 7        46.800    37447358.926 7 150784989.071 7        47.500    37447353.418 7 158452029.576 7        45.800  
C03  37125306.750 8 193321178.701 8        48.300    37125302.684 8 149488179.607 8        48.500    37125296.941 8 157089274.698 8        48.700  
C04  38607610.688 6 201039934.063 6        41.500    38607607.734 6 155456801.063 6        41.800    38607601.816 7 163361374.813 7        42.500  
C05  39543068.406 6 205911082.482 6        37.800    39543066.625 6 159223486.672 6        38.600    39543061.527 6 167319597.673 6        39.300  
C13  24965543.398 7 130002118.902 7        43.000    24965546.484 7 100525864.088 7        43.800                                                  
C30  21181854.227 6 110299495.392 6        40.500    21181860.652 7  85290587.555 7        42.400    21181849.223 7  89627356.586 7        42.700  
C07  36236330.906 8 188692172.864 8        50.500    36236326.078 8 145908773.340 8        50.200    36236317.871 8 153327824.264 8        50.200  
C10  37006222.047 7 192701119.524 7        47.600    37006220.910 7 149008730.855 7        47.000    37006211.711 7 156585397.512 7        47.600  
C09  36340450.063 8 189234410.775 8        50.500    36340448.223 8 146328127.736 8        50.700    36340439.434 8 153768482.786 8        50.000  
C02  37882130.844 6 197262164.446 6        41.600    37882126.953 7 152535581.562 7        43.000    37882122.266 7 160291629.949 7        44.000  
C06  37044260.203 7 192899310.835 7        47.200    37044257.602 7 149162038.737 7        47.000    37044249.750 7 156746507.326 7        47.500  
S37  37704809.969 6 198140063.576 6        41.300  
S28  37919908.578 7 199270543.116 7        43.300  
> 2012 12 15 00 25  0.0000000  0 34
G28  24884519.453 5 130769048.319 5        35.600    24884532.496 2 101897993.39942        15.600                                                                                                  
R02  23132629.844 7 123440242.754 7        45.000    23132629.688 7 123440056.760 7        43.300    23132640.715 5  96008982.687 5        32.800    23132641.613 5  96008989.675 5        33.000  
R15  22523510.641 7 120358810.351 7        43.800    22523510.719 7 120358785.364 7        42.200    22523521.043 6  93612469.180 6        41.100    22523520.770 6  93612471.176 6        39.700  
G10  20873398.773 8 109690397.018 8        52.900    20873403.961 7  85473073.48947        42.200                                                                                                  
G05  25053078.766 6 131654843.136 6        39.000    25053085.242 3 102588185.43543        21.300    25053084.785 6 102588183.442 6        37.500                                                  
R05  24597316.805 5 131486728.979 5        34.800    24597315.121 5 131486704.980 5        35.000    24597327.910 5 102267510.864 5        35.700    24597327.520 5 102267513.854 5        34.500  
G04  22793427.742 7 119780196.159 7        44.600    22793434.160 4  93335230.39544        28.100                                                                                                  
G20  24515338.477 6 128828926.147 6        38.000    24515349.586 2 100386150.45842        17.800                                                                                                  
R13  21115002.000 8 112752855.775 8        51.000    21115002.313 8 112752862.785 8        49.000    21115010.641 7  87696725.759 7        46.100    21115010.484 7  87696731.759 7        44.900  
R04  20292580.086 8 108665823.493 8        52.700    20292578.871 8 108665747.503 8        51.200    20292584.387 8  84517880.299 8        49.100    20292585.051 8  84517886.300 8        48.300  
G13  21636447.500 8 113700368.242 8        49.900    21636452.922 6  88597652.62046        38.100                                                                                                  
R03  19729694.711 8 105614636.283 8        52.000    19729693.969 8 105614579.293 8        50.300    19729699.715 8  82144711.792 8        49.900    19729700.262 8  82144712.788 8        49.500  
G07  20187028.031 8 106083554.968 8        52.400    20187032.750 7  82662522.67247        45.500    20187032.527 8  82662521.673 8        51.700                                                  
G23  23557522.195 7 123795428.718 7        43.400    23557529.023 4  96464120.00944        29.700                                                                                                  
G02  23468775.805 7 123329221.971 7        42.000    23468781.461 4  96100721.26744        27.200                                                                                                  
G16  24564682.352 6 129088442.168 6        37.400    24564689.121 3 100588246.13543        18.600                                                                                                  
R14  19228544.969 8 102498717.388 8        50.500    19228544.578 8 102498916.392 8        49.000    19228553.023 7  79721457.505 7        44.300    19228553.336 7  79721459.501 7        43.700  
J01  41893228.109 6 220150546.846 6        36.800    41893228.754 6 220150524.838 6        41.500    41893239.109 6 171545963.121 6        38.700    41893246.910 7 164398245.663 7        44.100    41893233.352 6 178693675.188 6        40.600  
S29  37468436.859 7 196897881.909 7        43.200  
S27  40001799.781 6 210210798.896 6        36.300  
G08  20632383.352 8 108423997.612 8        52.200    20632388.656 6  84486206.65146        41.300                                                                                                  
C01  37446334.633 7 194992884.857 7        46.400    37446327.988 7 150780840.927 7        47.400    37446322.715 7 158447670.509 7        45.900  
C03  37124191.234 8 193315372.911 8        48.800    37124187.637 8 149483690.183 8        48.500    37124182.129 8 157084556.996 8        48.200  
C04  38606736.992 6 201035382.979 6        41.800    38606733.746 6 155453281.875 6        41.400    38606727.945 7 163357676.684 7        42.600  
C05  39541983.07816 205905428.36516        38.400    39541981.70716 159219115.33216        38.800    39541976.31616 167315004.06216        38.600  
C13  24981486.914 7 130085139.007 7        42.500    24981489.355 7 100590060.310 7        43.400                                                  
C30  21161602.813 6 110194041.285 6        41.000    21161609.883 7  85209043.954 7        42.900    21161597.750 7  89541666.655 7        43.500  
C07  36237190.242 8 188696645.395 8        50.400    36237185.004 8 145912231.766 8        49.900    36237176.914 8 153331458.544 8        50.700  
C10  37005545.930 7 192697599.955 7        47.600    37005544.266 7 149006009.275 7        47.600    37005535.477 7 156582537.551 7        47.500  
C09  36342830.414 8 189246806.019 8        49.900    36342828.750 8 146337712.510 8        50.000    36342819.668 8 153778554.929 8        49.900  
C02  37881143.320 6 197257023.201 6        41.300    37881139.723 7 152531606.005 7        44.300    37881135.094 7 160287452.254 7        43.300  
C06  37049794.680 8 192928124.616 8        48.200    37049791.199 7 149184319.349 7        47.300    37049783.055 7 156769920.852 7        47.400  
S37  37703889.688 7 198135221.800 7        42.300  
S28  37918989.344 7 199265716.535 7        44.000  
> 2012 12 15 00 25 30.0000000  0 34
G28  24861454.258 6 130647825.249 6        37.900    24861464.723 2 101803534.07742        17.400                                                                                                  
R02  23151240.664 7 123539553.646 7        44.800    23151240.156 7 123539367.634 7        43.600    23151251.418 5  96086224.214 5        33.800    23151252.902 5  96086231.214 5        32.800  
R15  22502598.773 7 120247063.726 7        42.600    22502599.906 6 120247038.739 6        41.800    22502610.113 7  93525555.170 7        42.200    22502610.191 6  93525557.182 6        39.900  
G10  20862691.719 8 109634131.058 8        53.200    20862696.848 6  85429229.90046        41.900                                                                                                  
G05  25032265.797 6 131545467.910 6        40.400    25032271.336 3 102502957.98543        20.900    25032271.699 6 102502956.003 6        36.200                                                  
R05  24574557.844 5 131365066.328 5        34.600    24574555.926 5 131365042.348 5        32.300    24574566.836 5 102172884.158 5        35.200    24574568.441 5 102172887.170 5        35.400  
G04  22804136.234 7 119836470.833 7        45.200    22804143.473 4  93379080.73944        28.500                                                                                                  
G20  24534463.055 6 128929440.168 6        36.000    24534476.273 3 100464472.79643        18.600                                                                                                  
R13  21132519.555 8 112846398.143 8        50.700    21132519.398 8 112846405.152 8        48.800    21132527.141 7  87769480.839 7        45.800    21132527.570 7  87769486.831 7        44.600  
R04  20276880.672 8 108581751.032 8        52.800    20276879.340 8 108581675.025 8        51.100    20276884.266 8  84452490.626 8        49.100    20276885.051 8  84452496.628 8        49.000  
G13  21641733.500 8 113728153.722 8        50.600    21641739.977 6  88619303.58746        37.200                                                                                                  
R03  19734837.352 8 105642166.445 8        51.600    19734836.492 8 105642109.461 8        49.800    19734842.238 8  82166124.089 8        49.800    19734842.902 8  82166125.086 8        49.600  
G07  20190598.484 8 106102316.849 8        53.000    20190602.734 7  82677142.30247        45.500    20190602.453 8  82677141.302 8        52.300                                                  
G23  23568862.359 7 123855025.070 7        44.500    23568869.363 4  96510558.63744        28.500                                                                                                  
G02  23470971.125 7 123340753.612 7        42.700    23470976.078 4  96109706.93244        28.100                                                                                                  
G16  24576426.984 6 129150169.834 6        38.200    24576436.512 3 100636345.53243        18.600                                                                                                  
R14  19227263.469 8 102491891.061 8        50.600    19227264.836 8 102492090.059 8        49.200    19227273.516 7  79716148.135 7        44.700    19227273.598 7  79716150.133 7        44.200  
J01  41902095.531 6 220197136.444 6        38.400    41902095.215 6 220197114.444 6        41.800    41902104.773 6 171582266.669 6        39.000    41902112.809 7 164433036.542 7        44.400    41902098.723 6 178731491.387 6        40.600  
S29  37467517.172 7 196893018.947 7        43.000  
S27  40000839.703 6 210205794.194 6        37.600  
G08  20622525.180 8 108372192.356 8        53.300    20622530.719 6  84445838.93946        41.700                                                                                                  
C01  37445305.930 7 194987528.487 7        46.300    37445300.105 7 150776699.033 7        46.400    37445294.656 7 158443318.011 7        46.000  
C03  37123077.695 8 193309572.727 8        48.100    37123073.570 8 149479205.093 8        48.200    37123068.004 8 157079843.862 8        48.300  
C04  38605864.031 6 201030838.775 6        41.900    38605860.902 6 155449768.000 6        41.100    38605854.984 7 163353984.145 7        42.600  
C05  39540897.742 6 205899781.397 6        37.600    39540897.426 6 159214748.741 6        37.700    39540891.684 6 167310415.440 6        39.200  
C13  24997464.477 6 130168341.998 6        41.700    24997467.738 7 100654397.970 7        43.400                                                  
C30  21141377.297 6 110088714.316 6        41.400    21141382.902 7  85127598.673 7        43.100    21141370.887 7  89456080.029 7        43.300  
C07  36238052.789 8 188701138.959 8        50.300    36238047.609 8 145915706.478 8        49.700    36238039.520 8 153335109.939 8        51.000  
C10  37004879.594 8 192694128.771 8        48.000    37004878.457 7 149003325.118 7        46.600    37004869.199 7 156579716.917 7        47.500  
C09  36345239.289 8 189259351.883 8        50.200    36345238.270 8 146347413.747 8        49.800    36345229.129 8 153788749.451 8        50.000  
C02  37880157.445 7 197251890.036 7        42.400    37880153.613 7 152527636.691 7        44.100    37880148.984 7 160283281.119 7        43.500  
C06  37055351.195 7 192957063.190 7        47.500    37055348.828 7 149206696.452 7        46.400    37055340.977 7 156793435.787 7        47.500  
S37  37702967.016 6 198130383.627 6        41.600  
S28  37918071.344 7 199260896.222 7        43.900  
> 2012 12 15 00 26  0.0000000  0 34
G28  24838366.430 6 130526502.880 6        38.100    24838376.543 2 101708997.37642        17.400                                                                                                  
R02  23169907.820 7 123639169.939 7        43.900    23169908.484 7 123638983.955 7        42.900    23169919.629 5  96163703.278 5        33.100    23169921.352 5  96163710.267 5        32.900  
R15  22481752.859 7 120135669.668 7        43.300    22481752.938 7 120135644.666 7        42.300    22481763.262 6  93438915.377 6        41.700    22481763.105 6  93438917.396 6        40.200  
G10  20852067.648 8 109578299.467 8        52.300    20852072.777 7  85385724.77647        42.200                                                                                                  
G05  25011460.531 6 131436149.362 6        38.300    25011468.531 3 102417774.74443        20.600    25011468.719 6 102417772.746 6        37.000                                                  
R05  24551778.289 5 131243294.969 5        34.000    24551776.723 5 131243271.014 5        32.500    24551788.574 5 102078173.045 5        35.900    24551789.004 5 102078176.049 5        34.500  
G04  22814902.664 7 119893047.063 7        44.000    22814909.023 4  93423166.05544        26.800                                                                                                  
G20  24553617.063 6 129030078.984 6        36.600    24553627.586 2 100542892.36642        17.400                                                                                                  
R13  21150093.469 8 112940245.938 8        49.100    21150093.430 7 112940252.941 7        47.900    21150101.406 7  87842473.472 7        45.100    21150101.953 7  87842479.472 7        43.400  
R04  20261248.109 8 108498041.385 8        53.400    20261247.484 8 108497965.393 8        51.400    20261252.059 8  84387383.130 8        49.100    20261253.074 8  84387389.131 8        48.600  
G13  21647044.117 8 113756057.532 8        50.800    21647050.359 6  88641046.77846        37.100                                                                                                  
R03  19740094.414 8 105670307.277 8        52.100    19740094.141 8 105670250.285 8        49.900    19740099.770 8  82188011.365 8        50.000    19740100.316 8  82188012.355 8        50.000  
G07  20194251.195 8 106121514.059 8        53.500    20194255.504 7  82692101.15647        45.800    20194255.164 8  82692100.156 8        51.900                                                  
G23  23580219.156 7 123914699.847 7        44.100    23580225.867 4  96557058.37744        28.900                                                                                                  
G02  23473255.023 7 123352753.721 7        44.300    23473259.156 4  96119057.62144        27.500                                                                                                  
G16  24588254.086 6 129212321.979 6        36.800    24588263.141 2 100684775.72842        17.400                                                                                                  
R14  19226114.219 8 102485760.472 8        50.600    19226113.828 8 102485959.479 8        49.000    19226122.156 7  79711379.882 7        44.700    19226122.703 7  79711381.880 7        44.500  
J01  41910946.000 6 220243650.457 6        38.500    41910945.684 6 220243628.458 6        41.800    41910955.887 6 171618511.302 6        38.800    41910963.746 7 164467770.979 7        44.500    41910949.895 6 178769246.228 6        40.300  
S29  37466572.391 7 196888160.269 7        42.900  
S27  39999890.531 6 210200794.285 6        37.500  
G08  20612764.820 8 108320900.327 8        52.000    20612769.891 6  84405871.15146        41.200                                                                                                  
C01  37444278.906 7 194982179.927 7        46.800    37444272.730 7 150772563.168 7        47.000    37444267.398 7 158438971.854 7        46.200  
C03  37121964.641 8 193303777.784 8        48.100    37121960.750 7 149474724.058 7        47.900    37121955.301 7 157075134.979 7        47.800  
C04  38604992.594 6 201026301.070 6        41.600    38604989.934 6 155446259.155 6        41.400    38604983.957 7 163350296.883 7        42.800  
C05  39539815.117 6 205894140.502 6        37.400    39539814.391 6 159210386.844 6        38.900    39539808.883 6 167305831.756 6        39.200  
C13  25013476.875 7 130251726.216 7        42.200    25013480.195 7 100718875.746 7        42.600                                                  
C30  21121175.438 6 109983519.672 6        41.200    21121180.926 7  85046255.706 7        43.400    21121168.910 7  89370600.939 7        43.500  
C07  36238919.453 8 188705652.999 8        50.600    36238914.801 8 145919197.011 8        50.300    36238906.477 8 153338777.966 8        50.800  
C10  37004221.867 7 192690705.397 7        47.600    37004220.965 7 149000677.939 7        47.300    37004211.766 7 156576935.138 7        47.800  
C09  36347677.555 8 189272048.154 8        50.400    36347676.125 8 146357231.287 8        50.300    36347667.043 8 153799066.199 8        50.300  
C02  37879172.984 6 197246764.794 6        41.700    37879169.621 7 152523673.509 7        44.500    37879165.109 7 160279116.424 7        43.100  
C06  37060932.031 7 192986126.042 7        46.600    37060929.371 7 149229169.652 7        47.100    37060921.813 7 156817051.698 7        47.000  
S37  37702061.969 6 198125551.534 6        41.800  
S28  37917152.359 7 199256080.584 7        43.800  
> 2012 12 15 00 26 30.0000000  0 35
G28  24815259.734 6 130405085.534 6        38.200    24815271.488 2 101614386.69542        15.600                                                                                                  
R02  23188633.523 7 123739091.473 7        43.700    23188633.367 7 123738905.482 7        43.300    23188645.801 5  96241419.764 5        33.600    23188646.820 5  96241426.752 5        33.200  
R15  22460972.836 7 120024632.015 7        43.600    22460973.734 6 120024607.017 6        41.900    22460984.645 7  93352552.832 7        42.100    22460984.254 6  93352554.836 6        40.000  
G10  20841526.531 8 109522906.543 8        53.800    20841531.250 7  85342561.46447        42.100                                                                                                  
G05  24990670.906 6 131326891.258 6        38.900    24990677.207 3 102332638.56443        20.600    24990677.746 6 102332636.552 6        37.500                                                  
R05  24528977.953 6 131121418.606 6        36.200    24528976.270 5 131121394.619 5        34.600    24528988.238 5 101983380.253 5        35.100    24528989.137 5 101983383.257 5        35.000  
G26  26221905.359 5                        34.600                                                                                                                                                  
G04  22825725.813 7 119949923.661 7        43.500    22825732.699 4  93467485.42544        27.200                                                                                                  
G20  24572792.039 6 129130842.004 6        37.500    24572802.621 3 100621408.75743        18.600                                                                                                  
R13  21167724.789 8 113034396.727 8        48.900    21167725.219 7 113034403.722 7        47.000    21167733.664 7  87915701.751 7        44.100    21167733.742 7  87915707.744 7        44.400  
R04  20245684.289 8 108414699.982 8        53.100    20245683.898 8 108414624.006 8        52.000    20245688.707 8  84322562.057 8        48.200    20245689.137 8  84322568.059 8        48.900  
G13  21652377.969 8 113784081.499 8        50.700    21652383.273 6  88662883.59446        37.900                                                                                                  
R03  19745465.367 8 105699060.897 8        51.100    19745466.266 8 105699003.921 8        49.500    19745471.660 8  82210375.242 8        49.800    19745472.328 8  82210376.239 8        49.500  
G07  20197987.727 8 106141146.278 8        53.500    20197991.742 7  82707398.96747        45.500    20197991.578 8  82707397.976 8        51.400                                                  
G23  23591590.914 7 123974454.967 7        44.300    23591596.277 4  96603620.72644        28.500                                                                                                  
G02  23475628.227 7 123365222.489 7        42.500    23475631.832 4  96128773.51844        28.300                                                                                                  
G16  24600162.195 6 129274898.028 6        38.500    24600170.840 3 100733536.20543        19.000                                                                                                  
R14  19225094.063 8 102480326.354 8        50.800    19225095.195 8 102480525.360 8        49.600    19225103.875 7  79707153.331 7        45.200    19225104.309 7  79707155.329 7        44.200  
J01  41919784.938 6 220290090.287 6        39.400    41919784.516 6 220290068.281 6        41.800    41919794.063 6 171654698.110 6        38.400    41919801.746 7 164502449.991 7        44.300    41919787.777 6 178806940.835 6        40.600  
S29  37465650.656 7 196883310.925 7        42.300  
S27  39998934.828 6 210195800.823 6        38.000  
G08  20603101.672 8 108270123.654 8        53.400    20603107.035 6  84366304.92946        41.300                                                                                                  
C01  37443253.563 7 194976840.813 7        46.600    37443247.328 7 150768434.619 7        47.200    37443242.055 7 158434633.380 7        45.900  
C03  37120853.484 8 193297989.857 8        48.300    37120849.359 8 149470248.445 8        48.300    37120843.676 8 157070431.801 8        49.000  
C04  38604122.813 7 201021771.614 7        42.100    38604119.918 6 155442756.677 6        41.700    38604114.059 7 163346616.312 7        42.400  
C05  39538733.391 6 205888507.216 6        36.900    39538732.547 6 159206030.828 6        38.800    39538726.746 6 167301254.246 6        39.000  
C13  25029525.336 6 130335292.057 6        41.900    25029528.773 7 100783494.017 7        43.200                                                  
C30  21100998.031 6 109878450.567 6        41.400    21101004.105 7  84965009.815 7        43.800    21100991.797 7  89285223.846 7        43.400  
C07  36239790.625 8 188710188.583 8        50.400    36239785.855 8 145922704.220 8        50.100    36239777.590 8 153342463.498 8        51.000  
C10  37003573.844 7 192687331.023 7        47.600    37003572.883 7 148998068.636 7        47.600    37003563.859 7 156574193.163 7        47.500  
C09  36350145.109 8 189284896.493 8        50.000    36350143.563 8 146367166.419 8        50.400    36350134.539 8 153809506.512 8        50.100  
C02  37878190.828 6 197241648.995 6        41.100    37878187.348 7 152519717.635 7        43.800    37878182.602 7 160274959.427 7        43.800  
C06  37066537.844 7 193015314.530 7        47.200    37066534.949 7 149251740.001 7        46.900    37066527.273 7 156840769.701 7        47.900  
S37  37701140.344 7 198120728.167 7        42.200  
S28  37916235.359 7 199251271.419 7        43.700  
