     3.01           Observation data    Mixed               RINEX VERSION / TYPE
BNC 2.9             Neumaier            20130618 131454 UTC PGM / RUN BY / DATE
RTCM_3 com1-8-none-1-off-19200/VM01                         COMMENT
Default set of observation types used                       COMMENT
VM01                                                        MARKER NAME
                                                            OBSERVER / AGENCY
                                                            REC # / TYPE / VERS
                                                            ANT # / TYPE
        0.0000        0.0000        0.0000                  APPROX POSITION XYZ
        0.0000        0.0000        0.0000                  ANTENNA: DELTA H/E/N
C   12 C2  L2  D2  S2  C6  L6  D6  S6  C7  L7  D7  S7       SYS / # / OBS TYPES
E   20 C1  L1  D1  S1  C5  L5  D5  S5  C6  L6  D6  S6  C7   SYS / # / OBS TYPES
       L7  D7  S7  C8  L8  D8  S8                           SYS / # / OBS TYPES
G   20 C1C L1C D1C S1C C1P L1P D1P S1P C2C L2C D2C S2C C2P  SYS / # / OBS TYPES
       L2P D2P S2P C5  D5  L5  S5                           SYS / # / OBS TYPES
J   16 C1  L1  D1  S1  C2  L2  D2  S2  C5  L5  D5  S5  C6   SYS / # / OBS TYPES
       D6  L6  S6                                           SYS / # / OBS TYPES
R   16 C1C L1C D1C S1C C1P L1P D1P S1P C2C L2C D2C S2C C2P  SYS / # / OBS TYPES
       L2P D2P S2P                                          SYS / # / OBS TYPES
S    8 C1  L1  D1  S1  C5  L5  D5  S5                       SYS / # / OBS TYPES
  2013     6    18    13    26   43.0000000     GPS         TIME OF FIRST OBS
                                                            END OF HEADER
> 2013 06 18 13 26 43.0000000  0  6
G24  21496374.378   112964204.355           0.000          49.500           0.000           0.000           0.000           0.000           0.000           0.000           0.000           0.000    21496377.018    88024069.782           0.000          46.500           0.000           0.000           0.000           0.000  
G25  20877586.402   109712456.105           0.000          50.250           0.000           0.000           0.000           0.000           0.000           0.000           0.000           0.000    20877588.402    85490233.628           0.000          45.750           0.000           0.000           0.000           0.000  
G02  23564722.824   123833455.816           0.000          43.250           0.000           0.000           0.000           0.000           0.000           0.000           0.000           0.000    23564723.524    96493603.419           0.000          35.250           0.000           0.000           0.000           0.000  
G04  23011400.828   120925721.198           0.000          45.500           0.000           0.000           0.000           0.000           0.000           0.000           0.000           0.000    23011402.448    94227845.121           0.000          39.750           0.000           0.000           0.000           0.000  
G12  20236035.686   106341084.175           0.000          51.000           0.000           0.000           0.000           0.000           0.000           0.000           0.000           0.000    20236034.246    82863176.643           0.000          49.250           0.000           0.000           0.000           0.000  
G14  21964690.534   115425229.638           0.000          47.750           0.000           0.000           0.000           0.000           0.000           0.000           0.000           0.000    21964690.334    89941735.923           0.000          42.000           0.000           0.000           0.000           0.000  
> 2013 06 18 13 26 44.0000000  0  6
G24  21496842.738   112966665.682           0.000          47.750           0.000           0.000           0.000           0.000           0.000           0.000           0.000           0.000    21496845.318    88025987.697           0.000          43.250           0.000           0.000           0.000           0.000  
G25  20877270.082   109710793.840           0.000          50.250           0.000           0.000           0.000           0.000           0.000           0.000           0.000           0.000    20877272.082    85488938.355           0.000          46.000           0.000           0.000           0.000           0.000  
G02  23564280.284   123831129.133           0.000          46.500           0.000           0.000           0.000           0.000           0.000           0.000           0.000           0.000    23564280.464    96491790.450           0.000          41.250           0.000           0.000           0.000           0.000  
G04  23011240.008   120924876.141           0.000          45.500           0.000           0.000           0.000           0.000           0.000           0.000           0.000           0.000    23011241.648    94227186.629           0.000          37.750           0.000           0.000           0.000           0.000  
G12  20236171.386   106341797.225           0.000          51.000           0.000           0.000           0.000           0.000           0.000           0.000           0.000           0.000    20236169.926    82863732.273           0.000          49.250           0.000           0.000           0.000           0.000  
G14  21964599.254   115424750.011           0.000          47.750           0.000           0.000           0.000           0.000           0.000           0.000           0.000           0.000    21964599.074    89941362.196           0.000          41.750           0.000           0.000           0.000           0.000  
> 2013 06 18 13 26 45.0000000  0  6
G24  21497310.618   112969124.437           0.000          49.500           0.000           0.000           0.000           0.000           0.000           0.000           0.000           0.000    21497313.158    88027903.614           0.000          45.750           0.000           0.000           0.000           0.000  
G25  20876953.922   109709132.469           0.000          50.000           0.000           0.000           0.000           0.000           0.000           0.000           0.000           0.000    20876955.922    85487643.783           0.000          46.250           0.000           0.000           0.000           0.000  
G02  23563837.224   123828799.479           0.000          47.000           0.000           0.000           0.000           0.000           0.000           0.000           0.000           0.000    23563837.184    96489975.135           0.000          40.750           0.000           0.000           0.000           0.000  
G04  23011078.888   120924029.515           0.000          45.000           0.000           0.000           0.000           0.000           0.000           0.000           0.000           0.000    23011080.548    94226526.902           0.000          38.500           0.000           0.000           0.000           0.000  
G12  20236307.006   106342509.968           0.000          51.000           0.000           0.000           0.000           0.000           0.000           0.000           0.000           0.000    20236305.566    82864287.657           0.000          49.250           0.000           0.000           0.000           0.000  
G14  21964508.354   115424272.426           0.000          47.750           0.000           0.000           0.000           0.000           0.000           0.000           0.000           0.000    21964508.194    89940990.055           0.000          41.750           0.000           0.000           0.000           0.000  
> 2013 06 18 13 26 46.0000000  0  6
G24  21497778.058   112971580.701           0.000          49.500           0.000           0.000           0.000           0.000           0.000           0.000           0.000           0.000    21497780.558    88029817.588           0.000          46.000           0.000           0.000           0.000           0.000  
G25  20876637.902   109707471.754           0.000          50.000           0.000           0.000           0.000           0.000           0.000           0.000           0.000           0.000    20876639.902    85486349.724           0.000          45.750           0.000           0.000           0.000           0.000  
G02  23563393.324   123826467.013           0.000          40.500           0.000           0.000           0.000           0.000           0.000           0.000           0.000           0.000    23563392.884    96488157.637           0.000          31.500           0.000           0.000           0.000           0.000  
G04  23010917.468   120923181.229           0.000          45.250           0.000           0.000           0.000           0.000           0.000           0.000           0.000           0.000    23010919.128    94225865.894           0.000          38.250           0.000           0.000           0.000           0.000  
G12  20236442.526   106343222.115           0.000          51.000           0.000           0.000           0.000           0.000           0.000           0.000           0.000           0.000    20236441.086    82864842.579           0.000          49.250           0.000           0.000           0.000           0.000  
G14  21964417.814   115423796.630           0.000          47.750           0.000           0.000           0.000           0.000           0.000           0.000           0.000           0.000    21964417.654    89940619.307           0.000          41.750           0.000           0.000           0.000           0.000  
> 2013 06 18 13 26 47.0000000  0  6
G24  21498245.118   112974034.821           0.000          48.250           0.000           0.000           0.000           0.000           0.000           0.000           0.000           0.000    21498247.558    88031729.890           0.000          44.000           0.000           0.000           0.000           0.000  
G25  20876322.062   109705812.046           0.000          50.250           0.000           0.000           0.000           0.000           0.000           0.000           0.000           0.000    20876324.062    85485056.445           0.000          46.000           0.000           0.000           0.000           0.000  
G02  23562948.944   123824131.588           0.000          42.500           0.000           0.000           0.000           0.000           0.000           0.000           0.000           0.000    23562948.364    96486337.836           0.000          34.500           0.000           0.000           0.000           0.000  
G04  23010755.848   120922331.889           0.000          45.500           0.000           0.000           0.000           0.000           0.000           0.000           0.000           0.000    23010757.508    94225204.081           0.000          37.750           0.000           0.000           0.000           0.000  
G12  20236578.026   106343934.191           0.000          51.000           0.000           0.000           0.000           0.000           0.000           0.000           0.000           0.000    20236576.586    82865397.445           0.000          49.250           0.000           0.000           0.000           0.000  
G14  21964327.674   115423323.025           0.000          47.500           0.000           0.000           0.000           0.000           0.000           0.000           0.000           0.000    21964327.534    89940250.264           0.000          42.750           0.000           0.000           0.000           0.000  
> 2013 06 18 13 26 48.0000000  0  6
G24  21498711.758   112976486.808           0.000          48.000           0.000           0.000           0.000           0.000           0.000           0.000           0.000           0.000    21498714.158    88033640.528           0.000          42.500           0.000           0.000           0.000           0.000  
G25  20876006.342   109704152.889           0.000          50.000           0.000           0.000           0.000           0.000           0.000           0.000           0.000           0.000    20876008.342    85483763.602           0.000          45.750           0.000           0.000           0.000           0.000  
G02  23562503.944   123821793.258           0.000          41.000           0.000           0.000           0.000           0.000           0.000           0.000           0.000           0.000    23562503.684    96484515.766           0.000          34.500           0.000           0.000           0.000           0.000  
G04  23010593.868   120921480.684           0.000          45.000           0.000           0.000           0.000           0.000           0.000           0.000           0.000           0.000    23010595.528    94224540.812           0.000          38.250           0.000           0.000           0.000           0.000  
G12  20236713.406   106344645.641           0.000          51.000           0.000           0.000           0.000           0.000           0.000           0.000           0.000           0.000    20236711.966    82865951.820           0.000          49.250           0.000           0.000           0.000           0.000  
G14  21964237.854   115422851.018           0.000          47.750           0.000           0.000           0.000           0.000           0.000           0.000           0.000           0.000    21964237.714    89939882.464           0.000          41.750           0.000           0.000           0.000           0.000  
> 2013 06 18 13 26 49.0000000  0  6
G24  21499177.178   112978932.528           0.000          48.500           0.000           0.000           0.000           0.000           0.000           0.000           0.000           0.000    21499179.558    88035546.286           0.000          44.750           0.000           0.000           0.000           0.000  
G25  20875690.062   109702490.890           0.000          50.250           0.000           0.000           0.000           0.000           0.000           0.000           0.000           0.000    20875692.082    85482468.541           0.000          46.250           0.000           0.000           0.000           0.000  
G02  23562057.764   123819448.393           0.000          44.250           0.000           0.000           0.000           0.000           0.000           0.000           0.000           0.000    23562057.604    96482688.603           0.000          36.250           0.000           0.000           0.000           0.000  
G04  23010430.908   120920624.386           0.000          44.750           0.000           0.000           0.000           0.000           0.000           0.000           0.000           0.000    23010432.588    94223873.585           0.000          38.250           0.000           0.000           0.000           0.000  
G12  20236848.026   106345353.027           0.000          51.000           0.000           0.000           0.000           0.000           0.000           0.000           0.000           0.000    20236846.586    82866503.029           0.000          49.250           0.000           0.000           0.000           0.000  
G14  21964147.694   115422377.237           0.000          47.750           0.000           0.000           0.000           0.000           0.000           0.000           0.000           0.000    21964147.554    89939513.282           0.000          42.500           0.000           0.000           0.000           0.000  
> 2013 06 18 13 26 50.0000000  0  6
G24  21499641.998   112981375.094           0.000          49.750           0.000           0.000           0.000           0.000           0.000           0.000           0.000           0.000    21499644.378    88037449.587           0.000          45.750           0.000           0.000           0.000           0.000  
G25  20875373.722   109700828.414           0.000          50.250           0.000           0.000           0.000           0.000           0.000           0.000           0.000           0.000    20875375.722    85481173.104           0.000          46.250           0.000           0.000           0.000           0.000  
G02  23561610.864   123817099.862           0.000          47.000           0.000           0.000           0.000           0.000           0.000           0.000           0.000           0.000    23561610.784    96480858.583           0.000          40.500           0.000           0.000           0.000           0.000  
G04  23010267.448   120919765.414           0.000          44.750           0.000           0.000           0.000           0.000           0.000           0.000           0.000           0.000    23010269.128    94223204.260           0.000          37.750           0.000           0.000           0.000           0.000  
G12  20236982.326   106346058.828           0.000          51.000           0.000           0.000           0.000           0.000           0.000           0.000           0.000           0.000    20236980.886    82867053.006           0.000          49.000           0.000           0.000           0.000           0.000  
G14  21964057.634   115421903.979           0.000          47.750           0.000           0.000           0.000           0.000           0.000           0.000           0.000           0.000    21964057.494    89939144.510           0.000          41.750           0.000           0.000           0.000           0.000  
> 2013 06 18 13 26 51.0000000  0  6
G24  21500106.598   112983816.439           0.000          49.750           0.000           0.000           0.000           0.000           0.000           0.000           0.000           0.000    21500108.938    88039351.932           0.000          45.750           0.000           0.000           0.000           0.000  
G25  20875057.642   109699167.437           0.000          50.250           0.000           0.000           0.000           0.000           0.000           0.000           0.000           0.000    20875059.642    85479878.838           0.000          46.250           0.000           0.000           0.000           0.000  
G02  23561163.644   123814749.479           0.000          47.000           0.000           0.000           0.000           0.000           0.000           0.000           0.000           0.000    23561163.564    96479027.110           0.000          40.500           0.000           0.000           0.000           0.000  
G04  23010103.908   120918905.992           0.000          44.750           0.000           0.000           0.000           0.000           0.000           0.000           0.000           0.000    23010105.568    94222534.577           0.000          38.500           0.000           0.000           0.000           0.000  
G12  20237116.746   106346765.152           0.000          51.000           0.000           0.000           0.000           0.000           0.000           0.000           0.000           0.000    20237115.286    82867603.389           0.000          49.000           0.000           0.000           0.000           0.000  
G14  21963968.054   115421433.238           0.000          47.750           0.000           0.000           0.000           0.000           0.000           0.000           0.000           0.000    21963967.914    89938777.695           0.000          42.250           0.000           0.000           0.000           0.000  
> 2013 06 18 13 26 52.0000000  0  6
G24  21500571.018   112986257.012           0.000          49.750           0.000           0.000           0.000           0.000           0.000           0.000           0.000           0.000    21500573.378    88041253.681           0.000          46.000           0.000           0.000           0.000           0.000  
G25  20874742.022   109697508.895           0.000          50.250           0.000           0.000           0.000           0.000           0.000           0.000           0.000           0.000    20874744.042    85478586.466           0.000          46.250           0.000           0.000           0.000           0.000  
G02  23560716.224   123812398.082           0.000          46.750           0.000           0.000           0.000           0.000           0.000           0.000           0.000           0.000    23560716.124    96477194.854           0.000          40.250           0.000           0.000           0.000           0.000  
G04  23009940.468   120918047.206           0.000          44.750           0.000           0.000           0.000           0.000           0.000           0.000           0.000           0.000    23009942.148    94221865.396           0.000          38.250           0.000           0.000           0.000           0.000  
G12  20237251.426   106347472.900           0.000          51.000           0.000           0.000           0.000           0.000           0.000           0.000           0.000           0.000    20237249.966    82868154.881           0.000          49.250           0.000           0.000           0.000           0.000  
G14  21963879.194   115420966.199           0.000          47.750           0.000           0.000           0.000           0.000           0.000           0.000           0.000           0.000    21963879.034    89938413.765           0.000          42.750           0.000           0.000           0.000           0.000  
> 2013 06 18 13 26 53.0000000  0  6
G24  21501035.478   112988697.739           0.000          49.750           0.000           0.000           0.000           0.000           0.000           0.000           0.000           0.000    21501037.838    88043155.552           0.000          45.750           0.000           0.000           0.000           0.000  
G25  20874427.062   109695853.767           0.000          50.250           0.000           0.000           0.000           0.000           0.000           0.000           0.000           0.000    20874429.082    85477296.757           0.000          46.000           0.000           0.000           0.000           0.000  
G02  23560268.724   123810046.370           0.000          46.500           0.000           0.000           0.000           0.000           0.000           0.000           0.000           0.000    23560268.604    96475362.357           0.000          39.500           0.000           0.000           0.000           0.000  
G04  23009777.288   120917189.632           0.000          45.000           0.000           0.000           0.000           0.000           0.000           0.000           0.000           0.000    23009778.948    94221197.164           0.000          39.000           0.000           0.000           0.000           0.000  
G12  20237386.546   106348182.995           0.000          51.000           0.000           0.000           0.000           0.000           0.000           0.000           0.000           0.000    20237385.106    82868708.199           0.000          49.250           0.000           0.000           0.000           0.000  
G14  21963791.174   115420503.677           0.000          47.500           0.000           0.000           0.000           0.000           0.000           0.000           0.000           0.000    21963791.014    89938053.360           0.000          41.000           0.000           0.000           0.000           0.000  
> 2013 06 18 13 26 54.0000000  0  6
G24  21501500.178   112991139.707           0.000          49.750           0.000           0.000           0.000           0.000           0.000           0.000           0.000           0.000    21501502.538    88045058.388           0.000          45.750           0.000           0.000           0.000           0.000  
G25  20874112.602   109694201.234           0.000          50.250           0.000           0.000           0.000           0.000           0.000           0.000           0.000           0.000    20874114.602    85476009.067           0.000          46.250           0.000           0.000           0.000           0.000  
G02  23559821.464   123807695.868           0.000          46.750           0.000           0.000           0.000           0.000           0.000           0.000           0.000           0.000    23559821.324    96473530.806           0.000          39.500           0.000           0.000           0.000           0.000  
G04  23009614.508   120916334.246           0.000          45.000           0.000           0.000           0.000           0.000           0.000           0.000           0.000           0.000    23009616.168    94220530.636           0.000          37.250           0.000           0.000           0.000           0.000  
G12  20237522.106   106348895.312           0.000          51.000           0.000           0.000           0.000           0.000           0.000           0.000           0.000           0.000    20237520.646    82869263.254           0.000          49.250           0.000           0.000           0.000           0.000  
G14  21963703.794   115420044.537           0.000          47.500           0.000           0.000           0.000           0.000           0.000           0.000           0.000           0.000    21963703.654    89937695.590           0.000          41.750           0.000           0.000           0.000           0.000  
> 2013 06 18 13 26 55.0000000  0  5
G24  21501965.338   112993584.105           0.000          48.000           0.000           0.000           0.000           0.000           0.000           0.000           0.000           0.000    21501967.678    88046963.114           0.000          44.250           0.000           0.000           0.000           0.000  
G25  20873798.502   109692550.648           0.000          50.250           0.000           0.000           0.000           0.000           0.000           0.000           0.000           0.000    20873800.502    85474722.895           0.000          46.250           0.000           0.000           0.000           0.000  
G02  23559374.704   123805348.037           0.000          46.250           0.000           0.000           0.000           0.000           0.000           0.000           0.000           0.000    23559374.544    96471701.325           0.000          38.500           0.000           0.000           0.000           0.000  
G12  20237658.146   106349610.252           0.000          51.000           0.000           0.000           0.000           0.000           0.000           0.000           0.000           0.000    20237656.706    82869820.349           0.000          49.500           0.000           0.000           0.000           0.000  
G14  21963616.834   115419587.541           0.000          47.250           0.000           0.000           0.000           0.000           0.000           0.000           0.000           0.000    21963616.694    89937339.487           0.000          41.500           0.000           0.000           0.000           0.000  
> 2013 06 18 13 26 56.0000000  0  3
G24  21502431.158   112996031.966           0.000          49.750           0.000           0.000           0.000           0.000           0.000           0.000           0.000           0.000    21502433.498    88048870.539           0.000          46.250           0.000           0.000           0.000           0.000  
G02  23558928.684   123803004.170           0.000          46.250           0.000           0.000           0.000           0.000           0.000           0.000           0.000           0.000    23558928.524    96469874.939           0.000          39.500           0.000           0.000           0.000           0.000  
G04  23009291.308   120914641.846           0.000          44.750           0.000           0.000           0.000           0.000           0.000           0.000           0.000           0.000           0.000           0.000           0.000           0.000           0.000           0.000           0.000           0.000  
> 2013 06 18 13 27  1.0000000  0  6
G24  21504767.078   113008309.193           0.000          49.500           0.000           0.000           0.000           0.000           0.000           0.000           0.000           0.000    21504769.438    88058434.639           0.000          46.250           0.000           0.000           0.000           0.000  
G25  20871927.342   109682716.801           0.000          50.250           0.000           0.000           0.000           0.000           0.000           0.000           0.000           0.000    20871929.402    85467061.952           0.000          46.500           0.000           0.000           0.000           0.000  
G02  23556703.724   123791313.613           0.000          45.750           0.000           0.000           0.000           0.000           0.000           0.000           0.000           0.000    23556704.684    96460763.199           0.000          38.250           0.000           0.000           0.000           0.000  
G04  23008490.988   120910440.154           0.000          44.500           0.000           0.000           0.000           0.000           0.000           0.000           0.000           0.000    23008493.208    94215932.388           0.000          37.000           0.000           0.000           0.000           0.000  
G12  20238486.226   106353962.743           0.000          51.000           0.000           0.000           0.000           0.000           0.000           0.000           0.000           0.000           0.000           0.000           0.000           0.000           0.000           0.000           0.000           0.000  
G14  21963110.294   115416924.838           0.000          47.250           0.000           0.000           0.000           0.000           0.000           0.000           0.000           0.000    21963110.874    89935266.005           0.000          41.500           0.000           0.000           0.000           0.000  
> 2013 06 18 13 27  2.0000000  0  6
G24  21505234.238   113010763.917           0.000          49.500           0.000           0.000           0.000           0.000           0.000           0.000           0.000           0.000    21505236.638    88060347.413           0.000          45.750           0.000           0.000           0.000           0.000  
G25  20871616.542   109681083.186           0.000          50.250           0.000           0.000           0.000           0.000           0.000           0.000           0.000           0.000    20871618.522    85465788.995           0.000          47.000           0.000           0.000           0.000           0.000  
G02  23556258.804   123788975.829           0.000          45.750           0.000           0.000           0.000           0.000           0.000           0.000           0.000           0.000    23556259.504    96458941.558           0.000          38.500           0.000           0.000           0.000           0.000  
G04  23008332.048   120909603.541           0.000          44.500           0.000           0.000           0.000           0.000           0.000           0.000           0.000           0.000    23008334.028    94215280.474           0.000          38.000           0.000           0.000           0.000           0.000  
G12  20238625.066   106354692.649           0.000          51.000           0.000           0.000           0.000           0.000           0.000           0.000           0.000           0.000    20238623.666    82873780.649           0.000          49.250           0.000           0.000           0.000           0.000  
G14  21963027.534   115416489.377           0.000          47.250           0.000           0.000           0.000           0.000           0.000           0.000           0.000           0.000    21963027.954    89934926.689           0.000          42.250           0.000           0.000           0.000           0.000  
> 2013 06 18 13 27  3.0000000  0  6
G24  21505701.358   113013218.723           0.000          49.500           0.000           0.000           0.000           0.000           0.000           0.000           0.000           0.000    21505703.798    88062260.251           0.000          46.250           0.000           0.000           0.000           0.000  
G25  20871305.702   109679449.635           0.000          50.250           0.000           0.000           0.000           0.000           0.000           0.000           0.000           0.000    20871307.642    85464516.098           0.000          46.500           0.000           0.000           0.000           0.000  
G02  23555814.204   123786639.041           0.000          46.250           0.000           0.000           0.000           0.000           0.000           0.000           0.000           0.000    23555814.564    96457120.684           0.000          38.750           0.000           0.000           0.000           0.000  
G04  23008173.428   120908769.462           0.000          44.250           0.000           0.000           0.000           0.000           0.000           0.000           0.000           0.000    23008175.148    94214630.549           0.000          38.000           0.000           0.000           0.000           0.000  
G12  20238764.226   106355423.748           0.000          51.000           0.000           0.000           0.000           0.000           0.000           0.000           0.000           0.000    20238762.886    82874350.348           0.000          49.500           0.000           0.000           0.000           0.000  
G14  21962944.874   115416054.573           0.000          48.000           0.000           0.000           0.000           0.000           0.000           0.000           0.000           0.000    21962945.314    89934587.884           0.000          42.500           0.000           0.000           0.000           0.000  
> 2013 06 18 13 27  4.0000000  0  6
G24  21506168.358   113015672.969           0.000          49.750           0.000           0.000           0.000           0.000           0.000           0.000           0.000           0.000    21506170.858    88064172.648           0.000          46.000           0.000           0.000           0.000           0.000  
G25  20870994.762   109677815.771           0.000          50.250           0.000           0.000           0.000           0.000           0.000           0.000           0.000           0.000    20870996.722    85463242.961           0.000          46.750           0.000           0.000           0.000           0.000  
G02  23555369.724   123784302.679           0.000          45.750           0.000           0.000           0.000           0.000           0.000           0.000           0.000           0.000    23555369.764    96455300.152           0.000          38.500           0.000           0.000           0.000           0.000  
G04  23008015.208   120907937.569           0.000          44.250           0.000           0.000           0.000           0.000           0.000           0.000           0.000           0.000    23008016.788    94213982.320           0.000          39.750           0.000           0.000           0.000           0.000  
G12  20238903.506   106356155.585           0.000          51.000           0.000           0.000           0.000           0.000           0.000           0.000           0.000           0.000    20238902.206    82874920.613           0.000          49.250           0.000           0.000           0.000           0.000  
G14  21962862.294   115415620.144           0.000          47.750           0.000           0.000           0.000           0.000           0.000           0.000           0.000           0.000    21962862.554    89934249.371           0.000          42.000           0.000           0.000           0.000           0.000  
> 2013 06 18 13 27  5.0000000  0  6
G24  21506635.438   113018127.538           0.000          49.500           0.000           0.000           0.000           0.000           0.000           0.000           0.000           0.000    21506637.958    88066085.296           0.000          46.250           0.000           0.000           0.000           0.000  
G25  20870683.862   109676182.041           0.000          50.250           0.000           0.000           0.000           0.000           0.000           0.000           0.000           0.000    20870685.842    85461969.925           0.000          46.500           0.000           0.000           0.000           0.000  
G02  23554925.384   123781967.146           0.000          46.500           0.000           0.000           0.000           0.000           0.000           0.000           0.000           0.000    23554925.244    96453480.273           0.000          39.250           0.000           0.000           0.000           0.000  
G04  23007857.208   120907107.310           0.000          44.250           0.000           0.000           0.000           0.000           0.000           0.000           0.000           0.000    23007858.808    94213335.365           0.000          38.250           0.000           0.000           0.000           0.000  
G12  20239042.946   106356888.113           0.000          51.000           0.000           0.000           0.000           0.000           0.000           0.000           0.000           0.000    20239041.626    82875491.414           0.000          49.250           0.000           0.000           0.000           0.000  
G14  21962779.834   115415186.328           0.000          48.000           0.000           0.000           0.000           0.000           0.000           0.000           0.000           0.000    21962779.934    89933911.330           0.000          42.750           0.000           0.000           0.000           0.000  
> 2013 06 18 13 27  6.0000000  0  6
G24  21507102.558   113020582.409           0.000          49.500           0.000           0.000           0.000           0.000           0.000           0.000           0.000           0.000    21507105.098    88067998.182           0.000          46.500           0.000           0.000           0.000           0.000  
G25  20870372.982   109674548.331           0.000          50.250           0.000           0.000           0.000           0.000           0.000           0.000           0.000           0.000    20870374.982    85460696.905           0.000          46.750           0.000           0.000           0.000           0.000  
G02  23554481.064   123779632.145           0.000          45.500           0.000           0.000           0.000           0.000           0.000           0.000           0.000           0.000    23554480.864    96451660.791           0.000          38.000           0.000           0.000           0.000           0.000  
G04  23007699.468   120906278.187           0.000          44.250           0.000           0.000           0.000           0.000           0.000           0.000           0.000           0.000    23007701.108    94212689.293           0.000          39.000           0.000           0.000           0.000           0.000  
G12  20239182.426   106357621.049           0.000          51.000           0.000           0.000           0.000           0.000           0.000           0.000           0.000           0.000    20239181.086    82876062.531           0.000          49.250           0.000           0.000           0.000           0.000  
G14  21962697.374   115414752.863           0.000          47.750           0.000           0.000           0.000           0.000           0.000           0.000           0.000           0.000    21962697.414    89933573.566           0.000          42.000           0.000           0.000           0.000           0.000  
> 2013 06 18 13 27  7.0000000  0  6
G24  21507569.798   113023037.925           0.000          49.500           0.000           0.000           0.000           0.000           0.000           0.000           0.000           0.000    21507572.378    88069911.569           0.000          46.250           0.000           0.000           0.000           0.000  
G25  20870062.162   109672915.017           0.000          50.250           0.000           0.000           0.000           0.000           0.000           0.000           0.000           0.000    20870064.162    85459424.190           0.000          46.500           0.000           0.000           0.000           0.000  
G02  23554036.904   123777297.948           0.000          46.250           0.000           0.000           0.000           0.000           0.000           0.000           0.000           0.000    23554036.604    96449841.948           0.000          38.750           0.000           0.000           0.000           0.000  
G04  23007541.908   120905450.048           0.000          44.500           0.000           0.000           0.000           0.000           0.000           0.000           0.000           0.000    23007543.548    94212043.986           0.000          38.000           0.000           0.000           0.000           0.000  
G12  20239321.986   106358354.465           0.000          51.000           0.000           0.000           0.000           0.000           0.000           0.000           0.000           0.000    20239320.666    82876634.024           0.000          49.250           0.000           0.000           0.000           0.000  
G14  21962615.034   115414320.096           0.000          48.000           0.000           0.000           0.000           0.000           0.000           0.000           0.000           0.000    21962615.034    89933236.344           0.000          42.500           0.000           0.000           0.000           0.000  
> 2013 06 18 13 27  8.0000000  0  6
G24  21508036.378   113025489.906           0.000          49.500           0.000           0.000           0.000           0.000           0.000           0.000           0.000           0.000    21508038.958    88071822.197           0.000          46.250           0.000           0.000           0.000           0.000  
G25  20869750.642   109671278.010           0.000          50.250           0.000           0.000           0.000           0.000           0.000           0.000           0.000           0.000    20869752.662    85458148.598           0.000          46.500           0.000           0.000           0.000           0.000  
G02  23553592.024   123774960.132           0.000          46.250           0.000           0.000           0.000           0.000           0.000           0.000           0.000           0.000    23553591.704    96448020.276           0.000          39.250           0.000           0.000           0.000           0.000  
G04  23007383.728   120904618.586           0.000          44.500           0.000           0.000           0.000           0.000           0.000           0.000           0.000           0.000    23007385.308    94211396.100           0.000          38.500           0.000           0.000           0.000           0.000  
G12  20239460.846   106359084.130           0.000          51.000           0.000           0.000           0.000           0.000           0.000           0.000           0.000           0.000    20239459.526    82877202.592           0.000          49.250           0.000           0.000           0.000           0.000  
G14  21962532.054   115413883.991           0.000          48.000           0.000           0.000           0.000           0.000           0.000           0.000           0.000           0.000    21962532.034    89932896.524           0.000          42.500           0.000           0.000           0.000           0.000  
> 2013 06 18 13 27  9.0000000  0  6
G24  21508500.898   113027930.996           0.000          49.500           0.000           0.000           0.000           0.000           0.000           0.000           0.000           0.000    21508503.458    88073724.343           0.000          46.250           0.000           0.000           0.000           0.000  
G25  20869437.062   109669630.102           0.000          50.250           0.000           0.000           0.000           0.000           0.000           0.000           0.000           0.000    20869439.082    85456864.518           0.000          46.750           0.000           0.000           0.000           0.000  
G02  23553145.104   123772611.573           0.000          46.750           0.000           0.000           0.000           0.000           0.000           0.000           0.000           0.000    23553144.784    96446190.236           0.000          39.750           0.000           0.000           0.000           0.000  
G04  23007223.568   120903776.842           0.000          44.750           0.000           0.000           0.000           0.000           0.000           0.000           0.000           0.000    23007225.108    94210740.199           0.000          38.500           0.000           0.000           0.000           0.000  
G12  20239597.646   106359803.061           0.000          51.000           0.000           0.000           0.000           0.000           0.000           0.000           0.000           0.000    20239596.326    82877762.800           0.000          49.250           0.000           0.000           0.000           0.000  
G14  21962447.094   115413437.386           0.000          48.000           0.000           0.000           0.000           0.000           0.000           0.000           0.000           0.000    21962447.034    89932548.518           0.000          42.500           0.000           0.000           0.000           0.000  
> 2013 06 18 13 27 10.0000000  0  6
G24  21508964.098   113030365.141           0.000          49.500           0.000           0.000           0.000           0.000           0.000           0.000           0.000           0.000    21508966.658    88075621.080           0.000          46.500           0.000           0.000           0.000           0.000  
G25  20869122.162   109667975.281           0.000          50.250           0.000           0.000           0.000           0.000           0.000           0.000           0.000           0.000    20869124.182    85455575.047           0.000          46.750           0.000           0.000           0.000           0.000  
G02  23552696.924   123770256.358           0.000          46.750           0.000           0.000           0.000           0.000           0.000           0.000           0.000           0.000    23552696.644    96444355.014           0.000          39.000           0.000           0.000           0.000           0.000  
G04  23007062.228   120902929.026           0.000          44.000           0.000           0.000           0.000           0.000           0.000           0.000           0.000           0.000    23007063.748    94210079.564           0.000          38.250           0.000           0.000           0.000           0.000  
G12  20239733.206   106360515.328           0.000          51.000           0.000           0.000           0.000           0.000           0.000           0.000           0.000           0.000    20239731.866    82878317.813           0.000          49.250           0.000           0.000           0.000           0.000  
G14  21962360.894   115412984.334           0.000          48.000           0.000           0.000           0.000           0.000           0.000           0.000           0.000           0.000    21962360.834    89932195.493           0.000          42.750           0.000           0.000           0.000           0.000  
> 2013 06 18 13 27 11.0000000  0  3
G25  20868806.742   109666317.779           0.000          50.250           0.000           0.000           0.000           0.000           0.000           0.000           0.000           0.000    20868808.782    85454283.489           0.000          46.750           0.000           0.000           0.000           0.000  
G12  20239868.306   106361225.254           0.000          50.750           0.000           0.000           0.000           0.000           0.000           0.000           0.000           0.000    20239866.946    82878871.005           0.000          48.750           0.000           0.000           0.000           0.000  
G14  21962274.254   115412529.024           0.000          48.250           0.000           0.000           0.000           0.000           0.000           0.000           0.000           0.000    21962274.194    89931840.710           0.000          42.750           0.000           0.000           0.000           0.000  
> 2013 06 18 13 27 12.0000000  0  1
G12  20240003.366   106361935.005           0.000          51.000           0.000           0.000           0.000           0.000           0.000           0.000           0.000           0.000    20240002.026    82879424.057           0.000          49.250           0.000           0.000           0.000           0.000  
> 2013 06 18 13 27 13.0000000  0  6
G24  21510352.098   113037662.696           0.000          49.500           0.000           0.000           0.000           0.000           0.000           0.000           0.000           0.000    21510354.838    88081306.381           0.000          46.250           0.000           0.000           0.000           0.000  
G25  20868176.082   109663005.079           0.000          50.000           0.000           0.000           0.000           0.000           0.000           0.000           0.000           0.000    20868178.122    85451700.612           0.000          46.750           0.000           0.000           0.000           0.000  
G02  23551351.324   123763184.917           0.000          46.250           0.000           0.000           0.000           0.000           0.000           0.000           0.000           0.000    23551351.044    96438845.203           0.000          40.250           0.000           0.000           0.000           0.000  
G04  23006577.688   120900380.547           0.000          44.250           0.000           0.000           0.000           0.000           0.000           0.000           0.000           0.000    23006579.168    94208095.310           0.000          38.500           0.000           0.000           0.000           0.000  
G12  20240138.686   106362646.098           0.000          51.000           0.000           0.000           0.000           0.000           0.000           0.000           0.000           0.000    20240137.326    82879978.158           0.000          49.250           0.000           0.000           0.000           0.000  
G14  21962101.594   115411622.047           0.000          48.250           0.000           0.000           0.000           0.000           0.000           0.000           0.000           0.000    21962101.374    89931133.420           0.000          42.500           0.000           0.000           0.000           0.000  
> 2013 06 18 13 27 14.0000000  0  6
G24  21510815.298   113040096.942           0.000          49.500           0.000           0.000           0.000           0.000           0.000           0.000           0.000           0.000    21510818.038    88083203.187           0.000          46.250           0.000           0.000           0.000           0.000  
G25  20867861.342   109661351.219           0.000          50.250           0.000           0.000           0.000           0.000           0.000           0.000           0.000           0.000    20867863.402    85450411.891           0.000          47.000           0.000           0.000           0.000           0.000  
G02  23550903.544   123760830.577           0.000          46.500           0.000           0.000           0.000           0.000           0.000           0.000           0.000           0.000    23550903.064    96437010.694           0.000          39.500           0.000           0.000           0.000           0.000  
G04  23006417.128   120899536.804           0.000          44.250           0.000           0.000           0.000           0.000           0.000           0.000           0.000           0.000    23006418.608    94207437.838           0.000          39.250           0.000           0.000           0.000           0.000  
G12  20240274.646   106363360.459           0.000          51.000           0.000           0.000           0.000           0.000           0.000           0.000           0.000           0.000    20240273.266    82880534.803           0.000          49.250           0.000           0.000           0.000           0.000  
G14  21962015.914   115411171.762           0.000          48.000           0.000           0.000           0.000           0.000           0.000           0.000           0.000           0.000    21962015.674    89930782.556           0.000          42.250           0.000           0.000           0.000           0.000  
> 2013 06 18 13 27 15.0000000  0  6
G24  21511278.998   113042533.733           0.000          49.500           0.000           0.000           0.000           0.000           0.000           0.000           0.000           0.000    21511281.718    88085101.978           0.000          46.000           0.000           0.000           0.000           0.000  
G25  20867547.142   109659700.163           0.000          50.250           0.000           0.000           0.000           0.000           0.000           0.000           0.000           0.000    20867549.222    85449125.349           0.000          46.750           0.000           0.000           0.000           0.000  
G02  23550456.084   123758478.980           0.000          47.000           0.000           0.000           0.000           0.000           0.000           0.000           0.000           0.000    23550455.444    96435178.276           0.000          39.750           0.000           0.000           0.000           0.000  
G04  23006257.208   120898696.524           0.000          44.250           0.000           0.000           0.000           0.000           0.000           0.000           0.000           0.000    23006258.708    94206783.068           0.000          38.500           0.000           0.000           0.000           0.000  
G12  20240411.166   106364077.848           0.000          51.000           0.000           0.000           0.000           0.000           0.000           0.000           0.000           0.000    20240409.786    82881093.805           0.000          49.500           0.000           0.000           0.000           0.000  
G14  21961930.854   115410724.742           0.000          48.250           0.000           0.000           0.000           0.000           0.000           0.000           0.000           0.000    21961930.594    89930434.223           0.000          42.750           0.000           0.000           0.000           0.000  
> 2013 06 18 13 27 16.0000000  0  6
G24  21511743.098   113044972.645           0.000          49.500           0.000           0.000           0.000           0.000           0.000           0.000           0.000           0.000    21511745.818    88087002.429           0.000          46.250           0.000           0.000           0.000           0.000  
G25  20867233.382   109658051.409           0.000          50.250           0.000           0.000           0.000           0.000           0.000           0.000           0.000           0.000    20867235.482    85447840.612           0.000          46.750           0.000           0.000           0.000           0.000  
G02  23550009.044   123756129.687           0.000          46.250           0.000           0.000           0.000           0.000           0.000           0.000           0.000           0.000    23550008.404    96433347.657           0.000          40.750           0.000           0.000           0.000           0.000  
G04  23006097.888   120897859.302           0.000          44.250           0.000           0.000           0.000           0.000           0.000           0.000           0.000           0.000    23006099.408    94206130.687           0.000          40.250           0.000           0.000           0.000           0.000  
G12  20240548.166   106364797.754           0.000          51.000           0.000           0.000           0.000           0.000           0.000           0.000           0.000           0.000    20240546.766    82881654.771           0.000          49.250           0.000           0.000           0.000           0.000  
G14  21961846.314   115410280.463           0.000          48.000           0.000           0.000           0.000           0.000           0.000           0.000           0.000           0.000    21961846.054    89930088.028           0.000          42.750           0.000           0.000           0.000           0.000  
> 2013 06 18 13 27 17.0000000  0  6
G24  21512207.598   113047413.654           0.000          49.250           0.000           0.000           0.000           0.000           0.000           0.000           0.000           0.000    21512210.318    88088904.509           0.000          46.500           0.000           0.000           0.000           0.000  
G25  20866920.082   109656405.011           0.000          50.000           0.000           0.000           0.000           0.000           0.000           0.000           0.000           0.000    20866922.162    85446557.709           0.000          46.750           0.000           0.000           0.000           0.000  
G02  23549562.384   123753782.620           0.000          46.500           0.000           0.000           0.000           0.000           0.000           0.000           0.000           0.000    23549561.824    96431518.780           0.000          40.250           0.000           0.000           0.000           0.000  
G04  23005939.108   120897024.978           0.000          44.500           0.000           0.000           0.000           0.000           0.000           0.000           0.000           0.000    23005940.648    94205480.571           0.000          39.250           0.000           0.000           0.000           0.000  
G12  20240685.646   106365520.242           0.000          51.000           0.000           0.000           0.000           0.000           0.000           0.000           0.000           0.000    20240684.266    82882217.751           0.000          49.250           0.000           0.000           0.000           0.000  
G14  21961762.294   115409839.001           0.000          48.000           0.000           0.000           0.000           0.000           0.000           0.000           0.000           0.000    21961762.014    89929744.031           0.000          43.000           0.000           0.000           0.000           0.000  
> 2013 06 18 13 27 18.0000000  0  6
G24  21512672.438   113049856.457           0.000          49.250           0.000           0.000           0.000           0.000           0.000           0.000           0.000           0.000    21512675.158    88090807.990           0.000          46.250           0.000           0.000           0.000           0.000  
G25  20866607.122   109654760.488           0.000          50.250           0.000           0.000           0.000           0.000           0.000           0.000           0.000           0.000    20866609.222    85445276.260           0.000          47.000           0.000           0.000           0.000           0.000  
G02  23549116.084   123751437.471           0.000          46.750           0.000           0.000           0.000           0.000           0.000           0.000           0.000           0.000    23549115.544    96429691.385           0.000          40.750           0.000           0.000           0.000           0.000  
G04  23005780.788   120896193.067           0.000          44.500           0.000           0.000           0.000           0.000           0.000           0.000           0.000           0.000    23005782.328    94204832.324           0.000          39.250           0.000           0.000           0.000           0.000  
G12  20240823.526   106366244.709           0.000          51.000           0.000           0.000           0.000           0.000           0.000           0.000           0.000           0.000    20240822.126    82882782.270           0.000          49.250           0.000           0.000           0.000           0.000  
G14  21961678.714   115409399.801           0.000          48.000           0.000           0.000           0.000           0.000           0.000           0.000           0.000           0.000    21961678.434    89929401.797           0.000          42.500           0.000           0.000           0.000           0.000  
> 2013 06 18 13 27 19.0000000  0  7
G24  21513137.578   113052300.792           0.000          49.250           0.000           0.000           0.000           0.000           0.000           0.000           0.000           0.000    21513140.298    88092712.663           0.000          46.250           0.000           0.000           0.000           0.000  
G25  20866294.482   109653117.537           0.000          50.250           0.000           0.000           0.000           0.000           0.000           0.000           0.000           0.000    20866296.562    85443996.039           0.000          47.000           0.000           0.000           0.000           0.000  
G02  23548670.064   123749093.799           0.000          46.250           0.000           0.000           0.000           0.000           0.000           0.000           0.000           0.000    23548669.544    96427865.144           0.000          40.250           0.000           0.000           0.000           0.000  
G29  23667620.624   124374185.718           0.000          45.000           0.000           0.000           0.000           0.000           0.000           0.000           0.000           0.000    23667622.764    96914958.576           0.000          37.250           0.000           0.000           0.000           0.000  
G04  23005622.808   120895363.057           0.000          45.000           0.000           0.000           0.000           0.000           0.000           0.000           0.000           0.000    23005624.408    94204185.562           0.000          38.500           0.000           0.000           0.000           0.000  
G12  20240961.686   106366970.761           0.000          51.000           0.000           0.000           0.000           0.000           0.000           0.000           0.000           0.000    20240960.286    82883348.023           0.000          49.500           0.000           0.000           0.000           0.000  
G14  21961595.494   115408962.519           0.000          48.250           0.000           0.000           0.000           0.000           0.000           0.000           0.000           0.000    21961595.214    89929061.058           0.000          43.000           0.000           0.000           0.000           0.000  
> 2013 06 18 13 27 20.0000000  0  7
G24  21513602.998   113054746.598           0.000          49.500           0.000           0.000           0.000           0.000           0.000           0.000           0.000           0.000    21513605.698    88094618.488           0.000          46.500           0.000           0.000           0.000           0.000  
G25  20865982.122   109651476.159           0.000          50.250           0.000           0.000           0.000           0.000           0.000           0.000           0.000           0.000    20865984.202    85442717.044           0.000          46.500           0.000           0.000           0.000           0.000  
G02  23548224.324   123746751.522           0.000          46.500           0.000           0.000           0.000           0.000           0.000           0.000           0.000           0.000    23548223.844    96426040.000           0.000          40.750           0.000           0.000           0.000           0.000  
G29  23666914.784   124370474.843           0.000          45.250           0.000           0.000           0.000           0.000           0.000           0.000           0.000           0.000    23666916.924    96912066.939           0.000          38.250           0.000           0.000           0.000           0.000  
G04  23005465.168   120894534.738           0.000          44.000           0.000           0.000           0.000           0.000           0.000           0.000           0.000           0.000    23005466.788    94203540.114           0.000          39.750           0.000           0.000           0.000           0.000  
G12  20241100.146   106367698.344           0.000          51.000           0.000           0.000           0.000           0.000           0.000           0.000           0.000           0.000    20241098.746    82883914.973           0.000          49.500           0.000           0.000           0.000           0.000  
G14  21961512.634   115408527.176           0.000          48.250           0.000           0.000           0.000           0.000           0.000           0.000           0.000           0.000    21961512.354    89928721.832           0.000          42.500           0.000           0.000           0.000           0.000  
> 2013 06 18 13 27 21.0000000  0  7
G24  21514068.698   113057193.924           0.000          49.500           0.000           0.000           0.000           0.000           0.000           0.000           0.000           0.000    21514071.398    88096525.493           0.000          46.750           0.000           0.000           0.000           0.000  
G25  20865670.122   109649836.572           0.000          50.250           0.000           0.000           0.000           0.000           0.000           0.000           0.000           0.000    20865672.202    85441439.446           0.000          46.500           0.000           0.000           0.000           0.000  
G02  23547778.864   123744410.722           0.000          46.250           0.000           0.000           0.000           0.000           0.000           0.000           0.000           0.000    23547778.444    96424216.006           0.000          41.000           0.000           0.000           0.000           0.000  
G29  23666209.004   124366765.389           0.000          45.750           0.000           0.000           0.000           0.000           0.000           0.000           0.000           0.000    23666211.084    96909176.449           0.000          38.250           0.000           0.000           0.000           0.000  
G04  23005307.908   120893708.391           0.000          44.750           0.000           0.000           0.000           0.000           0.000           0.000           0.000           0.000    23005309.548    94202896.218           0.000          39.000           0.000           0.000           0.000           0.000  
G12  20241238.926   106368427.675           0.000          51.000           0.000           0.000           0.000           0.000           0.000           0.000           0.000           0.000    20241237.526    82884483.280           0.000          49.250           0.000           0.000           0.000           0.000  
G14  21961430.194   115408094.019           0.000          48.000           0.000           0.000           0.000           0.000           0.000           0.000           0.000           0.000    21961429.914    89928384.309           0.000          42.500           0.000           0.000           0.000           0.000  
> 2013 06 18 13 27 22.0000000  0  7
G24  21514534.518   113059641.732           0.000          49.500           0.000           0.000           0.000           0.000           0.000           0.000           0.000           0.000    21514537.198    88098432.874           0.000          46.250           0.000           0.000           0.000           0.000  
G25  20865358.242   109648197.700           0.000          50.250           0.000           0.000           0.000           0.000           0.000           0.000           0.000           0.000    20865360.322    85440162.403           0.000          46.750           0.000           0.000           0.000           0.000  
G02  23547333.484   123742070.321           0.000          46.500           0.000           0.000           0.000           0.000           0.000           0.000           0.000           0.000    23547333.104    96422392.321           0.000          41.000           0.000           0.000           0.000           0.000  
G29  23665503.164   124363056.036           0.000          46.750           0.000           0.000           0.000           0.000           0.000           0.000           0.000           0.000    23665505.424    96906286.042           0.000          36.750           0.000           0.000           0.000           0.000  
G04  23005150.828   120892883.017           0.000          44.500           0.000           0.000           0.000           0.000           0.000           0.000           0.000           0.000    23005152.508    94202253.071           0.000          39.500           0.000           0.000           0.000           0.000  
G12  20241377.866   106369157.754           0.000          51.000           0.000           0.000           0.000           0.000           0.000           0.000           0.000           0.000    20241376.446    82885052.176           0.000          49.500           0.000           0.000           0.000           0.000  
G14  21961347.974   115407661.960           0.000          48.250           0.000           0.000           0.000           0.000           0.000           0.000           0.000           0.000    21961347.674    89928047.638           0.000          42.750           0.000           0.000           0.000           0.000  
> 2013 06 18 13 27 25.0000000  0  7
G24  21515932.258   113066985.925           0.000          49.500           0.000           0.000           0.000           0.000           0.000           0.000           0.000           0.000    21515934.978    88104156.637           0.000          46.250           0.000           0.000           0.000           0.000  
G25  20864422.662   109643280.329           0.000          50.000           0.000           0.000           0.000           0.000           0.000           0.000           0.000           0.000    20864424.982    85436332.234           0.000          46.750           0.000           0.000           0.000           0.000  
G02  23545997.804   123735053.408           0.000          46.750           0.000           0.000           0.000           0.000           0.000           0.000           0.000           0.000    23545997.184    96416922.281           0.000          41.000           0.000           0.000           0.000           0.000  
G29  23663385.584   124351929.972           0.000          45.750           0.000           0.000           0.000           0.000           0.000           0.000           0.000           0.000    23663387.604    96897614.056           0.000          40.000           0.000           0.000           0.000           0.000  
G04  23004680.268   120890409.614           0.000          45.000           0.000           0.000           0.000           0.000           0.000           0.000           0.000           0.000    23004682.068    94200326.509           0.000          39.250           0.000           0.000           0.000           0.000  
G12  20241794.986   106371349.677           0.000          51.000           0.000           0.000           0.000           0.000           0.000           0.000           0.000           0.000    20241793.546    82886760.169           0.000          49.250           0.000           0.000           0.000           0.000  
G14  21961101.934   115406369.321           0.000          48.250           0.000           0.000           0.000           0.000           0.000           0.000           0.000           0.000    21961101.614    89927039.390           0.000          41.750           0.000           0.000           0.000           0.000  
> 2013 06 18 13 27 26.0000000  0  7
G24  21516398.178   113069434.425           0.000          49.500           0.000           0.000           0.000           0.000           0.000           0.000           0.000           0.000    21516400.898    88106064.549           0.000          46.500           0.000           0.000           0.000           0.000  
G25  20864110.942   109641642.053           0.000          50.000           0.000           0.000           0.000           0.000           0.000           0.000           0.000           0.000    20864113.082    85435055.665           0.000          46.500           0.000           0.000           0.000           0.000  
G02  23545552.564   123732713.825           0.000          47.250           0.000           0.000           0.000           0.000           0.000           0.000           0.000           0.000    23545551.964    96415099.212           0.000          41.500           0.000           0.000           0.000           0.000  
G29  23662679.564   124348220.233           0.000          45.750           0.000           0.000           0.000           0.000           0.000           0.000           0.000           0.000    23662681.764    96894723.340           0.000          37.500           0.000           0.000           0.000           0.000  
G04  23004523.628   120889586.439           0.000          44.500           0.000           0.000           0.000           0.000           0.000           0.000           0.000           0.000    23004525.428    94199685.084           0.000          38.500           0.000           0.000           0.000           0.000  
G12  20241934.046   106372080.650           0.000          51.000           0.000           0.000           0.000           0.000           0.000           0.000           0.000           0.000    20241932.606    82887329.752           0.000          49.500           0.000           0.000           0.000           0.000  
G14  21961020.074   115405939.210           0.000          48.250           0.000           0.000           0.000           0.000           0.000           0.000           0.000           0.000    21961019.754    89926704.242           0.000          42.250           0.000           0.000           0.000           0.000  
> 2013 06 18 13 27 27.0000000  0  7
G24  21516863.978   113071882.357           0.000          49.500           0.000           0.000           0.000           0.000           0.000           0.000           0.000           0.000    21516866.718    88107972.022           0.000          46.500           0.000           0.000           0.000           0.000  
G25  20863799.082   109640003.071           0.000          50.000           0.000           0.000           0.000           0.000           0.000           0.000           0.000           0.000    20863801.122    85433778.536           0.000          46.750           0.000           0.000           0.000           0.000  
G02  23545107.184   123730373.615           0.000          46.750           0.000           0.000           0.000           0.000           0.000           0.000           0.000           0.000    23545106.624    96413275.671           0.000          42.000           0.000           0.000           0.000           0.000  
G29  23661973.424   124344509.686           0.000          46.250           0.000           0.000           0.000           0.000           0.000           0.000           0.000           0.000    23661975.684    96891832.017           0.000          39.250           0.000           0.000           0.000           0.000  
G04  23004366.908   120888762.862           0.000          44.250           0.000           0.000           0.000           0.000           0.000           0.000           0.000           0.000    23004368.708    94199043.340           0.000          39.000           0.000           0.000           0.000           0.000  
G12  20242073.046   106372810.973           0.000          51.000           0.000           0.000           0.000           0.000           0.000           0.000           0.000           0.000    20242071.586    82887898.842           0.000          49.250           0.000           0.000           0.000           0.000  
G14  21960938.114   115405508.657           0.000          48.250           0.000           0.000           0.000           0.000           0.000           0.000           0.000           0.000    21960937.814    89926368.742           0.000          42.000           0.000           0.000           0.000           0.000  
> 2013 06 18 13 27 28.0000000  0  7
G24  21517329.738   113074329.930           0.000          49.500           0.000           0.000           0.000           0.000           0.000           0.000           0.000           0.000    21517332.458    88109879.219           0.000          46.000           0.000           0.000           0.000           0.000  
G25  20863487.102   109638363.545           0.000          50.000           0.000           0.000           0.000           0.000           0.000           0.000           0.000           0.000    20863489.162    85432500.985           0.000          47.000           0.000           0.000           0.000           0.000  
G02  23544661.764   123728033.044           0.000          46.500           0.000           0.000           0.000           0.000           0.000           0.000           0.000           0.000    23544661.204    96411451.853           0.000          40.250           0.000           0.000           0.000           0.000  
G29  23661267.184   124340798.609           0.000          42.750           0.000           0.000           0.000           0.000           0.000           0.000           0.000           0.000    23661269.544    96888940.283           0.000          35.000           0.000           0.000           0.000           0.000  
G04  23004210.168   120887939.185           0.000          44.250           0.000           0.000           0.000           0.000           0.000           0.000           0.000           0.000    23004211.988    94198401.518           0.000          39.750           0.000           0.000           0.000           0.000  
G12  20242211.966   106373540.819           0.000          51.000           0.000           0.000           0.000           0.000           0.000           0.000           0.000           0.000    20242210.466    82888467.553           0.000          49.500           0.000           0.000           0.000           0.000  
G14  21960856.114   115405077.894           0.000          48.000           0.000           0.000           0.000           0.000           0.000           0.000           0.000           0.000    21960855.814    89926033.082           0.000          42.500           0.000           0.000           0.000           0.000  
> 2013 06 18 13 27 29.0000000  0  7
G24  21517795.518   113076777.712           0.000          49.500           0.000           0.000           0.000           0.000           0.000           0.000           0.000           0.000    21517798.238    88111786.578           0.000          46.500           0.000           0.000           0.000           0.000  
G25  20863175.122   109636724.063           0.000          50.250           0.000           0.000           0.000           0.000           0.000           0.000           0.000           0.000    20863177.222    85431223.471           0.000          47.250           0.000           0.000           0.000           0.000  
G02  23544216.384   123725692.758           0.000          46.500           0.000           0.000           0.000           0.000           0.000           0.000           0.000           0.000    23544215.864    96409628.258           0.000          40.500           0.000           0.000           0.000           0.000  
G29  23660560.924   124337087.169           0.000          44.750           0.000           0.000           0.000           0.000           0.000           0.000           0.000           0.000    23660563.324    96886048.270           0.000          36.750           0.000           0.000           0.000           0.000  
G04  23004053.588   120887116.301           0.000          44.500           0.000           0.000           0.000           0.000           0.000           0.000           0.000           0.000    23004055.388    94197760.310           0.000          39.250           0.000           0.000           0.000           0.000  
G12  20242350.886   106374270.959           0.000          51.000           0.000           0.000           0.000           0.000           0.000           0.000           0.000           0.000    20242349.406    82889036.493           0.000          49.250           0.000           0.000           0.000           0.000  
G14  21960774.194   115404647.462           0.000          48.250           0.000           0.000           0.000           0.000           0.000           0.000           0.000           0.000    21960773.894    89925697.683           0.000          42.500           0.000           0.000           0.000           0.000  
> 2013 06 18 13 27 30.0000000  0  7
G24  21518261.378   113079225.849           0.000          49.500           0.000           0.000           0.000           0.000           0.000           0.000           0.000           0.000    21518264.098    88113694.213           0.000          46.250           0.000           0.000           0.000           0.000  
G25  20862863.162   109635084.649           0.000          50.250           0.000           0.000           0.000           0.000           0.000           0.000           0.000           0.000    20862865.262    85429946.008           0.000          46.500           0.000           0.000           0.000           0.000  
G02  23543771.104   123723352.888           0.000          46.250           0.000           0.000           0.000           0.000           0.000           0.000           0.000           0.000    23543770.624    96407804.976           0.000          40.500           0.000           0.000           0.000           0.000  
G29  23659854.664   124333375.716           0.000          46.000           0.000           0.000           0.000           0.000           0.000           0.000           0.000           0.000    23659857.124    96883156.252           0.000          39.000           0.000           0.000           0.000           0.000  
G04  23003897.128   120886294.096           0.000          44.000           0.000           0.000           0.000           0.000           0.000           0.000           0.000           0.000    23003898.928    94197119.631           0.000          37.750           0.000           0.000           0.000           0.000  
G12  20242489.846   106375001.306           0.000          51.000           0.000           0.000           0.000           0.000           0.000           0.000           0.000           0.000    20242488.386    82889605.591           0.000          49.500           0.000           0.000           0.000           0.000  
G14  21960692.334   115404217.390           0.000          48.250           0.000           0.000           0.000           0.000           0.000           0.000           0.000           0.000    21960692.034    89925362.554           0.000          42.500           0.000           0.000           0.000           0.000  
> 2013 06 18 13 27 31.0000000  0  7
G24  21518727.358   113081674.677           0.000          49.500           0.000           0.000           0.000           0.000           0.000           0.000           0.000           0.000    21518730.078    88115602.389           0.000          46.250           0.000           0.000           0.000           0.000  
G25  20862551.282   109633445.714           0.000          50.250           0.000           0.000           0.000           0.000           0.000           0.000           0.000           0.000    20862553.402    85428668.914           0.000          46.750           0.000           0.000           0.000           0.000  
G02  23543325.944   123721013.685           0.000          46.500           0.000           0.000           0.000           0.000           0.000           0.000           0.000           0.000    23543325.504    96405982.217           0.000          41.250           0.000           0.000           0.000           0.000  
G29  23659148.564   124329664.797           0.000          41.000           0.000           0.000           0.000           0.000           0.000           0.000           0.000           0.000    23659150.944    96880264.632           0.000          36.000           0.000           0.000           0.000           0.000  
G04  23003740.848   120885472.765           0.000          44.000           0.000           0.000           0.000           0.000           0.000           0.000           0.000           0.000    23003742.648    94196479.631           0.000          39.750           0.000           0.000           0.000           0.000  
G12  20242628.926   106375732.282           0.000          51.000           0.000           0.000           0.000           0.000           0.000           0.000           0.000           0.000    20242627.506    82890175.180           0.000          49.500           0.000           0.000           0.000           0.000  
G14  21960610.634   115403788.059           0.000          48.250           0.000           0.000           0.000           0.000           0.000           0.000           0.000           0.000    21960610.314    89925028.014           0.000          42.250           0.000           0.000           0.000           0.000  
> 2013 06 18 13 27 32.0000000  0  6
G24  21519193.438   113084123.986           0.000          49.500           0.000           0.000           0.000           0.000           0.000           0.000           0.000           0.000    21519196.158    88117510.938           0.000          45.750           0.000           0.000           0.000           0.000  
G25  20862239.502   109631807.220           0.000          50.250           0.000           0.000           0.000           0.000           0.000           0.000           0.000           0.000    20862241.602    85427392.169           0.000          46.750           0.000           0.000           0.000           0.000  
G02  23542880.844   123718674.911           0.000          46.250           0.000           0.000           0.000           0.000           0.000           0.000           0.000           0.000    23542880.444    96404159.803           0.000          41.000           0.000           0.000           0.000           0.000  
G04  23003584.728   120884652.373           0.000          45.000           0.000           0.000           0.000           0.000           0.000           0.000           0.000           0.000    23003586.548    94195840.380           0.000          40.250           0.000           0.000           0.000           0.000  
G12  20242768.106   106376463.848           0.000          51.000           0.000           0.000           0.000           0.000           0.000           0.000           0.000           0.000    20242766.726    82890745.234           0.000          49.250           0.000           0.000           0.000           0.000  
G14  21960529.074   115403359.471           0.000          48.000           0.000           0.000           0.000           0.000           0.000           0.000           0.000           0.000    21960528.754    89924694.050           0.000          42.000           0.000           0.000           0.000           0.000  
> 2013 06 18 13 27 33.0000000  0  6
G24  21519659.498   113086573.174           0.000          49.500           0.000           0.000           0.000           0.000           0.000           0.000           0.000           0.000    21519662.218    88119419.394           0.000          46.500           0.000           0.000           0.000           0.000  
G25  20861927.642   109630168.414           0.000          50.000           0.000           0.000           0.000           0.000           0.000           0.000           0.000           0.000    20861929.742    85426115.175           0.000          46.750           0.000           0.000           0.000           0.000  
G02  23542435.784   123716336.231           0.000          46.750           0.000           0.000           0.000           0.000           0.000           0.000           0.000           0.000    23542435.424    96402337.461           0.000          41.000           0.000           0.000           0.000           0.000  
G04  23003428.688   120883832.382           0.000          44.500           0.000           0.000           0.000           0.000           0.000           0.000           0.000           0.000    23003430.528    94195201.429           0.000          40.000           0.000           0.000           0.000           0.000  
G12  20242907.266   106377195.221           0.000          51.000           0.000           0.000           0.000           0.000           0.000           0.000           0.000           0.000    20242905.906    82891315.134           0.000          49.500           0.000           0.000           0.000           0.000  
G14  21960447.514   115402930.931           0.000          48.250           0.000           0.000           0.000           0.000           0.000           0.000           0.000           0.000    21960447.194    89924360.126           0.000          42.500           0.000           0.000           0.000           0.000  
> 2013 06 18 13 27 34.0000000  0  6
G24  21520125.558   113089022.402           0.000          49.500           0.000           0.000           0.000           0.000           0.000           0.000           0.000           0.000    21520128.278    88121327.885           0.000          46.250           0.000           0.000           0.000           0.000  
G25  20861615.762   109628529.445           0.000          50.250           0.000           0.000           0.000           0.000           0.000           0.000           0.000           0.000    20861617.862    85424838.058           0.000          46.750           0.000           0.000           0.000           0.000  
G02  23541990.704   123713997.409           0.000          46.500           0.000           0.000           0.000           0.000           0.000           0.000           0.000           0.000    23541990.364    96400515.011           0.000          40.250           0.000           0.000           0.000           0.000  
G04  23003272.648   120883012.353           0.000          44.500           0.000           0.000           0.000           0.000           0.000           0.000           0.000           0.000    23003274.508    94194562.432           0.000          39.250           0.000           0.000           0.000           0.000  
G12  20243046.406   106377926.435           0.000          51.000           0.000           0.000           0.000           0.000           0.000           0.000           0.000           0.000    20243045.066    82891884.912           0.000          49.250           0.000           0.000           0.000           0.000  
G14  21960365.974   115402502.438           0.000          48.250           0.000           0.000           0.000           0.000           0.000           0.000           0.000           0.000    21960365.654    89924026.232           0.000          42.250           0.000           0.000           0.000           0.000  
> 2013 06 18 13 27 35.0000000  0  6
G24  21520591.658   113091471.758           0.000          49.500           0.000           0.000           0.000           0.000           0.000           0.000           0.000           0.000    21520594.378    88123236.472           0.000          46.250           0.000           0.000           0.000           0.000  
G25  20861303.882   109626890.538           0.000          50.000           0.000           0.000           0.000           0.000           0.000           0.000           0.000           0.000    20861306.002    85423560.991           0.000          46.750           0.000           0.000           0.000           0.000  
G02  23541545.644   123711658.668           0.000          46.500           0.000           0.000           0.000           0.000           0.000           0.000           0.000           0.000    23541545.324    96398692.618           0.000          39.500           0.000           0.000           0.000           0.000  
G04  23003116.708   120882192.790           0.000          44.500           0.000           0.000           0.000           0.000           0.000           0.000           0.000           0.000    23003118.548    94193923.810           0.000          39.750           0.000           0.000           0.000           0.000  
G12  20243185.586   106378657.860           0.000          51.000           0.000           0.000           0.000           0.000           0.000           0.000           0.000           0.000    20243184.246    82892454.851           0.000          49.250           0.000           0.000           0.000           0.000  
G14  21960284.514   115402074.315           0.000          48.250           0.000           0.000           0.000           0.000           0.000           0.000           0.000           0.000    21960284.174    89923692.628           0.000          42.000           0.000           0.000           0.000           0.000  
> 2013 06 18 13 27 36.0000000  0  6
G24  21521057.798   113093921.416           0.000          49.500           0.000           0.000           0.000           0.000           0.000           0.000           0.000           0.000    21521060.518    88125145.295           0.000          46.250           0.000           0.000           0.000           0.000  
G25  20860992.122   109625252.202           0.000          50.250           0.000           0.000           0.000           0.000           0.000           0.000           0.000           0.000    20860994.262    85422284.369           0.000          47.000           0.000           0.000           0.000           0.000  
G02  23541100.644   123709320.320           0.000          46.500           0.000           0.000           0.000           0.000           0.000           0.000           0.000           0.000    23541100.364    96396870.528           0.000          40.750           0.000           0.000           0.000           0.000  
G04  23002960.928   120881374.192           0.000          45.000           0.000           0.000           0.000           0.000           0.000           0.000           0.000           0.000    23002962.788    94193285.942           0.000          38.750           0.000           0.000           0.000           0.000  
G12  20243324.906   106379389.913           0.000          51.000           0.000           0.000           0.000           0.000           0.000           0.000           0.000           0.000    20243323.566    82893025.284           0.000          49.250           0.000           0.000           0.000           0.000  
G14  21960203.234   115401647.202           0.000          48.250           0.000           0.000           0.000           0.000           0.000           0.000           0.000           0.000    21960202.894    89923359.808           0.000          41.750           0.000           0.000           0.000           0.000  
> 2013 06 18 13 27 37.0000000  0  6
G24  21521524.118   113096371.979           0.000          49.250           0.000           0.000           0.000           0.000           0.000           0.000           0.000           0.000    21521526.838    88127054.824           0.000          46.250           0.000           0.000           0.000           0.000  
G25  20860680.502   109623614.628           0.000          50.250           0.000           0.000           0.000           0.000           0.000           0.000           0.000           0.000    20860682.642    85421008.341           0.000          46.750           0.000           0.000           0.000           0.000  
G02  23540655.804   123706982.762           0.000          46.000           0.000           0.000           0.000           0.000           0.000           0.000           0.000           0.000    23540655.544    96395049.058           0.000          40.500           0.000           0.000           0.000           0.000  
G04  23002805.328   120880556.506           0.000          44.250           0.000           0.000           0.000           0.000           0.000           0.000           0.000           0.000    23002807.188    94192648.780           0.000          40.000           0.000           0.000           0.000           0.000  
G12  20243464.346   106380122.706           0.000          51.000           0.000           0.000           0.000           0.000           0.000           0.000           0.000           0.000    20243463.006    82893596.292           0.000          49.250           0.000           0.000           0.000           0.000  
G14  21960122.134   115401221.076           0.000          48.000           0.000           0.000           0.000           0.000           0.000           0.000           0.000           0.000    21960121.794    89923027.756           0.000          42.750           0.000           0.000           0.000           0.000  
> 2013 06 18 13 27 38.0000000  0  6
G24  21521990.578   113098823.274           0.000          49.500           0.000           0.000           0.000           0.000           0.000           0.000           0.000           0.000    21521993.298    88128964.926           0.000          46.500           0.000           0.000           0.000           0.000  
G25  20860369.042   109621977.903           0.000          50.250           0.000           0.000           0.000           0.000           0.000           0.000           0.000           0.000    20860371.182    85419732.971           0.000          46.750           0.000           0.000           0.000           0.000  
G02  23540211.104   123704645.902           0.000          46.000           0.000           0.000           0.000           0.000           0.000           0.000           0.000           0.000    23540210.864    96393228.127           0.000          41.250           0.000           0.000           0.000           0.000  
G04  23002649.948   120879739.963           0.000          44.500           0.000           0.000           0.000           0.000           0.000           0.000           0.000           0.000    23002651.808    94192012.516           0.000          39.000           0.000           0.000           0.000           0.000  
G12  20243603.966   106380856.377           0.000          51.000           0.000           0.000           0.000           0.000           0.000           0.000           0.000           0.000    20243602.626    82894167.982           0.000          49.500           0.000           0.000           0.000           0.000  
G14  21960041.274   115400796.165           0.000          48.000           0.000           0.000           0.000           0.000           0.000           0.000           0.000           0.000    21960040.934    89922696.658           0.000          42.250           0.000           0.000           0.000           0.000  
> 2013 06 18 13 27 39.0000000  0  6
G24  21522457.198   113101275.460           0.000          49.500           0.000           0.000           0.000           0.000           0.000           0.000           0.000           0.000    21522459.918    88130875.714           0.000          46.750           0.000           0.000           0.000           0.000  
G25  20860057.742   109620342.018           0.000          50.250           0.000           0.000           0.000           0.000           0.000           0.000           0.000           0.000    20860059.882    85418458.254           0.000          46.750           0.000           0.000           0.000           0.000  
G02  23539766.544   123702309.745           0.000          46.250           0.000           0.000           0.000           0.000           0.000           0.000           0.000           0.000    23539766.324    96391407.744           0.000          40.250           0.000           0.000           0.000           0.000  
G04  23002494.708   120878924.232           0.000          44.500           0.000           0.000           0.000           0.000           0.000           0.000           0.000           0.000    23002496.588    94191376.871           0.000          37.750           0.000           0.000           0.000           0.000  
G12  20243743.726   106381590.742           0.000          51.000           0.000           0.000           0.000           0.000           0.000           0.000           0.000           0.000    20243742.366    82894740.214           0.000          49.250           0.000           0.000           0.000           0.000  
G14  21959960.634   115400372.414           0.000          47.750           0.000           0.000           0.000           0.000           0.000           0.000           0.000           0.000    21959960.314    89922366.467           0.000          42.000           0.000           0.000           0.000           0.000  
> 2013 06 18 13 27 40.0000000  0  6
G24  21522923.758   113103727.250           0.000          49.250           0.000           0.000           0.000           0.000           0.000           0.000           0.000           0.000    21522926.478    88132786.193           0.000          46.250           0.000           0.000           0.000           0.000  
G25  20859746.402   109618705.813           0.000          50.250           0.000           0.000           0.000           0.000           0.000           0.000           0.000           0.000    20859748.522    85417183.284           0.000          46.750           0.000           0.000           0.000           0.000  
G02  23539321.864   123699972.994           0.000          46.250           0.000           0.000           0.000           0.000           0.000           0.000           0.000           0.000    23539321.664    96389586.903           0.000          40.750           0.000           0.000           0.000           0.000  
G04  23002339.408   120878108.057           0.000          44.250           0.000           0.000           0.000           0.000           0.000           0.000           0.000           0.000    23002341.288    94190740.903           0.000          39.250           0.000           0.000           0.000           0.000  
G12  20243883.366   106382324.613           0.000          51.000           0.000           0.000           0.000           0.000           0.000           0.000           0.000           0.000    20243882.026    82895312.062           0.000          49.250           0.000           0.000           0.000           0.000  
G14  21959879.994   115399948.638           0.000          48.000           0.000           0.000           0.000           0.000           0.000           0.000           0.000           0.000    21959879.674    89922036.251           0.000          43.250           0.000           0.000           0.000           0.000  
> 2013 06 18 13 27 41.0000000  0  6
G24  21523389.738   113106176.004           0.000          49.250           0.000           0.000           0.000           0.000           0.000           0.000           0.000           0.000    21523392.458    88134694.314           0.000          46.250           0.000           0.000           0.000           0.000  
G25  20859434.442   109617066.499           0.000          50.000           0.000           0.000           0.000           0.000           0.000           0.000           0.000           0.000    20859436.582    85415905.897           0.000          46.500           0.000           0.000           0.000           0.000  
G02  23538876.584   123697633.073           0.000          46.500           0.000           0.000           0.000           0.000           0.000           0.000           0.000           0.000    23538876.384    96387763.589           0.000          39.750           0.000           0.000           0.000           0.000  
G04  23002183.508   120877288.849           0.000          44.500           0.000           0.000           0.000           0.000           0.000           0.000           0.000           0.000    23002185.408    94190102.572           0.000          37.500           0.000           0.000           0.000           0.000  
G12  20244022.426   106383055.300           0.000          51.000           0.000           0.000           0.000           0.000           0.000           0.000           0.000           0.000    20244021.066    82895881.428           0.000          49.250           0.000           0.000           0.000           0.000  
G14  21959798.814   115399522.034           0.000          48.000           0.000           0.000           0.000           0.000           0.000           0.000           0.000           0.000    21959798.494    89921703.835           0.000          42.250           0.000           0.000           0.000           0.000  
> 2013 06 18 13 27 42.0000000  0  6
G24  21523855.358   113108622.940           0.000          49.500           0.000           0.000           0.000           0.000           0.000           0.000           0.000           0.000    21523858.078    88136601.020           0.000          46.500           0.000           0.000           0.000           0.000  
G25  20859122.182   109615425.528           0.000          50.250           0.000           0.000           0.000           0.000           0.000           0.000           0.000           0.000    20859124.302    85414627.224           0.000          46.750           0.000           0.000           0.000           0.000  
G02  23538430.944   123695291.332           0.000          46.250           0.000           0.000           0.000           0.000           0.000           0.000           0.000           0.000    23538430.784    96385938.859           0.000          41.500           0.000           0.000           0.000           0.000  
G04  23002027.368   120876468.307           0.000          44.500           0.000           0.000           0.000           0.000           0.000           0.000           0.000           0.000    23002029.268    94189463.180           0.000          38.750           0.000           0.000           0.000           0.000  
G12  20244161.166   106383784.362           0.000          51.000           0.000           0.000           0.000           0.000           0.000           0.000           0.000           0.000    20244159.806    82896449.529           0.000          49.250           0.000           0.000           0.000           0.000  
G14  21959717.394   115399094.156           0.000          48.000           0.000           0.000           0.000           0.000           0.000           0.000           0.000           0.000    21959717.074    89921370.423           0.000          42.000           0.000           0.000           0.000           0.000  
> 2013 06 18 13 27 43.0000000  0  6
G24  21524320.998   113111069.893           0.000          49.500           0.000           0.000           0.000           0.000           0.000           0.000           0.000           0.000    21524323.718    88138507.738           0.000          46.500           0.000           0.000           0.000           0.000  
G25  20858809.962   109613784.869           0.000          50.000           0.000           0.000           0.000           0.000           0.000           0.000           0.000           0.000    20858812.102    85413348.793           0.000          46.750           0.000           0.000           0.000           0.000  
G02  23537985.324   123692949.652           0.000          46.000           0.000           0.000           0.000           0.000           0.000           0.000           0.000           0.000    23537985.184    96384114.181           0.000          40.000           0.000           0.000           0.000           0.000  
G04  23001871.348   120875648.479           0.000          44.250           0.000           0.000           0.000           0.000           0.000           0.000           0.000           0.000    23001873.268    94188824.349           0.000          38.000           0.000           0.000           0.000           0.000  
G12  20244299.986   106384513.885           0.000          51.000           0.000           0.000           0.000           0.000           0.000           0.000           0.000           0.000    20244298.626    82897017.988           0.000          49.250           0.000           0.000           0.000           0.000  
G14  21959636.094   115398667.000           0.000          48.250           0.000           0.000           0.000           0.000           0.000           0.000           0.000           0.000    21959635.794    89921037.575           0.000          42.500           0.000           0.000           0.000           0.000  
> 2013 06 18 13 27 44.0000000  0  6
G24  21524786.838   113113517.977           0.000          49.500           0.000           0.000           0.000           0.000           0.000           0.000           0.000           0.000    21524789.558    88140415.334           0.000          46.500           0.000           0.000           0.000           0.000  
G25  20858498.022   109612145.553           0.000          50.250           0.000           0.000           0.000           0.000           0.000           0.000           0.000           0.000    20858500.142    85412071.404           0.000          46.750           0.000           0.000           0.000           0.000  
G02  23537539.904   123690609.020           0.000          46.000           0.000           0.000           0.000           0.000           0.000           0.000           0.000           0.000    23537539.784    96382290.312           0.000          41.000           0.000           0.000           0.000           0.000  
G04  23001715.628   120874830.113           0.000          44.000           0.000           0.000           0.000           0.000           0.000           0.000           0.000           0.000    23001717.528    94188186.669           0.000          40.500           0.000           0.000           0.000           0.000  
G12  20244439.066   106385244.695           0.000          51.000           0.000           0.000           0.000           0.000           0.000           0.000           0.000           0.000    20244437.686    82897587.450           0.000          49.250           0.000           0.000           0.000           0.000  
G14  21959555.134   115398241.571           0.000          48.000           0.000           0.000           0.000           0.000           0.000           0.000           0.000           0.000    21959554.834    89920706.074           0.000          43.250           0.000           0.000           0.000           0.000  
> 2013 06 18 13 27 45.0000000  0  6
G24  21525253.058   113115968.032           0.000          49.250           0.000           0.000           0.000           0.000           0.000           0.000           0.000           0.000    21525255.778    88142324.464           0.000          46.750           0.000           0.000           0.000           0.000  
G25  20858186.482   109610508.317           0.000          50.000           0.000           0.000           0.000           0.000           0.000           0.000           0.000           0.000    20858188.582    85410795.632           0.000          46.500           0.000           0.000           0.000           0.000  
G02  23537094.844   123688270.219           0.000          46.250           0.000           0.000           0.000           0.000           0.000           0.000           0.000           0.000    23537094.724    96380467.868           0.000          40.250           0.000           0.000           0.000           0.000  
G04  23001560.268   120874013.793           0.000          44.000           0.000           0.000           0.000           0.000           0.000           0.000           0.000           0.000    23001562.208    94187550.582           0.000          40.000           0.000           0.000           0.000           0.000  
G12  20244578.506   106385977.449           0.000          51.000           0.000           0.000           0.000           0.000           0.000           0.000           0.000           0.000    20244577.126    82898158.427           0.000          49.500           0.000           0.000           0.000           0.000  
G14  21959474.634   115397818.559           0.000          47.750           0.000           0.000           0.000           0.000           0.000           0.000           0.000           0.000    21959474.334    89920376.454           0.000          42.500           0.000           0.000           0.000           0.000  
> 2013 06 18 13 27 46.0000000  0  6
G24  21525719.678   113118420.129           0.000          49.250           0.000           0.000           0.000           0.000           0.000           0.000           0.000           0.000    21525722.398    88144235.184           0.000          46.500           0.000           0.000           0.000           0.000  
G25  20857875.302   109608873.116           0.000          50.000           0.000           0.000           0.000           0.000           0.000           0.000           0.000           0.000    20857877.402    85409521.445           0.000          46.750           0.000           0.000           0.000           0.000  
G02  23536650.144   123685933.325           0.000          46.000           0.000           0.000           0.000           0.000           0.000           0.000           0.000           0.000    23536650.024    96378646.912           0.000          40.000           0.000           0.000           0.000           0.000  
G04  23001405.328   120873199.593           0.000          43.750           0.000           0.000           0.000           0.000           0.000           0.000           0.000           0.000    23001407.268    94186916.139           0.000          39.750           0.000           0.000           0.000           0.000  
G12  20244718.326   106386712.171           0.000          51.000           0.000           0.000           0.000           0.000           0.000           0.000           0.000           0.000    20244716.946    82898730.938           0.000          49.500           0.000           0.000           0.000           0.000  
G14  21959394.594   115397397.878           0.000          47.750           0.000           0.000           0.000           0.000           0.000           0.000           0.000           0.000    21959394.274    89920048.648           0.000          42.750           0.000           0.000           0.000           0.000  
> 2013 06 18 13 27 47.0000000  0  6
G24  21526186.618   113120873.918           0.000          49.500           0.000           0.000           0.000           0.000           0.000           0.000           0.000           0.000    21526189.338    88146147.226           0.000          46.250           0.000           0.000           0.000           0.000  
G25  20857564.522   109607239.932           0.000          50.000           0.000           0.000           0.000           0.000           0.000           0.000           0.000           0.000    20857566.622    85408248.832           0.000          46.750           0.000           0.000           0.000           0.000  
G02  23536205.764   123683598.143           0.000          46.000           0.000           0.000           0.000           0.000           0.000           0.000           0.000           0.000    23536205.664    96376827.285           0.000          40.000           0.000           0.000           0.000           0.000  
G04  23001250.828   120872387.669           0.000          43.750           0.000           0.000           0.000           0.000           0.000           0.000           0.000           0.000    23001252.748    94186283.466           0.000          39.500           0.000           0.000           0.000           0.000  
G12  20244858.526   106387448.935           0.000          51.000           0.000           0.000           0.000           0.000           0.000           0.000           0.000           0.000    20244857.146    82899305.040           0.000          49.250           0.000           0.000           0.000           0.000  
G14  21959314.994   115396979.648           0.000          48.000           0.000           0.000           0.000           0.000           0.000           0.000           0.000           0.000    21959314.694    89919722.755           0.000          42.000           0.000           0.000           0.000           0.000  
> 2013 06 18 13 27 48.0000000  0  6
G24  21526653.858   113123329.346           0.000          49.500           0.000           0.000           0.000           0.000           0.000           0.000           0.000           0.000    21526656.578    88148060.546           0.000          46.250           0.000           0.000           0.000           0.000  
G25  20857254.102   109605608.601           0.000          50.250           0.000           0.000           0.000           0.000           0.000           0.000           0.000           0.000    20857256.182    85406977.671           0.000          46.750           0.000           0.000           0.000           0.000  
G02  23535761.664   123681264.421           0.000          45.750           0.000           0.000           0.000           0.000           0.000           0.000           0.000           0.000    23535761.584    96375008.811           0.000          39.000           0.000           0.000           0.000           0.000  
G04  23001096.648   120871577.466           0.000          44.250           0.000           0.000           0.000           0.000           0.000           0.000           0.000           0.000    23001098.588    94185652.141           0.000          39.500           0.000           0.000           0.000           0.000  
G12  20244999.066   106388187.404           0.000          51.000           0.000           0.000           0.000           0.000           0.000           0.000           0.000           0.000    20244997.666    82899880.470           0.000          49.500           0.000           0.000           0.000           0.000  
G14  21959235.814   115396563.604           0.000          47.750           0.000           0.000           0.000           0.000           0.000           0.000           0.000           0.000    21959235.514    89919398.569           0.000          43.000           0.000           0.000           0.000           0.000  
> 2013 06 18 13 27 49.0000000  0  6
G24  21527121.378   113125786.149           0.000          49.500           0.000           0.000           0.000           0.000           0.000           0.000           0.000           0.000    21527124.098    88149974.934           0.000          46.500           0.000           0.000           0.000           0.000  
G25  20856943.942   109603978.686           0.000          50.000           0.000           0.000           0.000           0.000           0.000           0.000           0.000           0.000    20856946.022    85405707.614           0.000          46.500           0.000           0.000           0.000           0.000  
G02  23535317.764   123678931.803           0.000          45.750           0.000           0.000           0.000           0.000           0.000           0.000           0.000           0.000    23535317.704    96373191.194           0.000          39.500           0.000           0.000           0.000           0.000  
G04  23000942.688   120870768.433           0.000          44.500           0.000           0.000           0.000           0.000           0.000           0.000           0.000           0.000    23000944.628    94185021.738           0.000          38.500           0.000           0.000           0.000           0.000  
G12  20245139.806   106388926.993           0.000          51.000           0.000           0.000           0.000           0.000           0.000           0.000           0.000           0.000    20245138.406    82900456.773           0.000          49.250           0.000           0.000           0.000           0.000  
G14  21959156.974   115396149.279           0.000          48.000           0.000           0.000           0.000           0.000           0.000           0.000           0.000           0.000    21959156.674    89919075.724           0.000          42.500           0.000           0.000           0.000           0.000  
> 2013 06 18 13 27 50.0000000  0  6
G24  21527589.058   113128243.853           0.000          49.500           0.000           0.000           0.000           0.000           0.000           0.000           0.000           0.000    21527591.778    88151890.028           0.000          46.750           0.000           0.000           0.000           0.000  
G25  20856634.002   109602349.933           0.000          50.250           0.000           0.000           0.000           0.000           0.000           0.000           0.000           0.000    20856636.082    85404438.457           0.000          47.000           0.000           0.000           0.000           0.000  
G02  23534874.024   123676599.894           0.000          46.250           0.000           0.000           0.000           0.000           0.000           0.000           0.000           0.000    23534873.964    96371374.123           0.000          40.500           0.000           0.000           0.000           0.000  
G04  23000788.928   120869960.421           0.000          44.750           0.000           0.000           0.000           0.000           0.000           0.000           0.000           0.000    23000790.868    94184392.129           0.000          37.750           0.000           0.000           0.000           0.000  
G12  20245280.746   106389667.616           0.000          51.000           0.000           0.000           0.000           0.000           0.000           0.000           0.000           0.000    20245279.346    82901033.884           0.000          49.250           0.000           0.000           0.000           0.000  
G14  21959078.414   115395736.464           0.000          48.000           0.000           0.000           0.000           0.000           0.000           0.000           0.000           0.000    21959078.134    89918754.052           0.000          42.750           0.000           0.000           0.000           0.000  
> 2013 06 18 13 27 51.0000000  0  6
G24  21528056.778   113130701.730           0.000          49.500           0.000           0.000           0.000           0.000           0.000           0.000           0.000           0.000    21528059.498    88153805.253           0.000          46.750           0.000           0.000           0.000           0.000  
G25  20856324.162   109600721.786           0.000          50.000           0.000           0.000           0.000           0.000           0.000           0.000           0.000           0.000    20856326.262    85403169.775           0.000          46.750           0.000           0.000           0.000           0.000  
G02  23534430.304   123674268.182           0.000          46.250           0.000           0.000           0.000           0.000           0.000           0.000           0.000           0.000    23534430.244    96369557.206           0.000          40.000           0.000           0.000           0.000           0.000  
G04  23000635.328   120869153.292           0.000          44.500           0.000           0.000           0.000           0.000           0.000           0.000           0.000           0.000    23000637.288    94183763.203           0.000          39.750           0.000           0.000           0.000           0.000  
G12  20245421.806   106390408.855           0.000          51.000           0.000           0.000           0.000           0.000           0.000           0.000           0.000           0.000    20245420.406    82901611.471           0.000          49.500           0.000           0.000           0.000           0.000  
G14  21959000.054   115395324.735           0.000          48.000           0.000           0.000           0.000           0.000           0.000           0.000           0.000           0.000    21958999.774    89918433.226           0.000          42.500           0.000           0.000           0.000           0.000  
> 2013 06 18 13 27 52.0000000  0  6
G24  21528524.558   113133160.012           0.000          49.250           0.000           0.000           0.000           0.000           0.000           0.000           0.000           0.000    21528527.278    88155720.797           0.000          46.250           0.000           0.000           0.000           0.000  
G25  20856014.522   109599094.514           0.000          50.000           0.000           0.000           0.000           0.000           0.000           0.000           0.000           0.000    20856016.582    85401901.767           0.000          46.750           0.000           0.000           0.000           0.000  
G02  23533986.624   123671936.673           0.000          46.000           0.000           0.000           0.000           0.000           0.000           0.000           0.000           0.000    23533986.584    96367740.450           0.000          39.750           0.000           0.000           0.000           0.000  
G04  23000481.828   120868346.615           0.000          43.500           0.000           0.000           0.000           0.000           0.000           0.000           0.000           0.000    23000483.768    94183134.624           0.000          39.750           0.000           0.000           0.000           0.000  
G12  20245562.966   106391150.671           0.000          51.000           0.000           0.000           0.000           0.000           0.000           0.000           0.000           0.000    20245561.566    82902189.512           0.000          49.500           0.000           0.000           0.000           0.000  
G14  21958921.954   115394914.261           0.000          48.000           0.000           0.000           0.000           0.000           0.000           0.000           0.000           0.000    21958921.674    89918113.375           0.000          42.500           0.000           0.000           0.000           0.000  
> 2013 06 18 13 27 53.0000000  0  6
G24  21528992.518   113135619.145           0.000          49.500           0.000           0.000           0.000           0.000           0.000           0.000           0.000           0.000    21528995.238    88157637.009           0.000          46.250           0.000           0.000           0.000           0.000  
G25  20855704.982   109597467.876           0.000          50.000           0.000           0.000           0.000           0.000           0.000           0.000           0.000           0.000    20855707.062    85400634.261           0.000          46.750           0.000           0.000           0.000           0.000  
G02  23533542.984   123669605.418           0.000          46.000           0.000           0.000           0.000           0.000           0.000           0.000           0.000           0.000    23533542.964    96365923.886           0.000          38.750           0.000           0.000           0.000           0.000  
G04  23000328.288   120867539.744           0.000          44.250           0.000           0.000           0.000           0.000           0.000           0.000           0.000           0.000    23000330.228    94182505.889           0.000          40.750           0.000           0.000           0.000           0.000  
G12  20245704.146   106391892.554           0.000          51.000           0.000           0.000           0.000           0.000           0.000           0.000           0.000           0.000    20245702.746    82902767.602           0.000          49.500           0.000           0.000           0.000           0.000  
G14  21958843.994   115394504.607           0.000          47.750           0.000           0.000           0.000           0.000           0.000           0.000           0.000           0.000    21958843.714    89917794.158           0.000          42.500           0.000           0.000           0.000           0.000  
> 2013 06 18 13 27 54.0000000  0  6
G24  21529460.618   113138079.046           0.000          49.500           0.000           0.000           0.000           0.000           0.000           0.000           0.000           0.000    21529463.338    88159553.811           0.000          46.500           0.000           0.000           0.000           0.000  
G25  20855395.582   109595841.952           0.000          50.250           0.000           0.000           0.000           0.000           0.000           0.000           0.000           0.000    20855397.642    85399367.306           0.000          47.000           0.000           0.000           0.000           0.000  
G02  23533099.404   123667274.371           0.000          46.250           0.000           0.000           0.000           0.000           0.000           0.000           0.000           0.000    23533099.384    96364107.492           0.000          40.000           0.000           0.000           0.000           0.000  
G04  23000174.708   120866732.702           0.000          44.500           0.000           0.000           0.000           0.000           0.000           0.000           0.000           0.000    23000176.648    94181877.021           0.000          37.750           0.000           0.000           0.000           0.000  
G12  20245845.366   106392634.617           0.000          51.000           0.000           0.000           0.000           0.000           0.000           0.000           0.000           0.000    20245843.946    82903345.831           0.000          49.500           0.000           0.000           0.000           0.000  
G14  21958766.194   115394095.831           0.000          48.000           0.000           0.000           0.000           0.000           0.000           0.000           0.000           0.000    21958765.914    89917475.627           0.000          42.750           0.000           0.000           0.000           0.000  
> 2013 06 18 13 27 55.0000000  0  6
G24  21529928.758   113140539.136           0.000          49.500           0.000           0.000           0.000           0.000           0.000           0.000           0.000           0.000    21529931.478    88161470.762           0.000          46.750           0.000           0.000           0.000           0.000  
G25  20855086.242   109594216.362           0.000          50.250           0.000           0.000           0.000           0.000           0.000           0.000           0.000           0.000    20855088.302    85398100.612           0.000          47.000           0.000           0.000           0.000           0.000  
G02  23532655.824   123664943.476           0.000          45.750           0.000           0.000           0.000           0.000           0.000           0.000           0.000           0.000    23532655.824    96362291.212           0.000          39.500           0.000           0.000           0.000           0.000  
G04  23000021.228   120865926.175           0.000          43.500           0.000           0.000           0.000           0.000           0.000           0.000           0.000           0.000    23000023.168    94181248.554           0.000          39.750           0.000           0.000           0.000           0.000  
G12  20245986.626   106393376.988           0.000          51.000           0.000           0.000           0.000           0.000           0.000           0.000           0.000           0.000    20245985.226    82903924.302           0.000          49.250           0.000           0.000           0.000           0.000  
G14  21958688.534   115393687.759           0.000          48.000           0.000           0.000           0.000           0.000           0.000           0.000           0.000           0.000    21958688.274    89917157.645           0.000          41.750           0.000           0.000           0.000           0.000  
> 2013 06 18 13 27 56.0000000  0  6
G24  21530396.938   113142999.438           0.000          49.500           0.000           0.000           0.000           0.000           0.000           0.000           0.000           0.000    21530399.658    88163387.880           0.000          46.250           0.000           0.000           0.000           0.000  
G25  20854776.962   109592591.058           0.000          50.250           0.000           0.000           0.000           0.000           0.000           0.000           0.000           0.000    20854779.022    85396834.142           0.000          46.500           0.000           0.000           0.000           0.000  
G02  23532212.284   123662612.674           0.000          45.750           0.000           0.000           0.000           0.000           0.000           0.000           0.000           0.000    23532212.284    96360475.006           0.000          38.750           0.000           0.000           0.000           0.000  
G04  22999867.808   120865120.005           0.000          44.000           0.000           0.000           0.000           0.000           0.000           0.000           0.000           0.000    22999869.748    94180620.364           0.000          40.000           0.000           0.000           0.000           0.000  
G12  20246127.946   106394119.590           0.000          51.000           0.000           0.000           0.000           0.000           0.000           0.000           0.000           0.000    20246126.526    82904502.953           0.000          49.250           0.000           0.000           0.000           0.000  
G14  21958611.014   115393280.329           0.000          47.750           0.000           0.000           0.000           0.000           0.000           0.000           0.000           0.000    21958610.734    89916840.168           0.000          42.000           0.000           0.000           0.000           0.000  
> 2013 06 18 13 27 57.0000000  0  6
G24  21530865.258   113145460.531           0.000          49.500           0.000           0.000           0.000           0.000           0.000           0.000           0.000           0.000    21530867.978    88165305.613           0.000          46.250           0.000           0.000           0.000           0.000  
G25  20854467.742   109590966.125           0.000          50.250           0.000           0.000           0.000           0.000           0.000           0.000           0.000           0.000    20854469.802    85395567.956           0.000          46.750           0.000           0.000           0.000           0.000  
G02  23531768.844   123660282.438           0.000          45.750           0.000           0.000           0.000           0.000           0.000           0.000           0.000           0.000    23531768.864    96358659.245           0.000          38.750           0.000           0.000           0.000           0.000  
G04  22999714.508   120864314.406           0.000          43.500           0.000           0.000           0.000           0.000           0.000           0.000           0.000           0.000    22999716.448    94179992.636           0.000          38.500           0.000           0.000           0.000           0.000  
G12  20246269.326   106394862.518           0.000          51.000           0.000           0.000           0.000           0.000           0.000           0.000           0.000           0.000    20246267.906    82905081.856           0.000          49.250           0.000           0.000           0.000           0.000  
G14  21958533.574   115392873.421           0.000          47.750           0.000           0.000           0.000           0.000           0.000           0.000           0.000           0.000    21958533.294    89916523.101           0.000          42.000           0.000           0.000           0.000           0.000  
> 2013 06 18 13 27 58.0000000  0  6
G24  21531333.678   113147922.077           0.000          49.500           0.000           0.000           0.000           0.000           0.000           0.000           0.000           0.000    21531336.398    88167223.699           0.000          46.500           0.000           0.000           0.000           0.000  
G25  20854158.482   109589340.916           0.000          50.250           0.000           0.000           0.000           0.000           0.000           0.000           0.000           0.000    20854160.542    85394301.563           0.000          46.750           0.000           0.000           0.000           0.000  
G02  23531325.484   123657952.555           0.000          45.500           0.000           0.000           0.000           0.000           0.000           0.000           0.000           0.000    23531325.504    96356843.762           0.000          38.750           0.000           0.000           0.000           0.000  
G04  22999561.248   120863508.977           0.000          44.250           0.000           0.000           0.000           0.000           0.000           0.000           0.000           0.000    22999563.188    94179365.048           0.000          39.000           0.000           0.000           0.000           0.000  
G12  20246410.666   106395605.220           0.000          51.000           0.000           0.000           0.000           0.000           0.000           0.000           0.000           0.000    20246409.246    82905660.585           0.000          49.250           0.000           0.000           0.000           0.000  
G14  21958456.114   115392466.395           0.000          48.000           0.000           0.000           0.000           0.000           0.000           0.000           0.000           0.000    21958455.854    89916205.938           0.000          42.250           0.000           0.000           0.000           0.000  
> 2013 06 18 13 27 59.0000000  0  6
G24  21531802.218   113150384.253           0.000          49.750           0.000           0.000           0.000           0.000           0.000           0.000           0.000           0.000    21531804.938    88169142.277           0.000          46.500           0.000           0.000           0.000           0.000  
G25  20853849.222   109587715.760           0.000          50.250           0.000           0.000           0.000           0.000           0.000           0.000           0.000           0.000    20853851.282    85393035.210           0.000          46.750           0.000           0.000           0.000           0.000  
G02  23530882.224   123655623.329           0.000          45.750           0.000           0.000           0.000           0.000           0.000           0.000           0.000           0.000    23530882.264    96355028.785           0.000          38.750           0.000           0.000           0.000           0.000  
G04  22999408.128   120862704.402           0.000          44.250           0.000           0.000           0.000           0.000           0.000           0.000           0.000           0.000    22999410.068    94178738.106           0.000          39.000           0.000           0.000           0.000           0.000  
G12  20246552.066   106396348.280           0.000          51.000           0.000           0.000           0.000           0.000           0.000           0.000           0.000           0.000    20246550.646    82906239.592           0.000          49.250           0.000           0.000           0.000           0.000  
G14  21958378.694   115392059.573           0.000          48.000           0.000           0.000           0.000           0.000           0.000           0.000           0.000           0.000    21958378.434    89915888.935           0.000          42.750           0.000           0.000           0.000           0.000  
> 2013 06 18 13 28  0.0000000  0  6
G24  21532270.898   113152847.256           0.000          49.500           0.000           0.000           0.000           0.000           0.000           0.000           0.000           0.000    21532273.618    88171061.497           0.000          46.250           0.000           0.000           0.000           0.000  
G25  20853539.982   109586090.727           0.000          50.250           0.000           0.000           0.000           0.000           0.000           0.000           0.000           0.000    20853542.042    85391768.950           0.000          46.750           0.000           0.000           0.000           0.000  
G02  23530439.144   123653294.983           0.000          45.500           0.000           0.000           0.000           0.000           0.000           0.000           0.000           0.000    23530439.184    96353214.479           0.000          39.000           0.000           0.000           0.000           0.000  
G04  22999255.208   120861900.731           0.000          43.750           0.000           0.000           0.000           0.000           0.000           0.000           0.000           0.000    22999257.128    94178111.863           0.000          39.000           0.000           0.000           0.000           0.000  
G12  20246693.546   106397091.767           0.000          51.000           0.000           0.000           0.000           0.000           0.000           0.000           0.000           0.000    20246692.126    82906818.933           0.000          49.500           0.000           0.000           0.000           0.000  
G14  21958301.334   115391653.041           0.000          48.000           0.000           0.000           0.000           0.000           0.000           0.000           0.000           0.000    21958301.074    89915572.150           0.000          42.500           0.000           0.000           0.000           0.000  
> 2013 06 18 13 28  1.0000000  0  7
G24  21532739.738   113155310.977           0.000          49.500           0.000           0.000           0.000           0.000           0.000           0.000           0.000           0.000    21532742.458    88172981.277           0.000          46.250           0.000           0.000           0.000           0.000  
G25  20853230.802   109584465.920           0.000          50.250           0.000           0.000           0.000           0.000           0.000           0.000           0.000           0.000    20853232.862    85390502.865           0.000          47.000           0.000           0.000           0.000           0.000  
G02  23529996.244   123650967.486           0.000          46.750           0.000           0.000           0.000           0.000           0.000           0.000           0.000           0.000    23529996.284    96351400.845           0.000          38.750           0.000           0.000           0.000           0.000  
G29  23637982.324   124218434.677           0.000          45.500           0.000           0.000           0.000           0.000           0.000           0.000           0.000           0.000    23637984.604    96793595.290           0.000          39.000           0.000           0.000           0.000           0.000  
G04  22999102.488   120861098.158           0.000          44.000           0.000           0.000           0.000           0.000           0.000           0.000           0.000           0.000    22999104.408    94177486.484           0.000          39.500           0.000           0.000           0.000           0.000  
G12  20246835.126   106397835.770           0.000          51.000           0.000           0.000           0.000           0.000           0.000           0.000           0.000           0.000    20246833.706    82907398.675           0.000          49.500           0.000           0.000           0.000           0.000  
G14  21958224.034   115391246.911           0.000          48.000           0.000           0.000           0.000           0.000           0.000           0.000           0.000           0.000    21958223.774    89915255.683           0.000          43.000           0.000           0.000           0.000           0.000  
> 2013 06 18 13 28  2.0000000  0  7
G24  21533208.678   113157775.342           0.000          49.500           0.000           0.000           0.000           0.000           0.000           0.000           0.000           0.000    21533211.398    88174901.563           0.000          46.000           0.000           0.000           0.000           0.000  
G25  20852921.602   109582841.073           0.000          50.250           0.000           0.000           0.000           0.000           0.000           0.000           0.000           0.000    20852923.662    85389236.753           0.000          47.000           0.000           0.000           0.000           0.000  
G02  23529553.444   123648640.614           0.000          46.250           0.000           0.000           0.000           0.000           0.000           0.000           0.000           0.000    23529553.484    96349587.698           0.000          38.750           0.000           0.000           0.000           0.000  
G29  23637278.684   124214735.511           0.000          45.750           0.000           0.000           0.000           0.000           0.000           0.000           0.000           0.000    23637281.084    96790712.837           0.000          38.500           0.000           0.000           0.000           0.000  
G04  22998949.868   120860296.232           0.000          44.250           0.000           0.000           0.000           0.000           0.000           0.000           0.000           0.000    22998951.808    94176861.614           0.000          38.750           0.000           0.000           0.000           0.000  
G12  20246976.746   106398579.951           0.000          51.000           0.000           0.000           0.000           0.000           0.000           0.000           0.000           0.000    20246975.306    82907978.559           0.000          49.250           0.000           0.000           0.000           0.000  
G14  21958146.794   115390840.936           0.000          48.000           0.000           0.000           0.000           0.000           0.000           0.000           0.000           0.000    21958146.534    89914939.341           0.000          43.250           0.000           0.000           0.000           0.000  
> 2013 06 18 13 28  3.0000000  0  6
G24  21533677.738   113160240.203           0.000          49.500           0.000           0.000           0.000           0.000           0.000           0.000           0.000           0.000    21533680.458    88176822.233           0.000          46.250           0.000           0.000           0.000           0.000  
G25  20852612.362   109581216.048           0.000          50.250           0.000           0.000           0.000           0.000           0.000           0.000           0.000           0.000    20852614.422    85387970.497           0.000          47.000           0.000           0.000           0.000           0.000  
G02  23529110.744   123646314.270           0.000          46.000           0.000           0.000           0.000           0.000           0.000           0.000           0.000           0.000    23529110.784    96347774.962           0.000          39.250           0.000           0.000           0.000           0.000  
G04  22998797.368   120859494.844           0.000          43.500           0.000           0.000           0.000           0.000           0.000           0.000           0.000           0.000    22998799.308    94176237.152           0.000          39.750           0.000           0.000           0.000           0.000  
G12  20247118.346   106399324.086           0.000          51.000           0.000           0.000           0.000           0.000           0.000           0.000           0.000           0.000    20247116.926    82908558.402           0.000          49.500           0.000           0.000           0.000           0.000  
G14  21958069.534   115390434.953           0.000          47.750           0.000           0.000           0.000           0.000           0.000           0.000           0.000           0.000    21958069.274    89914622.988           0.000          42.250           0.000           0.000           0.000           0.000  
> 2013 06 18 13 28  4.0000000  0  6
G24  21534146.978   113162706.173           0.000          49.250           0.000           0.000           0.000           0.000           0.000           0.000           0.000           0.000    21534149.718    88178743.768           0.000          46.750           0.000           0.000           0.000           0.000  
G25  20852303.242   109579591.590           0.000          50.250           0.000           0.000           0.000           0.000           0.000           0.000           0.000           0.000    20852305.302    85386704.686           0.000          47.000           0.000           0.000           0.000           0.000  
G02  23528668.224   123643988.862           0.000          45.750           0.000           0.000           0.000           0.000           0.000           0.000           0.000           0.000    23528668.284    96345962.958           0.000          39.500           0.000           0.000           0.000           0.000  
G04  22998645.068   120858694.437           0.000          43.750           0.000           0.000           0.000           0.000           0.000           0.000           0.000           0.000    22998646.988    94175613.460           0.000          39.250           0.000           0.000           0.000           0.000  
G12  20247260.106   106400069.058           0.000          51.000           0.000           0.000           0.000           0.000           0.000           0.000           0.000           0.000    20247258.686    82909138.900           0.000          49.500           0.000           0.000           0.000           0.000  
G14  21957992.394   115390029.619           0.000          47.500           0.000           0.000           0.000           0.000           0.000           0.000           0.000           0.000    21957992.134    89914307.142           0.000          42.250           0.000           0.000           0.000           0.000  
> 2013 06 18 13 28  5.0000000  0  6
G24  21534616.398   113165172.992           0.000          49.500           0.000           0.000           0.000           0.000           0.000           0.000           0.000           0.000    21534619.118    88180665.962           0.000          46.250           0.000           0.000           0.000           0.000  
G25  20851994.162   109577967.380           0.000          50.250           0.000           0.000           0.000           0.000           0.000           0.000           0.000           0.000    20851996.222    85385439.063           0.000          47.000           0.000           0.000           0.000           0.000  
G02  23528225.844   123641664.205           0.000          47.000           0.000           0.000           0.000           0.000           0.000           0.000           0.000           0.000    23528225.904    96344151.543           0.000          39.250           0.000           0.000           0.000           0.000  
G04  22998492.868   120857894.694           0.000          44.500           0.000           0.000           0.000           0.000           0.000           0.000           0.000           0.000    22998494.808    94174990.284           0.000          38.500           0.000           0.000           0.000           0.000  
G12  20247401.926   106400814.287           0.000          51.000           0.000           0.000           0.000           0.000           0.000           0.000           0.000           0.000    20247400.486    82909719.596           0.000          49.250           0.000           0.000           0.000           0.000  
G14  21957915.334   115389624.716           0.000          48.000           0.000           0.000           0.000           0.000           0.000           0.000           0.000           0.000    21957915.074    89913991.633           0.000          42.750           0.000           0.000           0.000           0.000  
> 2013 06 18 13 28  6.0000000  0  6
G24  21535086.038   113167640.898           0.000          49.500           0.000           0.000           0.000           0.000           0.000           0.000           0.000           0.000    21535088.758    88182589.004           0.000          46.500           0.000           0.000           0.000           0.000  
G25  20851685.202   109576343.776           0.000          50.250           0.000           0.000           0.000           0.000           0.000           0.000           0.000           0.000    20851687.262    85384173.924           0.000          46.500           0.000           0.000           0.000           0.000  
G02  23527783.644   123639340.423           0.000          46.500           0.000           0.000           0.000           0.000           0.000           0.000           0.000           0.000    23527783.704    96342340.798           0.000          39.500           0.000           0.000           0.000           0.000  
G04  22998340.848   120857095.760           0.000          44.500           0.000           0.000           0.000           0.000           0.000           0.000           0.000           0.000    22998342.768    94174367.742           0.000          37.750           0.000           0.000           0.000           0.000  
G12  20247543.846   106401560.119           0.000          51.000           0.000           0.000           0.000           0.000           0.000           0.000           0.000           0.000    20247542.426    82910300.765           0.000          49.250           0.000           0.000           0.000           0.000  
G14  21957838.414   115389220.564           0.000          48.000           0.000           0.000           0.000           0.000           0.000           0.000           0.000           0.000    21957838.174    89913676.711           0.000          42.250           0.000           0.000           0.000           0.000  
> 2013 06 18 13 28  7.0000000  0  6
G24  21535555.838   113170109.767           0.000          49.500           0.000           0.000           0.000           0.000           0.000           0.000           0.000           0.000    21535558.558    88184512.793           0.000          46.500           0.000           0.000           0.000           0.000  
G25  20851376.362   109574720.724           0.000          50.250           0.000           0.000           0.000           0.000           0.000           0.000           0.000           0.000    20851378.402    85382909.210           0.000          46.750           0.000           0.000           0.000           0.000  
G02  23527341.604   123637017.553           0.000          45.750           0.000           0.000           0.000           0.000           0.000           0.000           0.000           0.000    23527341.664    96340530.775           0.000          38.750           0.000           0.000           0.000           0.000  
G04  22998188.988   120856297.799           0.000          43.750           0.000           0.000           0.000           0.000           0.000           0.000           0.000           0.000    22998190.928    94173745.967           0.000          39.000           0.000           0.000           0.000           0.000  
G12  20247685.906   106402306.615           0.000          51.000           0.000           0.000           0.000           0.000           0.000           0.000           0.000           0.000    20247684.466    82910882.451           0.000          49.250           0.000           0.000           0.000           0.000  
G14  21957761.654   115388817.159           0.000          47.750           0.000           0.000           0.000           0.000           0.000           0.000           0.000           0.000    21957761.414    89913362.370           0.000          42.500           0.000           0.000           0.000           0.000  
> 2013 06 18 13 28  8.0000000  0  6
G24  21536025.678   113172578.832           0.000          49.500           0.000           0.000           0.000           0.000           0.000           0.000           0.000           0.000    21536028.398    88186436.736           0.000          46.500           0.000           0.000           0.000           0.000  
G25  20851067.542   109573097.891           0.000          50.250           0.000           0.000           0.000           0.000           0.000           0.000           0.000           0.000    20851069.602    85381644.666           0.000          46.250           0.000           0.000           0.000           0.000  
G02  23526899.584   123634694.833           0.000          46.500           0.000           0.000           0.000           0.000           0.000           0.000           0.000           0.000    23526899.664    96338720.871           0.000          38.250           0.000           0.000           0.000           0.000  
G04  22998037.228   120855500.224           0.000          44.000           0.000           0.000           0.000           0.000           0.000           0.000           0.000           0.000    22998039.148    94173124.494           0.000          38.000           0.000           0.000           0.000           0.000  
G12  20247828.006   106403053.293           0.000          51.000           0.000           0.000           0.000           0.000           0.000           0.000           0.000           0.000    20247826.566    82911464.275           0.000          49.250           0.000           0.000           0.000           0.000  
G14  21957684.994   115388414.297           0.000          47.750           0.000           0.000           0.000           0.000           0.000           0.000           0.000           0.000    21957684.734    89913048.452           0.000          42.500           0.000           0.000           0.000           0.000  
> 2013 06 18 13 28  9.0000000  0  6
G24  21536495.618   113175048.336           0.000          49.500           0.000           0.000           0.000           0.000           0.000           0.000           0.000           0.000    21536498.338    88188361.023           0.000          46.250           0.000           0.000           0.000           0.000  
G25  20850758.802   109571475.477           0.000          50.250           0.000           0.000           0.000           0.000           0.000           0.000           0.000           0.000    20850760.862    85380380.448           0.000          46.750           0.000           0.000           0.000           0.000  
G02  23526457.644   123632372.364           0.000          46.250           0.000           0.000           0.000           0.000           0.000           0.000           0.000           0.000    23526457.704    96336911.150           0.000          38.750           0.000           0.000           0.000           0.000  
G04  22997885.528   120854703.106           0.000          44.250           0.000           0.000           0.000           0.000           0.000           0.000           0.000           0.000    22997887.448    94172503.359           0.000          37.750           0.000           0.000           0.000           0.000  
G12  20247970.146   106403800.262           0.000          51.000           0.000           0.000           0.000           0.000           0.000           0.000           0.000           0.000    20247968.706    82912046.329           0.000          49.250           0.000           0.000           0.000           0.000  
G14  21957608.474   115388012.200           0.000          48.000           0.000           0.000           0.000           0.000           0.000           0.000           0.000           0.000    21957608.234    89912735.131           0.000          42.500           0.000           0.000           0.000           0.000  
> 2013 06 18 13 28 10.0000000  0  6
G24  21536965.598   113177518.119           0.000          49.500           0.000           0.000           0.000           0.000           0.000           0.000           0.000           0.000    21536968.318    88190285.525           0.000          46.750           0.000           0.000           0.000           0.000  
G25  20850450.182   109569853.718           0.000          50.250           0.000           0.000           0.000           0.000           0.000           0.000           0.000           0.000    20850452.242    85379116.740           0.000          46.750           0.000           0.000           0.000           0.000  
G02  23526015.704   123630050.033           0.000          46.250           0.000           0.000           0.000           0.000           0.000           0.000           0.000           0.000    23526015.764    96335101.534           0.000          39.000           0.000           0.000           0.000           0.000  
G04  22997733.928   120853906.437           0.000          44.000           0.000           0.000           0.000           0.000           0.000           0.000           0.000           0.000    22997735.848    94171882.570           0.000          38.250           0.000           0.000           0.000           0.000  
G12  20248112.386   106404547.722           0.000          51.000           0.000           0.000           0.000           0.000           0.000           0.000           0.000           0.000    20248110.946    82912628.766           0.000          49.250           0.000           0.000           0.000           0.000  
G14  21957532.134   115387611.112           0.000          48.000           0.000           0.000           0.000           0.000           0.000           0.000           0.000           0.000    21957531.894    89912422.595           0.000          42.000           0.000           0.000           0.000           0.000  
> 2013 06 18 13 28 11.0000000  0  6
G24  21537435.638   113179988.266           0.000          49.500           0.000           0.000           0.000           0.000           0.000           0.000           0.000           0.000    21537438.378    88192210.317           0.000          46.250           0.000           0.000           0.000           0.000  
G25  20850141.662   109568232.395           0.000          50.250           0.000           0.000           0.000           0.000           0.000           0.000           0.000           0.000    20850143.722    85377853.373           0.000          46.750           0.000           0.000           0.000           0.000  
G02  23525573.764   123627727.670           0.000          46.000           0.000           0.000           0.000           0.000           0.000           0.000           0.000           0.000    23525573.824    96333291.893           0.000          38.500           0.000           0.000           0.000           0.000  
G04  22997582.308   120853109.727           0.000          43.750           0.000           0.000           0.000           0.000           0.000           0.000           0.000           0.000    22997584.228    94171261.752           0.000          38.000           0.000           0.000           0.000           0.000  
G12  20248254.626   106405295.222           0.000          51.000           0.000           0.000           0.000           0.000           0.000           0.000           0.000           0.000    20248253.186    82913211.235           0.000          49.250           0.000           0.000           0.000           0.000  
G14  21957455.954   115387210.792           0.000          47.750           0.000           0.000           0.000           0.000           0.000           0.000           0.000           0.000    21957455.734    89912110.657           0.000          42.000           0.000           0.000           0.000           0.000  
> 2013 06 18 13 28 12.0000000  0  6
G24  21537905.798   113182458.956           0.000          49.500           0.000           0.000           0.000           0.000           0.000           0.000           0.000           0.000    21537908.518    88194135.530           0.000          46.500           0.000           0.000           0.000           0.000  
G25  20849833.242   109566611.600           0.000          50.250           0.000           0.000           0.000           0.000           0.000           0.000           0.000           0.000    20849835.302    85376590.418           0.000          46.750           0.000           0.000           0.000           0.000  
G02  23525131.864   123625405.520           0.000          46.500           0.000           0.000           0.000           0.000           0.000           0.000           0.000           0.000    23525131.924    96331482.427           0.000          38.500           0.000           0.000           0.000           0.000  
G04  22997430.728   120852313.113           0.000          44.250           0.000           0.000           0.000           0.000           0.000           0.000           0.000           0.000    22997432.628    94170641.015           0.000          37.750           0.000           0.000           0.000           0.000  
G12  20248396.906   106406042.909           0.000          51.000           0.000           0.000           0.000           0.000           0.000           0.000           0.000           0.000    20248395.466    82913793.846           0.000          49.250           0.000           0.000           0.000           0.000  
G14  21957379.934   115386811.243           0.000          47.500           0.000           0.000           0.000           0.000           0.000           0.000           0.000           0.000    21957379.694    89911799.315           0.000          42.500           0.000           0.000           0.000           0.000  
> 2013 06 18 13 28 13.0000000  0  6
G24  21538376.058   113184930.157           0.000          49.500           0.000           0.000           0.000           0.000           0.000           0.000           0.000           0.000    21538378.778    88196061.145           0.000          46.500           0.000           0.000           0.000           0.000  
G25  20849524.942   109564991.531           0.000          50.250           0.000           0.000           0.000           0.000           0.000           0.000           0.000           0.000    20849527.002    85375328.026           0.000          46.750           0.000           0.000           0.000           0.000  
G02  23524690.004   123623083.535           0.000          47.000           0.000           0.000           0.000           0.000           0.000           0.000           0.000           0.000    23524690.064    96329673.094           0.000          38.500           0.000           0.000           0.000           0.000  
G04  22997279.168   120851516.739           0.000          44.000           0.000           0.000           0.000           0.000           0.000           0.000           0.000           0.000    22997281.088    94170020.465           0.000          38.750           0.000           0.000           0.000           0.000  
G12  20248539.266   106406790.973           0.000          51.000           0.000           0.000           0.000           0.000           0.000           0.000           0.000           0.000    20248537.806    82914376.750           0.000          49.250           0.000           0.000           0.000           0.000  
G14  21957304.094   115386412.725           0.000          47.500           0.000           0.000           0.000           0.000           0.000           0.000           0.000           0.000    21957303.854    89911488.779           0.000          41.750           0.000           0.000           0.000           0.000  
> 2013 06 18 13 28 14.0000000  0  6
G24  21538846.378   113187401.700           0.000          49.500           0.000           0.000           0.000           0.000           0.000           0.000           0.000           0.000    21538849.098    88197987.019           0.000          47.000           0.000           0.000           0.000           0.000  
G25  20849216.742   109563371.913           0.000          50.250           0.000           0.000           0.000           0.000           0.000           0.000           0.000           0.000    20849218.802    85374065.989           0.000          46.750           0.000           0.000           0.000           0.000  
G02  23524248.124   123620761.495           0.000          46.750           0.000           0.000           0.000           0.000           0.000           0.000           0.000           0.000    23524248.184    96327863.719           0.000          39.750           0.000           0.000           0.000           0.000  
G04  22997127.608   120850720.233           0.000          44.250           0.000           0.000           0.000           0.000           0.000           0.000           0.000           0.000    22997129.508    94169399.820           0.000          37.000           0.000           0.000           0.000           0.000  
G12  20248681.626   106407539.106           0.000          51.000           0.000           0.000           0.000           0.000           0.000           0.000           0.000           0.000    20248680.186    82914959.713           0.000          49.250           0.000           0.000           0.000           0.000  
G14  21957228.394   115386014.953           0.000          48.000           0.000           0.000           0.000           0.000           0.000           0.000           0.000           0.000    21957228.154    89911178.823           0.000          42.750           0.000           0.000           0.000           0.000  
> 2013 06 18 13 28 15.0000000  0  6
G24  21539316.718   113189873.435           0.000          49.500           0.000           0.000           0.000           0.000           0.000           0.000           0.000           0.000    21539319.458    88199913.046           0.000          46.250           0.000           0.000           0.000           0.000  
G25  20848908.642   109561752.795           0.000          50.250           0.000           0.000           0.000           0.000           0.000           0.000           0.000           0.000    20848910.702    85372804.338           0.000          46.250           0.000           0.000           0.000           0.000  
G02  23523806.244   123618439.384           0.000          47.000           0.000           0.000           0.000           0.000           0.000           0.000           0.000           0.000    23523806.304    96326054.276           0.000          40.500           0.000           0.000           0.000           0.000  
G04  22996976.048   120849923.851           0.000          44.250           0.000           0.000           0.000           0.000           0.000           0.000           0.000           0.000    22996977.968    94168779.260           0.000          39.000           0.000           0.000           0.000           0.000  
G12  20248824.026   106408287.439           0.000          51.000           0.000           0.000           0.000           0.000           0.000           0.000           0.000           0.000    20248822.586    82915542.827           0.000          49.250           0.000           0.000           0.000           0.000  
G14  21957152.874   115385618.077           0.000          47.750           0.000           0.000           0.000           0.000           0.000           0.000           0.000           0.000    21957152.634    89910869.573           0.000          42.750           0.000           0.000           0.000           0.000  
> 2013 06 18 13 28 16.0000000  0  6
G24  21539787.118   113192345.343           0.000          49.500           0.000           0.000           0.000           0.000           0.000           0.000           0.000           0.000    21539789.838    88201839.204           0.000          46.500           0.000           0.000           0.000           0.000  
G25  20848600.622   109560134.139           0.000          50.250           0.000           0.000           0.000           0.000           0.000           0.000           0.000           0.000    20848602.682    85371543.047           0.000          46.500           0.000           0.000           0.000           0.000  
G02  23523364.344   123616117.273           0.000          47.000           0.000           0.000           0.000           0.000           0.000           0.000           0.000           0.000    23523364.424    96324244.830           0.000          40.250           0.000           0.000           0.000           0.000  
G04  22996824.568   120849127.776           0.000          44.250           0.000           0.000           0.000           0.000           0.000           0.000           0.000           0.000    22996826.468    94168158.930           0.000          38.250           0.000           0.000           0.000           0.000  
G12  20248966.486   106409035.998           0.000          51.000           0.000           0.000           0.000           0.000           0.000           0.000           0.000           0.000    20248965.026    82916126.122           0.000          49.000           0.000           0.000           0.000           0.000  
G14  21957077.514   115385222.060           0.000          47.750           0.000           0.000           0.000           0.000           0.000           0.000           0.000           0.000    21957077.274    89910560.992           0.000          43.000           0.000           0.000           0.000           0.000  
> 2013 06 18 13 28 17.0000000  0  6
G24  21540257.578   113194817.706           0.000          49.500           0.000           0.000           0.000           0.000           0.000           0.000           0.000           0.000    21540260.318    88203765.721           0.000          46.500           0.000           0.000           0.000           0.000  
G25  20848292.702   109558516.042           0.000          50.250           0.000           0.000           0.000           0.000           0.000           0.000           0.000           0.000    20848294.762    85370282.189           0.000          46.250           0.000           0.000           0.000           0.000  
G02  23522922.484   123613795.344           0.000          47.250           0.000           0.000           0.000           0.000           0.000           0.000           0.000           0.000    23522922.564    96322435.537           0.000          38.750           0.000           0.000           0.000           0.000  
G04  22996673.128   120848332.035           0.000          44.250           0.000           0.000           0.000           0.000           0.000           0.000           0.000           0.000    22996675.028    94167538.874           0.000          37.250           0.000           0.000           0.000           0.000  
G12  20249108.986   106409784.875           0.000          51.000           0.000           0.000           0.000           0.000           0.000           0.000           0.000           0.000    20249107.526    82916709.662           0.000          49.250           0.000           0.000           0.000           0.000  
G14  21957002.314   115384826.905           0.000          47.750           0.000           0.000           0.000           0.000           0.000           0.000           0.000           0.000    21957002.094    89910253.081           0.000          42.750           0.000           0.000           0.000           0.000  
> 2013 06 18 13 28 18.0000000  0  6
G24  21540728.098   113197290.305           0.000          49.500           0.000           0.000           0.000           0.000           0.000           0.000           0.000           0.000    21540730.838    88205692.421           0.000          46.250           0.000           0.000           0.000           0.000  
G25  20847984.882   109556898.429           0.000          50.250           0.000           0.000           0.000           0.000           0.000           0.000           0.000           0.000    20847986.942    85369021.716           0.000          46.500           0.000           0.000           0.000           0.000  
G02  23522480.644   123611473.448           0.000          46.750           0.000           0.000           0.000           0.000           0.000           0.000           0.000           0.000    23522480.724    96320626.270           0.000          38.500           0.000           0.000           0.000           0.000  
G04  22996521.748   120847536.459           0.000          44.000           0.000           0.000           0.000           0.000           0.000           0.000           0.000           0.000    22996523.628    94166918.953           0.000          38.000           0.000           0.000           0.000           0.000  
G12  20249251.526   106410533.956           0.000          51.000           0.000           0.000           0.000           0.000           0.000           0.000           0.000           0.000    20249250.086    82917293.364           0.000          49.250           0.000           0.000           0.000           0.000  
G14  21956927.274   115384432.596           0.000          47.750           0.000           0.000           0.000           0.000           0.000           0.000           0.000           0.000    21956927.054    89909945.829           0.000          42.500           0.000           0.000           0.000           0.000  
> 2013 06 18 13 28 19.0000000  0  6
G24  21541198.758   113199763.603           0.000          49.500           0.000           0.000           0.000           0.000           0.000           0.000           0.000           0.000    21541201.498    88207619.665           0.000          46.250           0.000           0.000           0.000           0.000  
G25  20847677.202   109555281.500           0.000          50.250           0.000           0.000           0.000           0.000           0.000           0.000           0.000           0.000    20847679.242    85367761.772           0.000          46.250           0.000           0.000           0.000           0.000  
G02  23522038.864   123609151.934           0.000          46.750           0.000           0.000           0.000           0.000           0.000           0.000           0.000           0.000    23522038.944    96318817.297           0.000          40.000           0.000           0.000           0.000           0.000  
G04  22996370.428   120846741.286           0.000          44.250           0.000           0.000           0.000           0.000           0.000           0.000           0.000           0.000    22996372.308    94166299.341           0.000          36.750           0.000           0.000           0.000           0.000  
G12  20249394.166   106411283.458           0.000          51.000           0.000           0.000           0.000           0.000           0.000           0.000           0.000           0.000    20249392.706    82917877.389           0.000          49.250           0.000           0.000           0.000           0.000  
G14  21956852.414   115384039.273           0.000          47.500           0.000           0.000           0.000           0.000           0.000           0.000           0.000           0.000    21956852.214    89909639.341           0.000          42.750           0.000           0.000           0.000           0.000  
> 2013 06 18 13 28 20.0000000  0  6
G24  21541669.418   113202236.975           0.000          49.500           0.000           0.000           0.000           0.000           0.000           0.000           0.000           0.000    21541672.158    88209546.965           0.000          46.500           0.000           0.000           0.000           0.000  
G25  20847369.602   109553665.048           0.000          50.250           0.000           0.000           0.000           0.000           0.000           0.000           0.000           0.000    20847371.642    85366502.200           0.000          46.500           0.000           0.000           0.000           0.000  
G02  23521597.104   123606830.454           0.000          47.250           0.000           0.000           0.000           0.000           0.000           0.000           0.000           0.000    23521597.184    96317008.352           0.000          38.500           0.000           0.000           0.000           0.000  
G04  22996219.208   120845946.640           0.000          44.250           0.000           0.000           0.000           0.000           0.000           0.000           0.000           0.000    22996221.088    94165680.127           0.000          37.500           0.000           0.000           0.000           0.000  
G12  20249536.846   106412033.289           0.000          51.000           0.000           0.000           0.000           0.000           0.000           0.000           0.000           0.000    20249535.386    82918461.675           0.000          49.250           0.000           0.000           0.000           0.000  
G14  21956777.734   115383646.858           0.000          47.500           0.000           0.000           0.000           0.000           0.000           0.000           0.000           0.000    21956777.534    89909333.560           0.000          42.500           0.000           0.000           0.000           0.000  
> 2013 06 18 13 28 21.0000000  0  6
G24  21542140.158   113204710.752           0.000          49.500           0.000           0.000           0.000           0.000           0.000           0.000           0.000           0.000    21542142.898    88211474.581           0.000          46.250           0.000           0.000           0.000           0.000  
G25  20847062.102   109552049.180           0.000          50.250           0.000           0.000           0.000           0.000           0.000           0.000           0.000           0.000    20847064.162    85365243.084           0.000          46.250           0.000           0.000           0.000           0.000  
G02  23521155.364   123604509.168           0.000          47.250           0.000           0.000           0.000           0.000           0.000           0.000           0.000           0.000    23521155.444    96315199.558           0.000          40.000           0.000           0.000           0.000           0.000  
G04  22996068.068   120845152.436           0.000          44.500           0.000           0.000           0.000           0.000           0.000           0.000           0.000           0.000    22996069.948    94165061.260           0.000          37.500           0.000           0.000           0.000           0.000  
G12  20249679.626   106412783.564           0.000          51.000           0.000           0.000           0.000           0.000           0.000           0.000           0.000           0.000    20249678.166    82919046.305           0.000          49.000           0.000           0.000           0.000           0.000  
G14  21956703.254   115383255.390           0.000          47.500           0.000           0.000           0.000           0.000           0.000           0.000           0.000           0.000    21956703.034    89909028.517           0.000          41.750           0.000           0.000           0.000           0.000  
> 2013 06 18 13 28 22.0000000  0  6
G24  21542610.958   113207184.778           0.000          49.500           0.000           0.000           0.000           0.000           0.000           0.000           0.000           0.000    21542613.698    88213402.392           0.000          46.500           0.000           0.000           0.000           0.000  
G25  20846754.682   109550433.656           0.000          50.250           0.000           0.000           0.000           0.000           0.000           0.000           0.000           0.000    20846756.722    85363984.236           0.000          46.750           0.000           0.000           0.000           0.000  
G02  23520713.664   123602187.966           0.000          46.750           0.000           0.000           0.000           0.000           0.000           0.000           0.000           0.000    23520713.744    96313390.835           0.000          38.750           0.000           0.000           0.000           0.000  
G04  22995917.008   120844358.577           0.000          44.500           0.000           0.000           0.000           0.000           0.000           0.000           0.000           0.000    22995918.888    94164442.668           0.000          39.250           0.000           0.000           0.000           0.000  
G12  20249822.426   106413534.004           0.000          51.000           0.000           0.000           0.000           0.000           0.000           0.000           0.000           0.000    20249820.966    82919631.063           0.000          49.250           0.000           0.000           0.000           0.000  
G14  21956628.874   115382864.615           0.000          47.500           0.000           0.000           0.000           0.000           0.000           0.000           0.000           0.000    21956628.674    89908724.017           0.000          42.000           0.000           0.000           0.000           0.000  
> 2013 06 18 13 28 23.0000000  0  6
G24  21543081.778   113209658.980           0.000          49.500           0.000           0.000           0.000           0.000           0.000           0.000           0.000           0.000    21543084.518    88215330.341           0.000          46.250           0.000           0.000           0.000           0.000  
G25  20846447.362   109548818.683           0.000          50.250           0.000           0.000           0.000           0.000           0.000           0.000           0.000           0.000    20846449.402    85362725.816           0.000          46.750           0.000           0.000           0.000           0.000  
G02  23520271.984   123599866.941           0.000          46.750           0.000           0.000           0.000           0.000           0.000           0.000           0.000           0.000    23520272.064    96311582.254           0.000          39.750           0.000           0.000           0.000           0.000  
G04  22995766.048   120843565.334           0.000          44.500           0.000           0.000           0.000           0.000           0.000           0.000           0.000           0.000    22995767.928    94163824.551           0.000          40.000           0.000           0.000           0.000           0.000  
G12  20249965.326   106414284.911           0.000          51.000           0.000           0.000           0.000           0.000           0.000           0.000           0.000           0.000    20249963.866    82920216.184           0.000          49.250           0.000           0.000           0.000           0.000  
G14  21956554.714   115382474.841           0.000          47.500           0.000           0.000           0.000           0.000           0.000           0.000           0.000           0.000    21956554.514    89908420.299           0.000          42.500           0.000           0.000           0.000           0.000  
> 2013 06 18 13 28 24.0000000  0  6
G24  21543552.638   113212133.379           0.000          49.500           0.000           0.000           0.000           0.000           0.000           0.000           0.000           0.000    21543555.378    88217258.443           0.000          46.500           0.000           0.000           0.000           0.000  
G25  20846140.142   109547204.224           0.000          50.500           0.000           0.000           0.000           0.000           0.000           0.000           0.000           0.000    20846142.182    85361467.793           0.000          46.750           0.000           0.000           0.000           0.000  
G02  23519830.324   123597546.020           0.000          47.000           0.000           0.000           0.000           0.000           0.000           0.000           0.000           0.000    23519830.404    96309773.742           0.000          40.000           0.000           0.000           0.000           0.000  
G04  22995615.188   120842772.602           0.000          44.500           0.000           0.000           0.000           0.000           0.000           0.000           0.000           0.000    22995617.068    94163206.844           0.000          38.000           0.000           0.000           0.000           0.000  
G12  20250108.286   106415036.247           0.000          51.000           0.000           0.000           0.000           0.000           0.000           0.000           0.000           0.000    20250106.826    82920801.639           0.000          49.250           0.000           0.000           0.000           0.000  
G14  21956480.714   115382085.984           0.000          47.500           0.000           0.000           0.000           0.000           0.000           0.000           0.000           0.000    21956480.514    89908117.298           0.000          42.250           0.000           0.000           0.000           0.000  
> 2013 06 18 13 28 25.0000000  0  6
G24  21544023.578   113214608.225           0.000          49.250           0.000           0.000           0.000           0.000           0.000           0.000           0.000           0.000    21544026.318    88219186.892           0.000          46.500           0.000           0.000           0.000           0.000  
G25  20845833.042   109545590.365           0.000          50.500           0.000           0.000           0.000           0.000           0.000           0.000           0.000           0.000    20845835.082    85360210.241           0.000          47.000           0.000           0.000           0.000           0.000  
G02  23519388.704   123595225.373           0.000          47.000           0.000           0.000           0.000           0.000           0.000           0.000           0.000           0.000    23519388.784    96307965.456           0.000          39.500           0.000           0.000           0.000           0.000  
G04  22995464.448   120841980.421           0.000          44.250           0.000           0.000           0.000           0.000           0.000           0.000           0.000           0.000    22995466.328    94162589.560           0.000          37.750           0.000           0.000           0.000           0.000  
G12  20250251.346   106415787.991           0.000          51.000           0.000           0.000           0.000           0.000           0.000           0.000           0.000           0.000    20250249.886    82921387.413           0.000          49.250           0.000           0.000           0.000           0.000  
G14  21956406.894   115381698.054           0.000          47.750           0.000           0.000           0.000           0.000           0.000           0.000           0.000           0.000    21956406.694    89907815.014           0.000          42.500           0.000           0.000           0.000           0.000  
> 2013 06 18 13 28 26.0000000  0  6
G24  21544494.558   113217083.247           0.000          49.500           0.000           0.000           0.000           0.000           0.000           0.000           0.000           0.000    21544497.298    88221115.476           0.000          46.250           0.000           0.000           0.000           0.000  
G25  20845526.002   109543976.875           0.000          50.250           0.000           0.000           0.000           0.000           0.000           0.000           0.000           0.000    20845528.042    85358952.976           0.000          46.500           0.000           0.000           0.000           0.000  
G02  23518947.124   123592904.904           0.000          47.500           0.000           0.000           0.000           0.000           0.000           0.000           0.000           0.000    23518947.224    96306157.305           0.000          39.000           0.000           0.000           0.000           0.000  
G04  22995313.788   120841188.771           0.000          44.750           0.000           0.000           0.000           0.000           0.000           0.000           0.000           0.000    22995315.668    94161972.696           0.000          38.500           0.000           0.000           0.000           0.000  
G12  20250394.466   106416540.065           0.000          51.000           0.000           0.000           0.000           0.000           0.000           0.000           0.000           0.000    20250393.006    82921973.447           0.000          49.250           0.000           0.000           0.000           0.000  
G14  21956333.214   115381310.924           0.000          47.500           0.000           0.000           0.000           0.000           0.000           0.000           0.000           0.000    21956333.014    89907513.351           0.000          41.750           0.000           0.000           0.000           0.000  
> 2013 06 18 13 28 27.0000000  0  6
G24  21544965.678   113219558.944           0.000          49.500           0.000           0.000           0.000           0.000           0.000           0.000           0.000           0.000    21544968.418    88223044.591           0.000          46.500           0.000           0.000           0.000           0.000  
G25  20845219.062   109542363.939           0.000          50.250           0.000           0.000           0.000           0.000           0.000           0.000           0.000           0.000    20845221.122    85357696.145           0.000          46.500           0.000           0.000           0.000           0.000  
G02  23518505.684   123590585.069           0.000          47.000           0.000           0.000           0.000           0.000           0.000           0.000           0.000           0.000    23518505.764    96304349.645           0.000          38.750           0.000           0.000           0.000           0.000  
G04  22995163.328   120840398.069           0.000          44.750           0.000           0.000           0.000           0.000           0.000           0.000           0.000           0.000    22995165.208    94161356.565           0.000          39.500           0.000           0.000           0.000           0.000  
G12  20250537.686   106417292.754           0.000          51.000           0.000           0.000           0.000           0.000           0.000           0.000           0.000           0.000    20250536.226    82922559.954           0.000          49.250           0.000           0.000           0.000           0.000  
G14  21956259.714   115380924.647           0.000          47.500           0.000           0.000           0.000           0.000           0.000           0.000           0.000           0.000    21956259.514    89907212.359           0.000          41.750           0.000           0.000           0.000           0.000  
> 2013 06 18 13 28 28.0000000  0  6
G24  21545436.858   113222035.009           0.000          49.500           0.000           0.000           0.000           0.000           0.000           0.000           0.000           0.000    21545439.598    88224973.992           0.000          46.500           0.000           0.000           0.000           0.000  
G25  20844912.162   109540751.150           0.000          50.250           0.000           0.000           0.000           0.000           0.000           0.000           0.000           0.000    20844914.222    85356439.431           0.000          46.250           0.000           0.000           0.000           0.000  
G02  23518064.304   123588265.640           0.000          47.250           0.000           0.000           0.000           0.000           0.000           0.000           0.000           0.000    23518064.384    96302542.300           0.000          38.500           0.000           0.000           0.000           0.000  
G04  22995012.988   120839608.027           0.000          44.000           0.000           0.000           0.000           0.000           0.000           0.000           0.000           0.000    22995014.848    94160740.954           0.000          37.250           0.000           0.000           0.000           0.000  
G12  20250680.966   106418045.662           0.000          51.000           0.000           0.000           0.000           0.000           0.000           0.000           0.000           0.000    20250679.506    82923146.635           0.000          49.500           0.000           0.000           0.000           0.000  
G14  21956186.274   115380538.836           0.000          47.750           0.000           0.000           0.000           0.000           0.000           0.000           0.000           0.000    21956186.094    89906911.722           0.000          43.250           0.000           0.000           0.000           0.000  
> 2013 06 18 13 28 29.0000000  0  6
G24  21545908.138   113224511.623           0.000          49.750           0.000           0.000           0.000           0.000           0.000           0.000           0.000           0.000    21545910.878    88226903.817           0.000          45.750           0.000           0.000           0.000           0.000  
G25  20844605.222   109539138.204           0.000          50.250           0.000           0.000           0.000           0.000           0.000           0.000           0.000           0.000    20844607.282    85355182.589           0.000          46.500           0.000           0.000           0.000           0.000  
G02  23517623.084   123585946.990           0.000          46.000           0.000           0.000           0.000           0.000           0.000           0.000           0.000           0.000    23517623.164    96300735.550           0.000          39.000           0.000           0.000           0.000           0.000  
G04  22994862.808   120838818.868           0.000          44.500           0.000           0.000           0.000           0.000           0.000           0.000           0.000           0.000    22994864.688    94160126.031           0.000          39.000           0.000           0.000           0.000           0.000  
G12  20250824.266   106418798.711           0.000          51.000           0.000           0.000           0.000           0.000           0.000           0.000           0.000           0.000    20250822.806    82923733.428           0.000          49.500           0.000           0.000           0.000           0.000  
G14  21956112.874   115380153.090           0.000          48.250           0.000           0.000           0.000           0.000           0.000           0.000           0.000           0.000    21956112.694    89906611.143           0.000          43.000           0.000           0.000           0.000           0.000  
> 2013 06 18 13 28 30.0000000  0  6
G24  21546379.658   113226989.482           0.000          49.500           0.000           0.000           0.000           0.000           0.000           0.000           0.000           0.000    21546382.398    88228834.615           0.000          45.750           0.000           0.000           0.000           0.000  
G25  20844298.302   109537525.226           0.000          50.000           0.000           0.000           0.000           0.000           0.000           0.000           0.000           0.000    20844300.342    85353925.723           0.000          46.500           0.000           0.000           0.000           0.000  
G02  23517182.084   123583629.606           0.000          46.250           0.000           0.000           0.000           0.000           0.000           0.000           0.000           0.000    23517182.164    96298929.800           0.000          38.500           0.000           0.000           0.000           0.000  
G04  22994712.868   120838030.875           0.000          45.000           0.000           0.000           0.000           0.000           0.000           0.000           0.000           0.000    22994714.728    94159512.025           0.000          37.500           0.000           0.000           0.000           0.000  
G12  20250967.666   106419552.220           0.000          51.000           0.000           0.000           0.000           0.000           0.000           0.000           0.000           0.000    20250966.186    82924320.580           0.000          49.500           0.000           0.000           0.000           0.000  
G14  21956039.454   115379767.276           0.000          48.000           0.000           0.000           0.000           0.000           0.000           0.000           0.000           0.000    21956039.274    89906310.515           0.000          42.250           0.000           0.000           0.000           0.000  
> 2013 06 18 13 28 31.0000000  0  6
G24  21546851.398   113229468.537           0.000          49.500           0.000           0.000           0.000           0.000           0.000           0.000           0.000           0.000    21546854.158    88230766.344           0.000          45.500           0.000           0.000           0.000           0.000  
G25  20843991.302   109535912.014           0.000          50.250           0.000           0.000           0.000           0.000           0.000           0.000           0.000           0.000    20843993.362    85352668.679           0.000          46.750           0.000           0.000           0.000           0.000  
G02  23516741.364   123581313.615           0.000          46.500           0.000           0.000           0.000           0.000           0.000           0.000           0.000           0.000    23516741.444    96297125.137           0.000          39.500           0.000           0.000           0.000           0.000  
G04  22994563.128   120837244.007           0.000          45.250           0.000           0.000           0.000           0.000           0.000           0.000           0.000           0.000    22994564.988    94158898.887           0.000          39.750           0.000           0.000           0.000           0.000  
G12  20251111.106   106420306.060           0.000          51.000           0.000           0.000           0.000           0.000           0.000           0.000           0.000           0.000    20251109.646    82924907.984           0.000          49.250           0.000           0.000           0.000           0.000  
G14  21955965.994   115379381.254           0.000          48.000           0.000           0.000           0.000           0.000           0.000           0.000           0.000           0.000    21955965.814    89906009.718           0.000          42.250           0.000           0.000           0.000           0.000  
> 2013 06 18 13 28 32.0000000  0  6
G24  21547323.358   113231948.696           0.000          49.250           0.000           0.000           0.000           0.000           0.000           0.000           0.000           0.000    21547326.098    88232698.929           0.000          45.500           0.000           0.000           0.000           0.000  
G25  20843684.302   109534298.718           0.000          50.000           0.000           0.000           0.000           0.000           0.000           0.000           0.000           0.000    20843686.362    85351411.566           0.000          46.250           0.000           0.000           0.000           0.000  
G02  23516300.864   123578998.819           0.000          45.000           0.000           0.000           0.000           0.000           0.000           0.000           0.000           0.000    23516300.964    96295321.405           0.000          39.750           0.000           0.000           0.000           0.000  
G04  22994413.628   120836458.443           0.000          45.500           0.000           0.000           0.000           0.000           0.000           0.000           0.000           0.000    22994415.508    94158286.761           0.000          39.500           0.000           0.000           0.000           0.000  
G12  20251254.646   106421060.399           0.000          51.000           0.000           0.000           0.000           0.000           0.000           0.000           0.000           0.000    20251253.186    82925495.781           0.000          49.250           0.000           0.000           0.000           0.000  
G14  21955892.514   115378995.161           0.000          48.250           0.000           0.000           0.000           0.000           0.000           0.000           0.000           0.000    21955892.354    89905708.867           0.000          42.500           0.000           0.000           0.000           0.000  
> 2013 06 18 13 28 33.0000000  0  6
G24  21547795.478   113234429.714           0.000          49.500           0.000           0.000           0.000           0.000           0.000           0.000           0.000           0.000    21547798.218    88234632.186           0.000          45.000           0.000           0.000           0.000           0.000  
G25  20843377.302   109532685.407           0.000          50.250           0.000           0.000           0.000           0.000           0.000           0.000           0.000           0.000    20843379.362    85350154.444           0.000          46.500           0.000           0.000           0.000           0.000  
G02  23515860.564   123576684.993           0.000          46.250           0.000           0.000           0.000           0.000           0.000           0.000           0.000           0.000    23515860.644    96293518.423           0.000          39.000           0.000           0.000           0.000           0.000  
G04  22994264.328   120835673.842           0.000          44.500           0.000           0.000           0.000           0.000           0.000           0.000           0.000           0.000    22994266.188    94157675.371           0.000          38.750           0.000           0.000           0.000           0.000  
G12  20251398.266   106421815.078           0.000          51.000           0.000           0.000           0.000           0.000           0.000           0.000           0.000           0.000    20251396.806    82926083.840           0.000          49.500           0.000           0.000           0.000           0.000  
G14  21955819.074   115378609.176           0.000          48.000           0.000           0.000           0.000           0.000           0.000           0.000           0.000           0.000    21955818.894    89905408.097           0.000          42.250           0.000           0.000           0.000           0.000  
> 2013 06 18 13 28 34.0000000  0  6
G24  21548267.818   113236911.917           0.000          49.500           0.000           0.000           0.000           0.000           0.000           0.000           0.000           0.000    21548270.578    88236566.366           0.000          45.000           0.000           0.000           0.000           0.000  
G25  20843070.282   109531071.979           0.000          50.250           0.000           0.000           0.000           0.000           0.000           0.000           0.000           0.000    20843072.322    85348897.226           0.000          47.000           0.000           0.000           0.000           0.000  
G02  23515420.444   123574372.146           0.000          45.750           0.000           0.000           0.000           0.000           0.000           0.000           0.000           0.000    23515420.524    96291716.197           0.000          39.500           0.000           0.000           0.000           0.000  
G04  22994115.108   120834889.657           0.000          45.750           0.000           0.000           0.000           0.000           0.000           0.000           0.000           0.000    22994116.968    94157064.320           0.000          38.250           0.000           0.000           0.000           0.000  
G12  20251541.866   106422569.711           0.000          51.000           0.000           0.000           0.000           0.000           0.000           0.000           0.000           0.000    20251540.406    82926671.864           0.000          49.250           0.000           0.000           0.000           0.000  
G14  21955745.594   115378223.060           0.000          47.750           0.000           0.000           0.000           0.000           0.000           0.000           0.000           0.000    21955745.434    89905107.228           0.000          42.500           0.000           0.000           0.000           0.000  
> 2013 06 18 13 28 35.0000000  0  6
G24  21548740.398   113239395.344           0.000          49.500           0.000           0.000           0.000           0.000           0.000           0.000           0.000           0.000    21548743.158    88238501.498           0.000          44.500           0.000           0.000           0.000           0.000  
G25  20842763.282   109529458.634           0.000          50.250           0.000           0.000           0.000           0.000           0.000           0.000           0.000           0.000    20842765.322    85347640.071           0.000          46.750           0.000           0.000           0.000           0.000  
G02  23514980.484   123572060.157           0.000          46.000           0.000           0.000           0.000           0.000           0.000           0.000           0.000           0.000    23514980.564    96289914.653           0.000          39.500           0.000           0.000           0.000           0.000  
G04  22993965.908   120834105.671           0.000          45.750           0.000           0.000           0.000           0.000           0.000           0.000           0.000           0.000    22993967.768    94156453.424           0.000          37.750           0.000           0.000           0.000           0.000  
G12  20251685.466   106423324.363           0.000          51.000           0.000           0.000           0.000           0.000           0.000           0.000           0.000           0.000    20251684.006    82927259.902           0.000          49.250           0.000           0.000           0.000           0.000  
G14  21955672.134   115377836.996           0.000          47.750           0.000           0.000           0.000           0.000           0.000           0.000           0.000           0.000    21955671.954    89904806.397           0.000          42.500           0.000           0.000           0.000           0.000  
> 2013 06 18 13 28 36.0000000  0  6
G24  21549213.258   113241880.206           0.000          49.250           0.000           0.000           0.000           0.000           0.000           0.000           0.000           0.000    21549215.998    88240437.748           0.000          45.000           0.000           0.000           0.000           0.000  
G25  20842456.282   109527845.422           0.000          50.250           0.000           0.000           0.000           0.000           0.000           0.000           0.000           0.000    20842458.342    85346383.025           0.000          46.500           0.000           0.000           0.000           0.000  
G02  23514540.704   123569749.200           0.000          46.250           0.000           0.000           0.000           0.000           0.000           0.000           0.000           0.000    23514540.804    96288113.915           0.000          39.000           0.000           0.000           0.000           0.000  
G04  22993816.748   120833321.814           0.000          45.250           0.000           0.000           0.000           0.000           0.000           0.000           0.000           0.000    22993818.608    94155842.618           0.000          38.000           0.000           0.000           0.000           0.000  
G12  20251829.066   106424078.960           0.000          51.000           0.000           0.000           0.000           0.000           0.000           0.000           0.000           0.000    20251827.606    82927847.900           0.000          49.250           0.000           0.000           0.000           0.000  
G14  21955598.674   115377450.982           0.000          47.500           0.000           0.000           0.000           0.000           0.000           0.000           0.000           0.000    21955598.494    89904505.600           0.000          42.500           0.000           0.000           0.000           0.000  
> 2013 06 18 13 28 37.0000000  0  6
G24  21549686.518   113244367.225           0.000          49.250           0.000           0.000           0.000           0.000           0.000           0.000           0.000           0.000    21549689.258    88242375.676           0.000          44.750           0.000           0.000           0.000           0.000  
G25  20842149.422   109526232.775           0.000          50.500           0.000           0.000           0.000           0.000           0.000           0.000           0.000           0.000    20842151.462    85345126.417           0.000          46.750           0.000           0.000           0.000           0.000  
G02  23514101.244   123567439.819           0.000          46.500           0.000           0.000           0.000           0.000           0.000           0.000           0.000           0.000    23514101.344    96286314.402           0.000          40.500           0.000           0.000           0.000           0.000  
G04  22993667.668   120832538.417           0.000          45.500           0.000           0.000           0.000           0.000           0.000           0.000           0.000           0.000    22993669.528    94155232.179           0.000          38.000           0.000           0.000           0.000           0.000  
G12  20251972.726   106424833.930           0.000          51.000           0.000           0.000           0.000           0.000           0.000           0.000           0.000           0.000    20251971.266    82928436.188           0.000          49.250           0.000           0.000           0.000           0.000  
G14  21955525.274   115377065.349           0.000          47.500           0.000           0.000           0.000           0.000           0.000           0.000           0.000           0.000    21955525.114    89904205.099           0.000          41.500           0.000           0.000           0.000           0.000  
> 2013 06 18 13 28 38.0000000  0  6
G24  21550160.098   113246855.944           0.000          49.250           0.000           0.000           0.000           0.000           0.000           0.000           0.000           0.000    21550162.858    88244314.932           0.000          45.500           0.000           0.000           0.000           0.000  
G25  20841842.582   109524620.349           0.000          50.250           0.000           0.000           0.000           0.000           0.000           0.000           0.000           0.000    20841844.622    85343869.979           0.000          46.500           0.000           0.000           0.000           0.000  
G02  23513662.004   123565131.632           0.000          45.000           0.000           0.000           0.000           0.000           0.000           0.000           0.000           0.000    23513662.104    96284515.818           0.000          39.000           0.000           0.000           0.000           0.000  
G04  22993518.648   120831755.273           0.000          44.750           0.000           0.000           0.000           0.000           0.000           0.000           0.000           0.000    22993520.488    94154621.934           0.000          36.750           0.000           0.000           0.000           0.000  
G12  20252116.426   106425588.987           0.000          51.000           0.000           0.000           0.000           0.000           0.000           0.000           0.000           0.000    20252114.946    82929024.544           0.000          49.500           0.000           0.000           0.000           0.000  
G14  21955451.914   115376679.814           0.000          47.500           0.000           0.000           0.000           0.000           0.000           0.000           0.000           0.000    21955451.754    89903904.673           0.000          41.750           0.000           0.000           0.000           0.000  
> 2013 06 18 13 28 39.0000000  0  6
G24  21550633.958   113249346.116           0.000          49.250           0.000           0.000           0.000           0.000           0.000           0.000           0.000           0.000    21550636.718    88246255.322           0.000          45.250           0.000           0.000           0.000           0.000  
G25  20841535.762   109523008.028           0.000          50.500           0.000           0.000           0.000           0.000           0.000           0.000           0.000           0.000    20841537.802    85342613.623           0.000          46.750           0.000           0.000           0.000           0.000  
G02  23513222.984   123562824.582           0.000          46.000           0.000           0.000           0.000           0.000           0.000           0.000           0.000           0.000    23513223.084    96282718.121           0.000          38.000           0.000           0.000           0.000           0.000  
G04  22993369.648   120830972.291           0.000          45.500           0.000           0.000           0.000           0.000           0.000           0.000           0.000           0.000    22993371.488    94154011.817           0.000          37.500           0.000           0.000           0.000           0.000  
G12  20252260.086   106426343.996           0.000          51.000           0.000           0.000           0.000           0.000           0.000           0.000           0.000           0.000    20252258.626    82929612.861           0.000          49.500           0.000           0.000           0.000           0.000  
G14  21955378.554   115376294.307           0.000          48.000           0.000           0.000           0.000           0.000           0.000           0.000           0.000           0.000    21955378.394    89903604.274           0.000          41.500           0.000           0.000           0.000           0.000  
> 2013 06 18 13 28 40.0000000  0  6
G24  21551108.218   113251838.301           0.000          49.000           0.000           0.000           0.000           0.000           0.000           0.000           0.000           0.000    21551110.958    88248197.282           0.000          45.000           0.000           0.000           0.000           0.000  
G25  20841229.002   109521395.972           0.000          50.500           0.000           0.000           0.000           0.000           0.000           0.000           0.000           0.000    20841231.042    85341357.473           0.000          46.750           0.000           0.000           0.000           0.000  
G02  23512784.224   123560518.861           0.000          45.750           0.000           0.000           0.000           0.000           0.000           0.000           0.000           0.000    23512784.324    96280921.466           0.000          39.750           0.000           0.000           0.000           0.000  
G04  22993220.688   120830189.503           0.000          45.250           0.000           0.000           0.000           0.000           0.000           0.000           0.000           0.000    22993222.528    94153401.854           0.000          37.250           0.000           0.000           0.000           0.000  
G12  20252403.786   106427099.074           0.000          51.000           0.000           0.000           0.000           0.000           0.000           0.000           0.000           0.000    20252402.306    82930201.233           0.000          49.250           0.000           0.000           0.000           0.000  
G14  21955305.194   115375908.832           0.000          47.750           0.000           0.000           0.000           0.000           0.000           0.000           0.000           0.000    21955305.034    89903303.902           0.000          41.750           0.000           0.000           0.000           0.000  
> 2013 06 18 13 28 43.0000000  0  5
G25  20840308.982   109516562.1431          0.000          50.500           0.000           0.000           0.000           0.000           0.000           0.000           0.000           0.000           0.000           0.000           0.000           0.000           0.000           0.000           0.000           0.000  
G02  23511469.604   123553610.510           0.000          40.500           0.000           0.000           0.000           0.000           0.000           0.000           0.000           0.000    23511470.264    96275533.891           0.000          34.250           0.000           0.000           0.000           0.000  
G04  22992774.368   120827843.847           0.000          45.250           0.000           0.000           0.000           0.000           0.000           0.000           0.000           0.000    22992776.208    94151574.079           0.000          38.500           0.000           0.000           0.000           0.000  
G12  20252835.046   106429366.240           0.000          51.000           0.000           0.000           0.000           0.000           0.000           0.000           0.000           0.000    20252833.566    82931967.060           0.000          49.250           0.000           0.000           0.000           0.000  
G14  21955084.914   115374749.263           0.000          48.000           0.000           0.000           0.000           0.000           0.000           0.000           0.000           0.000    21955084.834    89902401.692           0.000          41.750           0.000           0.000           0.000           0.000  
> 2013 06 18 13 28 44.0000000  0  5
G24  21553009.918   113261830.173           0.000          47.500           0.000           0.000           0.000           0.000           0.000           0.000           0.000           0.000    21553011.818    88255980.132           0.000          43.750           0.000           0.000           0.000           0.000  
G25  20840002.702   109514951.806           0.000          50.250           0.000           0.000           0.000           0.000           0.000           0.000           0.000           0.000    20840004.402    85336333.2711          0.000          46.500           0.000           0.000           0.000           0.000  
G04  22992626.188   120827065.238           0.000          45.000           0.000           0.000           0.000           0.000           0.000           0.000           0.000           0.000    22992628.028    94150967.349           0.000          39.250           0.000           0.000           0.000           0.000  
G12  20252979.126   106430123.628           0.000          51.000           0.000           0.000           0.000           0.000           0.000           0.000           0.000           0.000    20252977.606    82932557.255           0.000          49.250           0.000           0.000           0.000           0.000  
G14  21955011.694   115374364.448           0.000          48.000           0.000           0.000           0.000           0.000           0.000           0.000           0.000           0.000    21955011.594    89902101.837           0.000          42.000           0.000           0.000           0.000           0.000  
> 2013 06 18 13 28 45.0000000  0  5
G24  21553487.178   113264338.359           0.000          49.250           0.000           0.000           0.000           0.000           0.000           0.000           0.000           0.000    21553489.418    88257934.579           0.000          45.750           0.000           0.000           0.000           0.000  
G25  20839697.062   109513345.415           0.000          50.250           0.000           0.000           0.000           0.000           0.000           0.000           0.000           0.000    20839698.762    85335081.530           0.000          46.250           0.000           0.000           0.000           0.000  
G04  22992478.908   120826291.300           0.000          45.500           0.000           0.000           0.000           0.000           0.000           0.000           0.000           0.000    22992480.748    94150364.289           0.000          39.000           0.000           0.000           0.000           0.000  
G12  20253123.966   106430885.098           0.000          51.000           0.000           0.000           0.000           0.000           0.000           0.000           0.000           0.000    20253122.566    82933150.602           0.000          49.500           0.000           0.000           0.000           0.000  
G14  21954939.194   115373983.384           0.000          47.750           0.000           0.000           0.000           0.000           0.000           0.000           0.000           0.000    21954939.074    89901804.909           0.000          41.750           0.000           0.000           0.000           0.000  
> 2013 06 18 13 28 46.0000000  0  5
G24  21553965.198   113266850.153           0.000          49.250           0.000           0.000           0.000           0.000           0.000           0.000           0.000           0.000    21553967.478    88259891.827           0.000          45.750           0.000           0.000           0.000           0.000  
G25  20839391.642   109511740.717           0.000          50.250           0.000           0.000           0.000           0.000           0.000           0.000           0.000           0.000    20839393.442    85333831.126           0.000          46.000           0.000           0.000           0.000           0.000  
G04  22992332.048   120825519.574           0.000          45.750           0.000           0.000           0.000           0.000           0.000           0.000           0.000           0.000    22992333.888    94149762.946           0.000          38.500           0.000           0.000           0.000           0.000  
G12  20253269.226   106431648.418           0.000          51.000           0.000           0.000           0.000           0.000           0.000           0.000           0.000           0.000    20253267.846    82933745.393           0.000          49.250           0.000           0.000           0.000           0.000  
G14  21954866.954   115373603.765           0.000          47.750           0.000           0.000           0.000           0.000           0.000           0.000           0.000           0.000    21954866.834    89901509.098           0.000          41.500           0.000           0.000           0.000           0.000  
> 2013 06 18 13 28 47.0000000  0  5
G24  21554443.398   113269363.245           0.000          49.000           0.000           0.000           0.000           0.000           0.000           0.000           0.000           0.000    21554445.758    88261850.079           0.000          45.500           0.000           0.000           0.000           0.000  
G25  20839086.162   109510135.563           0.000          50.250           0.000           0.000           0.000           0.000           0.000           0.000           0.000           0.000    20839087.982    85332580.357           0.000          46.500           0.000           0.000           0.000           0.000  
G04  22992185.228   120824748.001           0.000          45.500           0.000           0.000           0.000           0.000           0.000           0.000           0.000           0.000    22992187.048    94149161.727           0.000          38.500           0.000           0.000           0.000           0.000  
G12  20253414.426   106432411.381           0.000          51.000           0.000           0.000           0.000           0.000           0.000           0.000           0.000           0.000    20253413.046    82934339.907           0.000          49.250           0.000           0.000           0.000           0.000  
G14  21954794.594   115373223.566           0.000          47.750           0.000           0.000           0.000           0.000           0.000           0.000           0.000           0.000    21954794.474    89901212.835           0.000          42.750           0.000           0.000           0.000           0.000  
> 2013 06 18 13 28 48.0000000  0  3
G25  20838780.462   109508529.173           0.000          50.250           0.000           0.000           0.000           0.000           0.000           0.000           0.000           0.000    20838782.262    85331328.624           0.000          46.500           0.000           0.000           0.000           0.000  
G12  20253559.346   106433172.951           0.000          51.000           0.000           0.000           0.000           0.000           0.000           0.000           0.000           0.000    20253557.946    82934933.341           0.000          49.250           0.000           0.000           0.000           0.000  
G14  21954721.994   115372842.006           0.000          47.750           0.000           0.000           0.000           0.000           0.000           0.000           0.000           0.000    21954721.874    89900915.521           0.000          41.750           0.000           0.000           0.000           0.000  
> 2013 06 18 13 28 49.0000000  0  2
G24  21555399.978   113274391.132           0.000          48.750           0.000           0.000           0.000           0.000           0.000           0.000           0.000           0.000    21555402.818    88265770.857           0.000          44.500           0.000           0.000           0.000           0.000  
G04  22991891.568   120823205.530           0.000          46.000           0.000           0.000           0.000           0.000           0.000           0.000           0.000           0.000           0.000           0.000           0.000           0.000           0.000           0.000           0.000           0.000  
> 2013 06 18 13 28 50.0000000  0  4
G24  21555878.698   113276906.959           0.000          48.500           0.000           0.000           0.000           0.000           0.000           0.000           0.000           0.000    21555881.558    88267731.291           0.000          44.750           0.000           0.000           0.000           0.000  
G25  20838168.662   109505314.807           0.000          50.250           0.000           0.000           0.000           0.000           0.000           0.000           0.000           0.000    20838170.342    85328824.148           0.000          46.250           0.000           0.000           0.000           0.000  
G04  22991744.708   120822433.733           0.000          45.750           0.000           0.000           0.000           0.000           0.000           0.000           0.000           0.000    22991746.608    94147358.874           0.000          38.750           0.000           0.000           0.000           0.000  
G12  20253849.286   106434695.406           0.000          51.000           0.000           0.000           0.000           0.000           0.000           0.000           0.000           0.000    20253847.566    82936119.665           0.000          49.250           0.000           0.000           0.000           0.000  
> 2013 06 18 13 28 51.0000000  0  4
G24  21556357.878   113279424.936           0.000          49.000           0.000           0.000           0.000           0.000           0.000           0.000           0.000           0.000    21556360.658    88269693.344           0.000          45.250           0.000           0.000           0.000           0.000  
G25  20837862.602   109503706.755           0.000          50.250           0.000           0.000           0.000           0.000           0.000           0.000           0.000           0.000    20837864.362    85327571.129           0.000          46.250           0.000           0.000           0.000           0.000  
G04  22991597.988   120821662.769           0.000          46.000           0.000           0.000           0.000           0.000           0.000           0.000           0.000           0.000    22991599.888    94146758.111           0.000          39.000           0.000           0.000           0.000           0.000  
G12  20253994.026   106435456.595           0.000          51.000           0.000           0.000           0.000           0.000           0.000           0.000           0.000           0.000    20253992.466    82936712.797           0.000          49.500           0.000           0.000           0.000           0.000  
> 2013 06 18 13 28 52.0000000  0  4
G24  21556837.438   113281945.051           0.000          49.000           0.000           0.000           0.000           0.000           0.000           0.000           0.000           0.000    21556840.158    88271657.066           0.000          45.250           0.000           0.000           0.000           0.000  
G25  20837556.582   109502098.617           0.000          50.250           0.000           0.000           0.000           0.000           0.000           0.000           0.000           0.000    20837558.342    85326318.031           0.000          46.000           0.000           0.000           0.000           0.000  
G04  22991451.488   120820892.857           0.000          45.500           0.000           0.000           0.000           0.000           0.000           0.000           0.000           0.000    22991453.348    94146158.169           0.000          35.500           0.000           0.000           0.000           0.000  
G12  20254138.966   106436218.118           0.000          51.000           0.000           0.000           0.000           0.000           0.000           0.000           0.000           0.000    20254137.446    82937306.196           0.000          49.500           0.000           0.000           0.000           0.000  
> 2013 06 18 13 28 53.0000000  0  4
G24  21557317.398   113284467.271           0.000          49.000           0.000           0.000           0.000           0.000           0.000           0.000           0.000           0.000    21557320.058    88273622.430           0.000          45.750           0.000           0.000           0.000           0.000  
G25  20837250.502   109500490.143           0.000          50.250           0.000           0.000           0.000           0.000           0.000           0.000           0.000           0.000    20837252.242    85325064.670           0.000          46.250           0.000           0.000           0.000           0.000  
G04  22991305.148   120820123.932           0.000          45.500           0.000           0.000           0.000           0.000           0.000           0.000           0.000           0.000    22991307.028    94145559.007           0.000          37.750           0.000           0.000           0.000           0.000  
G12  20254283.906   106436979.781           0.000          51.000           0.000           0.000           0.000           0.000           0.000           0.000           0.000           0.000    20254282.386    82937899.697           0.000          49.500           0.000           0.000           0.000           0.000  
> 2013 06 18 13 28 54.0000000  0  4
G24  21557797.718   113286991.301           0.000          49.000           0.000           0.000           0.000           0.000           0.000           0.000           0.000           0.000    21557800.338    88275589.205           0.000          45.000           0.000           0.000           0.000           0.000  
G25  20836944.362   109498881.498           0.000          50.250           0.000           0.000           0.000           0.000           0.000           0.000           0.000           0.000    20836946.122    85323811.184           0.000          46.250           0.000           0.000           0.000           0.000  
G04  22991159.028   120819356.001           0.000          45.750           0.000           0.000           0.000           0.000           0.000           0.000           0.000           0.000    22991160.888    94144960.619           0.000          38.750           0.000           0.000           0.000           0.000  
G12  20254428.906   106437741.671           0.000          51.000           0.000           0.000           0.000           0.000           0.000           0.000           0.000           0.000    20254427.386    82938493.380           0.000          49.500           0.000           0.000           0.000           0.000  
> 2013 06 18 13 28 55.0000000  0  6
G24  21558278.438   113289517.544           0.000          49.000           0.000           0.000           0.000           0.000           0.000           0.000           0.000           0.000    21558281.038    88277557.702           0.000          45.500           0.000           0.000           0.000           0.000  
G25  20836638.242   109497272.871           0.000          50.250           0.000           0.000           0.000           0.000           0.000           0.000           0.000           0.000    20836640.022    85322557.711           0.000          46.250           0.000           0.000           0.000           0.000  
G02  23506252.764   123526186.235           0.000          45.250           0.000           0.000           0.000           0.000           0.000           0.000           0.000           0.000    23506252.744    96254170.751           0.000          38.750           0.000           0.000           0.000           0.000  
G04  22991013.128   120818589.378           0.000          46.000           0.000           0.000           0.000           0.000           0.000           0.000           0.000           0.000    22991014.988    94144363.250           0.000          37.750           0.000           0.000           0.000           0.000  
G12  20254573.966   106438504.132           0.000          51.000           0.000           0.000           0.000           0.000           0.000           0.000           0.000           0.000    20254572.486    82939087.504           0.000          49.750           0.000           0.000           0.000           0.000  
G14  21954210.594   115370152.421           0.000          48.250           0.000           0.000           0.000           0.000           0.000           0.000           0.000           0.000    21954210.494    89898821.719           0.000          42.750           0.000           0.000           0.000           0.000  
> 2013 06 18 13 28 56.0000000  0  6
G24  21558759.518   113292045.610           0.000          49.000           0.000           0.000           0.000           0.000           0.000           0.000           0.000           0.000    21558762.098    88279527.615           0.000          44.500           0.000           0.000           0.000           0.000  
G25  20836332.042   109495663.826           0.000          50.000           0.000           0.000           0.000           0.000           0.000           0.000           0.000           0.000    20836333.822    85321303.912           0.000          46.000           0.000           0.000           0.000           0.000  
G02  23505820.124   123523912.857           0.000          44.000           0.000           0.000           0.000           0.000           0.000           0.000           0.000           0.000    23505820.084    96252399.289           0.000          39.250           0.000           0.000           0.000           0.000  
G04  22990867.428   120817823.690           0.000          45.750           0.000           0.000           0.000           0.000           0.000           0.000           0.000           0.000    22990869.268    94143766.606           0.000          37.250           0.000           0.000           0.000           0.000  
G12  20254719.066   106439266.691           0.000          51.000           0.000           0.000           0.000           0.000           0.000           0.000           0.000           0.000    20254717.586    82939681.707           0.000          49.500           0.000           0.000           0.000           0.000  
G14  21954137.094   115369766.407           0.000          48.000           0.000           0.000           0.000           0.000           0.000           0.000           0.000           0.000    21954136.994    89898520.939           0.000          42.500           0.000           0.000           0.000           0.000  
> 2013 06 18 13 28 57.0000000  0  6
G24  21559240.918   113294575.468           0.000          48.750           0.000           0.000           0.000           0.000           0.000           0.000           0.000           0.000    21559243.518    88281498.931           0.000          44.750           0.000           0.000           0.000           0.000  
G25  20836025.802   109494054.645           0.000          50.000           0.000           0.000           0.000           0.000           0.000           0.000           0.000           0.000    20836027.622    85320050.005           0.000          46.000           0.000           0.000           0.000           0.000  
G02  23505387.824   123521641.347           0.000          44.500           0.000           0.000           0.000           0.000           0.000           0.000           0.000           0.000    23505387.964    96250629.304           0.000          40.000           0.000           0.000           0.000           0.000  
G04  22990721.948   120817059.256           0.000          46.000           0.000           0.000           0.000           0.000           0.000           0.000           0.000           0.000    22990723.808    94143170.943           0.000          37.750           0.000           0.000           0.000           0.000  
G12  20254864.226   106440029.640           0.000          51.000           0.000           0.000           0.000           0.000           0.000           0.000           0.000           0.000    20254862.786    82940276.213           0.000          49.500           0.000           0.000           0.000           0.000  
G14  21954063.554   115369380.083           0.000          47.750           0.000           0.000           0.000           0.000           0.000           0.000           0.000           0.000    21954063.414    89898219.913           0.000          41.500           0.000           0.000           0.000           0.000  
> 2013 06 18 13 28 58.0000000  0  6
G24  21559722.778   113297107.623           0.000          49.000           0.000           0.000           0.000           0.000           0.000           0.000           0.000           0.000    21559725.378    88283472.035           0.000          45.000           0.000           0.000           0.000           0.000  
G25  20835719.582   109492445.495           0.000          50.250           0.000           0.000           0.000           0.000           0.000           0.000           0.000           0.000    20835721.402    85318796.122           0.000          46.250           0.000           0.000           0.000           0.000  
G02  23504956.004   123519372.012           0.000          45.250           0.000           0.000           0.000           0.000           0.000           0.000           0.000           0.000    23504956.084    96248861.005           0.000          39.750           0.000           0.000           0.000           0.000  
G04  22990576.748   120816296.243           0.000          45.750           0.000           0.000           0.000           0.000           0.000           0.000           0.000           0.000    22990578.608    94142576.392           0.000          37.750           0.000           0.000           0.000           0.000  
G12  20255009.526   106440793.218           0.000          51.000           0.000           0.000           0.000           0.000           0.000           0.000           0.000           0.000    20255008.086    82940871.209           0.000          49.250           0.000           0.000           0.000           0.000  
G14  21953989.954   115368993.575           0.000          47.750           0.000           0.000           0.000           0.000           0.000           0.000           0.000           0.000    21953989.834    89897918.742           0.000          42.000           0.000           0.000           0.000           0.000  
> 2013 06 18 13 28 59.0000000  0  6
G24  21560204.958   113299641.551           0.000          49.000           0.000           0.000           0.000           0.000           0.000           0.000           0.000           0.000    21560207.558    88285446.522           0.000          45.250           0.000           0.000           0.000           0.000  
G25  20835413.282   109490836.020           0.000          50.000           0.000           0.000           0.000           0.000           0.000           0.000           0.000           0.000    20835415.122    85317541.981           0.000          46.500           0.000           0.000           0.000           0.000  
G02  23504524.524   123517104.554           0.000          46.500           0.000           0.000           0.000           0.000           0.000           0.000           0.000           0.000    23504524.644    96247094.171           0.000          40.750           0.000           0.000           0.000           0.000  
G04  22990431.788   120815534.468           0.000          45.500           0.000           0.000           0.000           0.000           0.000           0.000           0.000           0.000    22990433.628    94141982.809           0.000          37.500           0.000           0.000           0.000           0.000  
G12  20255154.846   106441556.993           0.000          51.000           0.000           0.000           0.000           0.000           0.000           0.000           0.000           0.000    20255153.426    82941466.356           0.000          49.500           0.000           0.000           0.000           0.000  
G14  21953916.294   115368606.589           0.000          47.750           0.000           0.000           0.000           0.000           0.000           0.000           0.000           0.000    21953916.174    89897617.191           0.000          42.500           0.000           0.000           0.000           0.000  
> 2013 06 18 13 29  0.0000000  0  6
G24  21560686.858   113302173.908           0.000          48.750           0.000           0.000           0.000           0.000           0.000           0.000           0.000           0.000    21560689.438    88287419.790           0.000          45.000           0.000           0.000           0.000           0.000  
G25  20835106.302   109489222.937           0.000          50.250           0.000           0.000           0.000           0.000           0.000           0.000           0.000           0.000    20835108.162    85316285.029           0.000          46.500           0.000           0.000           0.000           0.000  
G02  23504092.744   123514835.598           0.000          43.250           0.000           0.000           0.000           0.000           0.000           0.000           0.000           0.000    23504092.864    96245326.157           0.000          38.000           0.000           0.000           0.000           0.000  
G04  22990286.408   120814770.475           0.000          45.500           0.000           0.000           0.000           0.000           0.000           0.000           0.000           0.000    22990288.248    94141387.494           0.000          38.500           0.000           0.000           0.000           0.000  
G12  20255299.626   106442317.793           0.000          51.000           0.000           0.000           0.000           0.000           0.000           0.000           0.000           0.000    20255298.186    82942059.185           0.000          49.500           0.000           0.000           0.000           0.000  
G14  21953841.894   115368215.780           0.000          47.500           0.000           0.000           0.000           0.000           0.000           0.000           0.000           0.000    21953841.834    89897312.658           0.000          42.250           0.000           0.000           0.000           0.000  
> 2013 06 18 13 29  1.0000000  0  6
G24  21561167.438   113304699.331           0.000          47.750           0.000           0.000           0.000           0.000           0.000           0.000           0.000           0.000    21561170.018    88289387.654           0.000          43.500           0.000           0.000           0.000           0.000  
G25  20834797.562   109487600.566           0.000          50.250           0.000           0.000           0.000           0.000           0.000           0.000           0.000           0.000    20834799.442    85315020.841           0.000          46.250           0.000           0.000           0.000           0.000  
G29  23596039.484   123998017.107           0.000          39.750           0.000           0.000           0.000           0.000           0.000           0.000           0.000           0.000    23596041.864    96621842.392           0.000          31.750           0.000           0.000           0.000           0.000  
G04  22990139.568   120813998.852           0.000          45.250           0.000           0.000           0.000           0.000           0.000           0.000           0.000           0.000    22990141.408    94140786.235           0.000          35.750           0.000           0.000           0.000           0.000  
G12  20255442.746   106443069.959           0.000          51.000           0.000           0.000           0.000           0.000           0.000           0.000           0.000           0.000    20255441.326    82942645.291           0.000          49.500           0.000           0.000           0.000           0.000  
G14  21953765.694   115367815.486           0.000          48.000           0.000           0.000           0.000           0.000           0.000           0.000           0.000           0.000    21953765.654    89897000.736           0.000          42.500           0.000           0.000           0.000           0.000  
> 2013 06 18 13 29  2.0000000  0  5
G24  21561647.578   113307222.405           0.000          48.750           0.000           0.000           0.000           0.000           0.000           0.000           0.000           0.000    21561650.138    88291353.683           0.000          44.750           0.000           0.000           0.000           0.000  
G25  20834487.962   109485973.670           0.000          50.250           0.000           0.000           0.000           0.000           0.000           0.000           0.000           0.000    20834489.862    85313753.130           0.000          46.250           0.000           0.000           0.000           0.000  
G04  22989992.148   120813224.265           0.000          46.000           0.000           0.000           0.000           0.000           0.000           0.000           0.000           0.000    22989993.988    94140182.659           0.000          37.250           0.000           0.000           0.000           0.000  
G12  20255585.146   106443818.237           0.000          51.000           0.000           0.000           0.000           0.000           0.000           0.000           0.000           0.000    20255583.726    82943228.362           0.000          49.500           0.000           0.000           0.000           0.000  
G14  21953688.594   115367410.428           0.000          48.000           0.000           0.000           0.000           0.000           0.000           0.000           0.000           0.000    21953688.554    89896685.100           0.000          42.750           0.000           0.000           0.000           0.000  
> 2013 06 18 13 29  3.0000000  0  5
G24  21562127.698   113309745.463           0.000          49.000           0.000           0.000           0.000           0.000           0.000           0.000           0.000           0.000    21562130.258    88293319.694           0.000          45.000           0.000           0.000           0.000           0.000  
G25  20834178.102   109484345.360           0.000          50.250           0.000           0.000           0.000           0.000           0.000           0.000           0.000           0.000    20834180.022    85312484.320           0.000          46.500           0.000           0.000           0.000           0.000  
G04  22989844.708   120812449.436           0.000          45.500           0.000           0.000           0.000           0.000           0.000           0.000           0.000           0.000    22989846.548    94139578.892           0.000          38.000           0.000           0.000           0.000           0.000  
G12  20255727.366   106444565.569           0.000          51.000           0.000           0.000           0.000           0.000           0.000           0.000           0.000           0.000    20255725.926    82943810.703           0.000          49.250           0.000           0.000           0.000           0.000  
G14  21953611.254   115367003.964           0.000          48.250           0.000           0.000           0.000           0.000           0.000           0.000           0.000           0.000    21953611.214    89896368.375           0.000          42.500           0.000           0.000           0.000           0.000  
> 2013 06 18 13 29  4.0000000  0  4
G24  21562608.098   113312269.914           0.000          47.000           0.000           0.000           0.000           0.000           0.000           0.000           0.000           0.000    21562610.658    88295286.797           0.000          42.250           0.000           0.000           0.000           0.000  
G25  20833868.362   109482717.760           0.000          50.250           0.000           0.000           0.000           0.000           0.000           0.000           0.000           0.000    20833870.302    85311216.060           0.000          46.500           0.000           0.000           0.000           0.000  
G12  20255869.746   106445313.838           0.000          51.000           0.000           0.000           0.000           0.000           0.000           0.000           0.000           0.000    20255868.326    82944393.766           0.000          49.250           0.000           0.000           0.000           0.000  
G14  21953534.074   115366598.441           0.000          47.750           0.000           0.000           0.000           0.000           0.000           0.000           0.000           0.000    21953534.034    89896052.383           0.000          41.750           0.000           0.000           0.000           0.000  
> 2013 06 18 13 29  7.0000000  0  4
G25  20832940.942   109477843.578           0.000          50.250           0.000           0.000           0.000           0.000           0.000           0.000           0.000           0.000           0.000           0.000           0.000           0.000           0.000           0.000           0.000           0.000  
G04  22989258.168   120809367.179           0.000          45.000           0.000           0.000           0.000           0.000           0.000           0.000           0.000           0.000           0.000           0.000           0.000           0.000           0.000           0.000           0.000           0.000  
G12  20256298.506   106447567.878           0.000          51.000           0.000           0.000           0.000           0.000           0.000           0.000           0.000           0.000           0.000           0.000           0.000           0.000           0.000           0.000           0.000           0.000  
G14  21953304.974   115365392.055           0.000          47.500           0.000           0.000           0.000           0.000           0.000           0.000           0.000           0.000           0.000           0.000           0.000           0.000           0.000           0.000           0.000           0.000  
> 2013 06 18 13 29  8.0000000  0  4
G25  20832632.342   109476221.803           0.000          50.250           0.000           0.000           0.000           0.000           0.000           0.000           0.000           0.000    20832634.402    85306155.3071          0.000          46.500           0.000           0.000           0.000           0.000  
G04  22989112.328   120808601.437           0.000          45.000           0.000           0.000           0.000           0.000           0.000           0.000           0.000           0.000    22989113.108    94136574.432           0.000          36.750           0.000           0.000           0.000           0.000  
G12  20256442.126   106448322.370           0.000          51.000           0.000           0.000           0.000           0.000           0.000           0.000           0.000           0.000    20256440.946    82946739.0531          0.000          49.250           0.000           0.000           0.000           0.000  
G14  21953229.054   115364993.490           0.000          47.750           0.000           0.000           0.000           0.000           0.000           0.000           0.000           0.000    21953227.794    89894797.7981          0.000          41.500           0.000           0.000           0.000           0.000  
> 2013 06 18 13 29  9.0000000  0  4
G25  20832324.742   109474605.249           0.000          50.250           0.000           0.000           0.000           0.000           0.000           0.000           0.000           0.000    20832326.722    85304895.636           0.000          46.500           0.000           0.000           0.000           0.000  
G04  22988967.648   120807841.015           0.000          45.250           0.000           0.000           0.000           0.000           0.000           0.000           0.000           0.000    22988968.748    94135981.901           0.000          35.250           0.000           0.000           0.000           0.000  
G12  20256586.726   106449082.025           0.000          51.000           0.000           0.000           0.000           0.000           0.000           0.000           0.000           0.000    20256585.506    82947331.008           0.000          49.250           0.000           0.000           0.000           0.000  
G14  21953154.054   115364600.607           0.000          47.500           0.000           0.000           0.000           0.000           0.000           0.000           0.000           0.000    21953153.414    89894491.640           0.000          41.500           0.000           0.000           0.000           0.000  
> 2013 06 18 13 29 10.0000000  0  4
G25  20832017.922   109472992.681           0.000          50.250           0.000           0.000           0.000           0.000           0.000           0.000           0.000           0.000    20832019.802    85303639.082           0.000          46.500           0.000           0.000           0.000           0.000  
G04  22988823.688   120807084.999           0.000          45.250           0.000           0.000           0.000           0.000           0.000           0.000           0.000           0.000    22988825.128    94135392.802           0.000          36.250           0.000           0.000           0.000           0.000  
G12  20256732.106   106449845.736           0.000          51.000           0.000           0.000           0.000           0.000           0.000           0.000           0.000           0.000    20256730.766    82947926.116           0.000          49.250           0.000           0.000           0.000           0.000  
G14  21953079.994   115364212.032           0.000          47.750           0.000           0.000           0.000           0.000           0.000           0.000           0.000           0.000    21953079.594    89894188.843           0.000          42.250           0.000           0.000           0.000           0.000  
> 2013 06 18 13 29 11.0000000  0  4
G25  20831711.562   109471382.530           0.000          50.500           0.000           0.000           0.000           0.000           0.000           0.000           0.000           0.000    20831713.362    85302384.421           0.000          46.500           0.000           0.000           0.000           0.000  
G04  22988680.368   120806331.845           0.000          45.750           0.000           0.000           0.000           0.000           0.000           0.000           0.000           0.000    22988681.888    94134805.929           0.000          37.750           0.000           0.000           0.000           0.000  
G12  20256877.946   106450612.010           0.000          51.000           0.000           0.000           0.000           0.000           0.000           0.000           0.000           0.000    20256876.566    82948523.211           0.000          49.500           0.000           0.000           0.000           0.000  
G14  21953006.554   115363826.223           0.000          47.500           0.000           0.000           0.000           0.000           0.000           0.000           0.000           0.000    21953006.214    89893888.215           0.000          42.250           0.000           0.000           0.000           0.000  
> 2013 06 18 13 29 12.0000000  0  4
G25  20831405.402   109469773.509           0.000          50.500           0.000           0.000           0.000           0.000           0.000           0.000           0.000           0.000    20831407.162    85301130.640           0.000          46.500           0.000           0.000           0.000           0.000  
G04  22988537.348   120805580.114           0.000          44.750           0.000           0.000           0.000           0.000           0.000           0.000           0.000           0.000    22988538.788    94134220.159           0.000          36.250           0.000           0.000           0.000           0.000  
G12  20257023.986   106451379.419           0.000          51.000           0.000           0.000           0.000           0.000           0.000           0.000           0.000           0.000    20257022.586    82949121.193           0.000          49.250           0.000           0.000           0.000           0.000  
G14  21952933.434   115363441.946           0.000          47.500           0.000           0.000           0.000           0.000           0.000           0.000           0.000           0.000    21952933.074    89893588.782           0.000          42.000           0.000           0.000           0.000           0.000  
> 2013 06 18 13 29 13.0000000  0  5
G24  21566951.398   113335093.216           0.000          47.000           0.000           0.000           0.000           0.000           0.000           0.000           0.000           0.000    21566953.958    88313069.169           0.000          42.750           0.000           0.000           0.000           0.000  
G25  20831099.142   109468164.178           0.000          50.250           0.000           0.000           0.000           0.000           0.000           0.000           0.000           0.000    20831100.942    85299876.618           0.000          46.250           0.000           0.000           0.000           0.000  
G04  22988394.308   120804828.563           0.000          45.250           0.000           0.000           0.000           0.000           0.000           0.000           0.000           0.000    22988395.788    94133634.548           0.000          35.250           0.000           0.000           0.000           0.000  
G12  20257169.986   106452146.656           0.000          51.000           0.000           0.000           0.000           0.000           0.000           0.000           0.000           0.000    20257168.586    82949719.041           0.000          49.250           0.000           0.000           0.000           0.000  
G14  21952860.314   115363057.606           0.000          47.500           0.000           0.000           0.000           0.000           0.000           0.000           0.000           0.000    21952859.914    89893289.290           0.000          42.250           0.000           0.000           0.000           0.000  
> 2013 06 18 13 29 14.0000000  0  5
G24  21567435.398   113337636.516           0.000          46.250           0.000           0.000           0.000           0.000           0.000           0.000           0.000           0.000    21567437.938    88315050.962           0.000          41.250           0.000           0.000           0.000           0.000  
G25  20830792.762   109466554.212           0.000          50.500           0.000           0.000           0.000           0.000           0.000           0.000           0.000           0.000    20830794.602    85298622.096           0.000          46.250           0.000           0.000           0.000           0.000  
G04  22988251.228   120804076.756           0.000          45.250           0.000           0.000           0.000           0.000           0.000           0.000           0.000           0.000    22988252.588    94133048.733           0.000          35.000           0.000           0.000           0.000           0.000  
G12  20257315.886   106452913.358           0.000          51.000           0.000           0.000           0.000           0.000           0.000           0.000           0.000           0.000    20257314.486    82950316.473           0.000          49.250           0.000           0.000           0.000           0.000  
G14  21952787.114   115362673.003           0.000          47.750           0.000           0.000           0.000           0.000           0.000           0.000           0.000           0.000    21952786.734    89892989.602           0.000          42.000           0.000           0.000           0.000           0.000  
> 2013 06 18 13 29 15.0000000  0  5
G24  21567919.318   113340179.449           0.000          49.000           0.000           0.000           0.000           0.000           0.000           0.000           0.000           0.000    21567921.838    88317032.470           0.000          44.750           0.000           0.000           0.000           0.000  
G25  20830486.262   109464943.572           0.000          50.250           0.000           0.000           0.000           0.000           0.000           0.000           0.000           0.000    20830488.102    85297367.051           0.000          46.500           0.000           0.000           0.000           0.000  
G04  22988108.128   120803324.808           0.000          45.250           0.000           0.000           0.000           0.000           0.000           0.000           0.000           0.000    22988109.368    94132462.806           0.000          37.250           0.000           0.000           0.000           0.000  
G12  20257461.666   106453679.453           0.000          51.000           0.000           0.000           0.000           0.000           0.000           0.000           0.000           0.000    20257460.246    82950913.428           0.000          49.250           0.000           0.000           0.000           0.000  
G14  21952713.874   115362288.074           0.000          47.750           0.000           0.000           0.000           0.000           0.000           0.000           0.000           0.000    21952713.514    89892689.655           0.000          41.750           0.000           0.000           0.000           0.000  
> 2013 06 18 13 29 16.0000000  0  5
G24  21568403.138   113342721.885           0.000          49.250           0.000           0.000           0.000           0.000           0.000           0.000           0.000           0.000    21568405.618    88319013.577           0.000          44.750           0.000           0.000           0.000           0.000  
G25  20830179.682   109463332.596           0.000          50.250           0.000           0.000           0.000           0.000           0.000           0.000           0.000           0.000    20830181.562    85296111.749           0.000          46.500           0.000           0.000           0.000           0.000  
G04  22987965.028   120802572.818           0.000          45.500           0.000           0.000           0.000           0.000           0.000           0.000           0.000           0.000    22987966.168    94131876.852           0.000          35.250           0.000           0.000           0.000           0.000  
G12  20257607.406   106454445.309           0.000          51.000           0.000           0.000           0.000           0.000           0.000           0.000           0.000           0.000    20257605.986    82951510.201           0.000          49.500           0.000           0.000           0.000           0.000  
G14  21952640.634   115361903.206           0.000          47.750           0.000           0.000           0.000           0.000           0.000           0.000           0.000           0.000    21952640.314    89892389.758           0.000          42.000           0.000           0.000           0.000           0.000  
> 2013 06 18 13 29 17.0000000  0  5
G24  21568886.878   113345263.990           0.000          49.000           0.000           0.000           0.000           0.000           0.000           0.000           0.000           0.000    21568889.338    88320994.440           0.000          45.000           0.000           0.000           0.000           0.000  
G25  20829873.042   109461721.229           0.000          50.500           0.000           0.000           0.000           0.000           0.000           0.000           0.000           0.000    20829874.922    85294856.138           0.000          46.500           0.000           0.000           0.000           0.000  
G04  22987821.888   120801820.704           0.000          45.250           0.000           0.000           0.000           0.000           0.000           0.000           0.000           0.000    22987822.988    94131290.789           0.000          36.000           0.000           0.000           0.000           0.000  
G12  20257753.086   106455210.786           0.000          51.000           0.000           0.000           0.000           0.000           0.000           0.000           0.000           0.000    20257751.646    82952106.677           0.000          49.500           0.000           0.000           0.000           0.000  
G14  21952567.374   115361518.298           0.000          47.750           0.000           0.000           0.000           0.000           0.000           0.000           0.000           0.000    21952567.094    89892089.830           0.000          42.250           0.000           0.000           0.000           0.000  
> 2013 06 18 13 29 18.0000000  0  5
G24  21569370.578   113347805.804           0.000          48.750           0.000           0.000           0.000           0.000           0.000           0.000           0.000           0.000    21569373.018    88322975.067           0.000          45.000           0.000           0.000           0.000           0.000  
G25  20829566.362   109460109.649           0.000          50.250           0.000           0.000           0.000           0.000           0.000           0.000           0.000           0.000    20829568.262    85293600.361           0.000          46.750           0.000           0.000           0.000           0.000  
G04  22987678.808   120801068.832           0.000          45.250           0.000           0.000           0.000           0.000           0.000           0.000           0.000           0.000    22987679.908    94130704.908           0.000          36.250           0.000           0.000           0.000           0.000  
G12  20257898.726   106455976.108           0.000          51.000           0.000           0.000           0.000           0.000           0.000           0.000           0.000           0.000    20257897.286    82952703.032           0.000          49.500           0.000           0.000           0.000           0.000  
G14  21952494.154   115361133.585           0.000          48.000           0.000           0.000           0.000           0.000           0.000           0.000           0.000           0.000    21952493.914    89891790.051           0.000          42.500           0.000           0.000           0.000           0.000  
> 2013 06 18 13 29 19.0000000  0  5
G24  21569854.358   113350348.082           0.000          49.250           0.000           0.000           0.000           0.000           0.000           0.000           0.000           0.000    21569856.778    88324956.066           0.000          45.250           0.000           0.000           0.000           0.000  
G25  20829259.662   109458498.071           0.000          50.500           0.000           0.000           0.000           0.000           0.000           0.000           0.000           0.000    20829261.582    85292344.589           0.000          46.250           0.000           0.000           0.000           0.000  
G04  22987535.828   120800317.501           0.000          45.750           0.000           0.000           0.000           0.000           0.000           0.000           0.000           0.000    22987536.928    94130119.456           0.000          35.750           0.000           0.000           0.000           0.000  
G12  20258044.386   106456741.609           0.000          51.000           0.000           0.000           0.000           0.000           0.000           0.000           0.000           0.000    20258042.946    82953299.524           0.000          49.250           0.000           0.000           0.000           0.000  
G14  21952420.994   115360749.126           0.000          48.250           0.000           0.000           0.000           0.000           0.000           0.000           0.000           0.000    21952420.754    89891490.475           0.000          42.000           0.000           0.000           0.000           0.000  
> 2013 06 18 13 29 20.0000000  0  5
G24  21570338.198   113352890.705           0.000          49.000           0.000           0.000           0.000           0.000           0.000           0.000           0.000           0.000    21570340.598    88326937.324           0.000          44.250           0.000           0.000           0.000           0.000  
G25  20828953.042   109456886.723           0.000          50.500           0.000           0.000           0.000           0.000           0.000           0.000           0.000           0.000    20828954.942    85291088.994           0.000          46.500           0.000           0.000           0.000           0.000  
G04  22987392.948   120799566.722           0.000          45.750           0.000           0.000           0.000           0.000           0.000           0.000           0.000           0.000    22987394.048    94129534.439           0.000          36.500           0.000           0.000           0.000           0.000  
G12  20258190.106   106457507.368           0.000          51.000           0.000           0.000           0.000           0.000           0.000           0.000           0.000           0.000    20258188.666    82953896.219           0.000          49.500           0.000           0.000           0.000           0.000  
G14  21952347.954   115360365.233           0.000          48.000           0.000           0.000           0.000           0.000           0.000           0.000           0.000           0.000    21952347.714    89891191.335           0.000          42.500           0.000           0.000           0.000           0.000  
> 2013 06 18 13 29 21.0000000  0  5
G24  21570822.078   113355433.574           0.000          48.250           0.000           0.000           0.000           0.000           0.000           0.000           0.000           0.000    21570824.498    88328918.781           0.000          45.000           0.000           0.000           0.000           0.000  
G25  20828646.522   109455275.981           0.000          50.250           0.000           0.000           0.000           0.000           0.000           0.000           0.000           0.000    20828648.442    85289833.871           0.000          46.250           0.000           0.000           0.000           0.000  
G04  22987250.188   120798816.542           0.000          45.750           0.000           0.000           0.000           0.000           0.000           0.000           0.000           0.000    22987251.308    94128949.886           0.000          37.750           0.000           0.000           0.000           0.000  
G12  20258335.946   106458273.662           0.000          51.000           0.000           0.000           0.000           0.000           0.000           0.000           0.000           0.000    20258334.486    82954493.329           0.000          49.250           0.000           0.000           0.000           0.000  
G14  21952275.094   115359982.382           0.000          48.250           0.000           0.000           0.000           0.000           0.000           0.000           0.000           0.000    21952274.874    89890893.012           0.000          41.750           0.000           0.000           0.000           0.000  
> 2013 06 18 13 29 22.0000000  0  5
G24  21571306.098   113357977.111           0.000          46.500           0.000           0.000           0.000           0.000           0.000           0.000           0.000           0.000    21571308.518    88330900.760           0.000          42.500           0.000           0.000           0.000           0.000  
G25  20828340.042   109453665.402           0.000          50.500           0.000           0.000           0.000           0.000           0.000           0.000           0.000           0.000    20828341.962    85288578.876           0.000          46.500           0.000           0.000           0.000           0.000  
G04  22987107.548   120798066.990           0.000          46.000           0.000           0.000           0.000           0.000           0.000           0.000           0.000           0.000    22987108.688    94128365.821           0.000          37.000           0.000           0.000           0.000           0.000  
G12  20258481.806   106459040.162           0.000          51.000           0.000           0.000           0.000           0.000           0.000           0.000           0.000           0.000    20258480.346    82955090.602           0.000          49.500           0.000           0.000           0.000           0.000  
G14  21952202.314   115359599.960           0.000          48.250           0.000           0.000           0.000           0.000           0.000           0.000           0.000           0.000    21952202.114    89890595.017           0.000          42.000           0.000           0.000           0.000           0.000  
> 2013 06 18 13 29 23.0000000  0  5
G24  21571790.158   113360520.914           0.000          46.250           0.000           0.000           0.000           0.000           0.000           0.000           0.000           0.000    21571792.578    88332882.941           0.000          42.500           0.000           0.000           0.000           0.000  
G25  20828033.602   109452055.072           0.000          50.500           0.000           0.000           0.000           0.000           0.000           0.000           0.000           0.000    20828035.522    85287324.074           0.000          46.250           0.000           0.000           0.000           0.000  
G04  22986965.028   120797318.079           0.000          44.750           0.000           0.000           0.000           0.000           0.000           0.000           0.000           0.000    22986966.188    94127782.244           0.000          35.500           0.000           0.000           0.000           0.000  
G12  20258627.726   106459806.985           0.000          51.000           0.000           0.000           0.000           0.000           0.000           0.000           0.000           0.000    20258626.266    82955688.128           0.000          49.500           0.000           0.000           0.000           0.000  
G14  21952129.654   115359218.069           0.000          48.250           0.000           0.000           0.000           0.000           0.000           0.000           0.000           0.000    21952129.434    89890297.435           0.000          42.250           0.000           0.000           0.000           0.000  
> 2013 06 18 13 29 24.0000000  0  5
G24  21572273.978   113363063.476           0.000          46.000           0.000           0.000           0.000           0.000           0.000           0.000           0.000           0.000    21572276.418    88334864.163           0.000          43.250           0.000           0.000           0.000           0.000  
G25  20827726.802   109450442.814           0.000          50.500           0.000           0.000           0.000           0.000           0.000           0.000           0.000           0.000    20827728.702    85286067.769           0.000          46.250           0.000           0.000           0.000           0.000  
G04  22986822.228   120796567.655           0.000          46.000           0.000           0.000           0.000           0.000           0.000           0.000           0.000           0.000    22986823.368    94127197.486           0.000          36.250           0.000           0.000           0.000           0.000  
G12  20258773.306   106460572.034           0.000          51.000           0.000           0.000           0.000           0.000           0.000           0.000           0.000           0.000    20258771.846    82956284.270           0.000          49.250           0.000           0.000           0.000           0.000  
G14  21952056.654   115358834.462           0.000          48.250           0.000           0.000           0.000           0.000           0.000           0.000           0.000           0.000    21952056.454    89889998.523           0.000          41.500           0.000           0.000           0.000           0.000  
> 2013 06 18 13 29 25.0000000  0  5
G24  21572756.958   113365601.634           0.000          47.000           0.000           0.000           0.000           0.000           0.000           0.000           0.000           0.000    21572759.398    88336841.946           0.000          43.250           0.000           0.000           0.000           0.000  
G25  20827419.022   109448825.464           0.000          50.250           0.000           0.000           0.000           0.000           0.000           0.000           0.000           0.000    20827420.942    85284807.496           0.000          46.750           0.000           0.000           0.000           0.000  
G04  22986678.548   120795812.632           0.000          44.750           0.000           0.000           0.000           0.000           0.000           0.000           0.000           0.000    22986679.708    94126609.162           0.000          35.750           0.000           0.000           0.000           0.000  
G12  20258917.926   106461332.022           0.000          51.000           0.000           0.000           0.000           0.000           0.000           0.000           0.000           0.000    20258916.466    82956876.471           0.000          49.250           0.000           0.000           0.000           0.000  
G14  21951982.734   115358445.941           0.000          47.750           0.000           0.000           0.000           0.000           0.000           0.000           0.000           0.000    21951982.534    89889695.786           0.000          42.000           0.000           0.000           0.000           0.000  
> 2013 06 18 13 29 26.0000000  0  5
G24  21573239.718   113368138.566           0.000          47.750           0.000           0.000           0.000           0.000           0.000           0.000           0.000           0.000    21573242.158    88338818.772           0.000          44.500           0.000           0.000           0.000           0.000  
G25  20827110.922   109447206.359           0.000          50.500           0.000           0.000           0.000           0.000           0.000           0.000           0.000           0.000    20827112.822    85283545.856           0.000          47.000           0.000           0.000           0.000           0.000  
G04  22986534.608   120795056.178           0.000          45.250           0.000           0.000           0.000           0.000           0.000           0.000           0.000           0.000    22986535.768    94126019.722           0.000          36.000           0.000           0.000           0.000           0.000  
G12  20259062.226   106462090.305           0.000          51.000           0.000           0.000           0.000           0.000           0.000           0.000           0.000           0.000    20259060.766    82957467.341           0.000          49.250           0.000           0.000           0.000           0.000  
G14  21951908.514   115358055.881           0.000          47.500           0.000           0.000           0.000           0.000           0.000           0.000           0.000           0.000    21951908.294    89889391.847           0.000          41.750           0.000           0.000           0.000           0.000  
> 2013 06 18 13 29 27.0000000  0  5
G24  21573722.718   113370676.769           0.000          44.750           0.000           0.000           0.000           0.000           0.000           0.000           0.000           0.000    21573725.158    88340796.587           0.000          41.250           0.000           0.000           0.000           0.000  
G25  20826802.822   109445587.364           0.000          50.500           0.000           0.000           0.000           0.000           0.000           0.000           0.000           0.000    20826804.742    85282284.303           0.000          46.750           0.000           0.000           0.000           0.000  
G04  22986390.768   120794300.401           0.000          45.500           0.000           0.000           0.000           0.000           0.000           0.000           0.000           0.000    22986391.948    94125430.805           0.000          36.500           0.000           0.000           0.000           0.000  
G12  20259206.566   106462848.859           0.000          51.000           0.000           0.000           0.000           0.000           0.000           0.000           0.000           0.000    20259205.106    82958058.422           0.000          49.250           0.000           0.000           0.000           0.000  
G14  21951834.314   115357666.026           0.000          47.750           0.000           0.000           0.000           0.000           0.000           0.000           0.000           0.000    21951834.114    89889088.065           0.000          41.750           0.000           0.000           0.000           0.000  
> 2013 06 18 13 29 28.0000000  0  5
G24  21574206.158   113373217.303           0.000          48.250           0.000           0.000           0.000           0.000           0.000           0.000           0.000           0.000    21574208.618    88342776.223           0.000          44.000           0.000           0.000           0.000           0.000  
G25  20826495.042   109443969.956           0.000          50.500           0.000           0.000           0.000           0.000           0.000           0.000           0.000           0.000    20826496.962    85281023.983           0.000          46.750           0.000           0.000           0.000           0.000  
G04  22986247.328   120793546.572           0.000          45.250           0.000           0.000           0.000           0.000           0.000           0.000           0.000           0.000    22986248.508    94124843.417           0.000          37.000           0.000           0.000           0.000           0.000  
G12  20259351.226   106463609.050           0.000          51.000           0.000           0.000           0.000           0.000           0.000           0.000           0.000           0.000    20259349.766    82958650.782           0.000          49.500           0.000           0.000           0.000           0.000  
G14  21951760.454   115357277.844           0.000          48.000           0.000           0.000           0.000           0.000           0.000           0.000           0.000           0.000    21951760.254    89888785.586           0.000          41.500           0.000           0.000           0.000           0.000  
> 2013 06 18 13 29 29.0000000  0  5
G24  21574690.338   113375761.649           0.000          48.750           0.000           0.000           0.000           0.000           0.000           0.000           0.000           0.000    21574692.778    88344758.835           0.000          44.750           0.000           0.000           0.000           0.000  
G25  20826187.722   109442354.983           0.000          50.500           0.000           0.000           0.000           0.000           0.000           0.000           0.000           0.000    20826189.642    85279765.565           0.000          46.500           0.000           0.000           0.000           0.000  
G04  22986104.448   120792795.764           0.000          45.500           0.000           0.000           0.000           0.000           0.000           0.000           0.000           0.000    22986105.648    94124258.370           0.000          36.000           0.000           0.000           0.000           0.000  
G12  20259496.386   106464371.850           0.000          51.000           0.000           0.000           0.000           0.000           0.000           0.000           0.000           0.000    20259494.926    82959245.170           0.000          49.500           0.000           0.000           0.000           0.000  
G14  21951687.034   115356892.088           0.000          47.750           0.000           0.000           0.000           0.000           0.000           0.000           0.000           0.000    21951686.834    89888484.989           0.000          41.750           0.000           0.000           0.000           0.000  
> 2013 06 18 13 29 30.0000000  0  3
G25  20825880.962   109440742.917           0.000          50.500           0.000           0.000           0.000           0.000           0.000           0.000           0.000           0.000    20825882.862    85278509.406           0.000          46.000           0.000           0.000           0.000           0.000  
G12  20259642.166   106465137.979           0.000          51.000           0.000           0.000           0.000           0.000           0.000           0.000           0.000           0.000    20259640.706    82959842.154           0.000          49.500           0.000           0.000           0.000           0.000  
G14  21951614.134   115356509.001           0.000          47.500           0.000           0.000           0.000           0.000           0.000           0.000           0.000           0.000    21951613.934    89888186.482           0.000          42.250           0.000           0.000           0.000           0.000  
> 2013 06 18 13 29 37.0000000  0  6
G24  21578588.358   113396248.082           0.000          48.250           0.000           0.000           0.000           0.000           0.000           0.000           0.000           0.000    21578591.098    88360724.510           0.000          45.500           0.000           0.000           0.000           0.000  
G25  20823734.822   109429465.438           0.000          50.250           0.000           0.000           0.000           0.000           0.000           0.000           0.000           0.000    20823737.122    85269720.545           0.000          46.500           0.000           0.000           0.000           0.000  
G29  23571178.864   123867375.900           0.000          44.000           0.000           0.000           0.000           0.000           0.000           0.000           0.000           0.000    23571180.844    96520046.525           0.000          40.500           0.000           0.000           0.000           0.000  
G04  22984979.648   120786879.324           0.000          46.500           0.000           0.000           0.000           0.000           0.000           0.000           0.000           0.000    22984980.208    94119657.279           0.000          38.250           0.000           0.000           0.000           0.000  
G12  20260668.386   106470529.493           0.000          51.000           0.000           0.000           0.000           0.000           0.000           0.000           0.000           0.000    20260666.966    82964043.108           0.000          49.250           0.000           0.000           0.000           0.000  
G14  21951104.034   115353826.799           0.000          48.250           0.000           0.000           0.000           0.000           0.000           0.000           0.000           0.000    21951103.174    89886096.667           0.000          42.500           0.000           0.000           0.000           0.000  
